- id: co/center/center
  name: Center
  categories:
  - child-care
  address:
    street: 980 S Broadway
    street2: Apt 26
    city: Center
    state: co
    zip: '81125'
  place: 0812855
  geo:
    lat: 37.74821
    lng: -106.11224
  phone: 719-754-2971
  sources:
  - acf/head-start-locations
  verified:
    'on': '2026-07-19'
    method: api
- id: co/center/center-community-clinic
  name: Center Community Clinic
  categories:
  - community-health-center
  cost: sliding-scale
  address: {street: 186 Hurt St, city: Center, state: co, zip: '81125'}
  place: 0812855
  geo: {lat: 37.75659, lng: -106.11061}
  phone: 719-754-2778
  website: https://www.vwhs.org
  external_ids: {bphc: BPS-H80-000877}
  sources:
  - hrsa/health-center-sites
  verified: {'on': '2026-07-19', method: api}
- id: co/center/center-dental-clinic
  name: Center Dental Clinic
  categories:
  - community-health-center
  cost: sliding-scale
  address: {street: 135 E 6th St, city: Center, state: co, zip: '81125'}
  place: 0812855
  geo: {lat: 37.75051, lng: -106.11187}
  phone: 719-754-3584
  external_ids: {bphc: BPS-H80-031533}
  sources:
  - hrsa/health-center-sites
  verified: {'on': '2026-07-19', method: api}
- id: co/center/center-head-start
  name: Center Head Start
  categories:
  - child-care
  address:
    street: 301 E 3rd St
    city: Center
    state: co
    zip: '81125'
  place: 0812855
  geo:
    lat: 37.75372
    lng: -106.10941
  phone: 719-759-9259
  sources:
  - acf/head-start-locations
  verified:
    'on': '2026-07-19'
    method: api
- id: co/center/center-head-start-2
  name: Center Head Start
  categories:
  - child-care
  address:
    street: 301 East 3rd Street
    city: Center
    state: co
    zip: '81126'
  place: 0812855
  geo:
    lat: 37.75342
    lng: -106.10967
  phone: 719-759-9259
  sources:
  - acf/head-start-locations
  verified:
    'on': '2026-07-19'
    method: api
- id: co/center/center-housing-authority
  name: Center Housing Authority
  categories:
  - housing-assistance
  address:
    street: 138 Worth St
    city: Center
    state: co
    zip: '81125'
  description: Public housing and Housing Choice Voucher agency
  place: 0812855
  geo:
    lat: 37.75642
    lng: -106.10878
  phone: 719-754-2537
  sources:
  - hud/resource-locator
  verified:
    'on': '2026-07-19'
    method: api
- id: co/center/haskin-child-care-center
  name: Haskin Child Care Center
  categories:
  - child-care
  address:
    street: 550 Sylvester Ave
    city: Center
    state: co
    zip: '81125'
  place: 0812855
  geo:
    lat: 37.75048
    lng: -106.11485
  phone: 719-754-2840
  sources:
  - acf/head-start-locations
  verified:
    'on': '2026-07-19'
    method: api
- id: co/center/san-luis-valley-behavioral-health-group
  name: San Luis Valley Behavioral Health Group
  categories:
  - su-treatment
  - mh-treatment
  address:
    street: 260 Worth Street
    city: Center
    state: co
    zip: '81125'
  place: 0812855
  geo:
    lat: 37.75384
    lng: -106.1081
  phone: 719-589-3671
  website: https://www.slvbhg.org
  services:
  - Outpatient
  - Outpatient methadone/buprenorphine or naltrexone treatment
  - Regular outpatient treatment
  - Clients with co-occurring mental and substance use disorders
  - Clients who have experienced trauma
  cost: sliding-scale
  sources:
  - samhsa/findtreatment
  verified:
    'on': '2026-07-19'
    method: api
