- id: co/colorado-springs/a-good-life-counseling
  name: A Good Life Counseling
  categories:
  - su-treatment
  address:
    street: 4740 Flintridge Drive
    city: Colorado Springs
    state: co
    zip: '80918'
  place: 0816000
  geo:
    lat: 38.90166
    lng: -104.76938
  phone: 719-632-8654
  website: https://www.agoodlifecounselingcs.com
  sources:
  - samhsa/findtreatment
  verified:
    'on': '2026-07-19'
    method: api
- id: co/colorado-springs/a-turning-point-of-colorado-springs
  name: A Turning Point of Colorado Springs
  categories:
  - su-treatment
  address:
    street: 5160 North Union Boulevard
    city: Colorado Springs
    state: co
    zip: '80918'
  place: 0816000
  geo:
    lat: 38.90543
    lng: -104.77585
  phone: 719-550-1011
  website: https://www.aturningpointcs.org
  sources:
  - samhsa/findtreatment
  verified:
    'on': '2026-07-19'
    method: api
- id: co/colorado-springs/a1-mobile-home-park
  name: A1 Mobile Home Park
  categories:
  - meal-program
  address:
    street: 1025 Gamer St.
    city: Colorado Springs
    state: co
    zip: '80905'
  description: Free summer meals for kids and teens (2026 season) — sponsored by COLORADO SPRINGS 11.
  place: 0816000
  geo:
    lat: 38.8139
    lng: -104.8342
  phone: (719) 520-2933
  external_ids:
    usda_master: Cycle 01_CO_SFSP_0092
  sources:
  - usda/summer-meal-sites
  verified:
    'on': '2026-07-19'
    method: api
- id: co/colorado-springs/achieve-whole-recovery
  name: Achieve Whole Recovery
  categories:
  - su-treatment
  - mh-treatment
  address:
    street: 1115 Elkton Drive
    city: Colorado Springs
    state: co
    zip: '80907'
  place: 0816000
  geo:
    lat: 38.8984
    lng: -104.84602
  phone: 719-373-9703
  website: https://www.achievewholerecovery.com
  sources:
  - samhsa/findtreatment
  verified:
    'on': '2026-07-19'
    method: api
- id: co/colorado-springs/alternatives-and-beliefs-and-choices-counseling
  name: Alternatives and Beliefs and Choices Counseling Center
  categories:
  - su-treatment
  address:
    city: Colorado Springs
    state: co
    zip: '80909'
  place: 0816000
  phone: 719-660-2089
  website: https://alternatives-counseling.com/
  sources:
  - samhsa/findtreatment
  verified:
    'on': '2026-07-19'
    method: api
- id: co/colorado-springs/around-the-block-healthcare
  name: Around the Block Healthcare
  categories:
  - su-treatment
  - mh-treatment
  address:
    street: 3220 North Academy Boulevard
    city: Colorado Springs
    state: co
    zip: '80917'
  place: 0816000
  geo:
    lat: 38.87781
    lng: -104.75821
  phone: 719-747-2084
  website: https://www.aroundtheblockhealthcare.com/
  sources:
  - samhsa/findtreatment
  verified:
    'on': '2026-07-19'
    method: api
- id: co/colorado-springs/aspenridge-recovery-colorado-springs
  name: AspenRidge Recovery Colorado Springs
  categories:
  - su-treatment
  address:
    street: 1223 Lake Plaza Drive
    city: Colorado Springs
    state: co
    zip: '80906'
  place: 0816000
  geo:
    lat: 38.7941
    lng: -104.80673
  phone: 720-237-6306
  website: https://www.aspenridgerecovery.com
  sources:
  - samhsa/findtreatment
  verified:
    'on': '2026-07-19'
    method: api
- id: co/colorado-springs/at-psychiatry-pllc
  name: AT Psychiatry PLLC
  categories:
  - su-treatment
  - mh-treatment
  address:
    street: 1843 Austin Bluffs Parkway
    city: Colorado Springs
    state: co
    zip: '80918'
  place: 0816000
  geo:
    lat: 38.8879
    lng: -104.79381
  phone: 719-377-3993
  website: https://www.at-psychiatry.com
  sources:
  - samhsa/findtreatment
  verified:
    'on': '2026-07-19'
    method: api
- id: co/colorado-springs/behavioral-health-at-inside-out-youth-services
  name: Behavioral Health at Inside Out Youth Services
  categories:
  - community-health-center
  address:
    street: 516 W Colorado Ave
    city: Colorado Springs
    state: co
    zip: '80905'
  place: 0816000
  geo:
    lat: 38.83279
    lng: -104.83514
  phone: 719-632-5700
  website: https://www.peakvista.org
  external_ids:
    bphc: BPS-H80-038377
  sources:
  - hrsa/health-center-sites
  verified:
    'on': '2026-07-19'
    method: api
- id: co/colorado-springs/bhg-colorado-springs-treatment-center
  name: BHG Colorado Springs Treatment Center
  categories:
  - su-treatment
  address:
    street: 4157 Centennial Boulevard
    city: Colorado Springs
    state: co
    zip: '80907'
  place: 0816000
  geo:
    lat: 38.89257
    lng: -104.84919
  phone: 719-598-9750
  website: https://www.bhgrecovery.com/locations/colorado-springs-co/
  sources:
  - samhsa/findtreatment
  verified:
    'on': '2026-07-19'
    method: api
- id: co/colorado-springs/bricker
  name: Bricker
  categories:
  - child-care
  address:
    street: 4880 Dover Dr
    city: Colorado Springs
    state: co
    zip: '80916'
  place: 0816000
  geo:
    lat: 38.80087
    lng: -104.73696
  phone: 719-635-1536
  sources:
  - acf/head-start-locations
  verified:
    'on': '2026-07-19'
    method: api
- id: co/colorado-springs/cedar-springs-hospital-new-choices-dual-diagnosi
  name: Cedar Springs Hospital New Choices Dual Diagnosis Program
  categories:
  - su-treatment
  - mh-treatment
  address:
    street: 2135 Southgate Road
    city: Colorado Springs
    state: co
    zip: '80906'
  place: 0816000
  geo:
    lat: 38.80234
    lng: -104.817
  phone: 719-633-4114
  website: https://www.cedarspringsbhs.com
  sources:
  - samhsa/findtreatment
  verified:
    'on': '2026-07-19'
    method: api
- id: co/colorado-springs/centennial
  name: Centennial
  categories:
  - child-care
  address:
    street: 1860 S Chelton Rd
    city: Colorado Springs
    state: co
    zip: '80910'
  place: 0816000
  geo:
    lat: 38.80397
    lng: -104.76237
  phone: 719-635-1536
  sources:
  - acf/head-start-locations
  verified:
    'on': '2026-07-19'
    method: api
- id: co/colorado-springs/chamberlin
  name: Chamberlin
  categories:
  - child-care
  address:
    street: 2400 Slater Ave
    city: Colorado Springs
    state: co
    zip: '80905'
  place: 0816000
  geo:
    lat: 38.79887
    lng: -104.8089
  phone: 719-635-1536
  sources:
  - acf/head-start-locations
  verified:
    'on': '2026-07-19'
    method: api
- id: co/colorado-springs/colorado-springs-vet-center
  name: Colorado Springs Vet Center
  categories:
  - vet-center
  address: {street: '3920 North Union Blvd, Suite 310', city: Colorado Springs, state: co, zip: '80907'}
  place: 0816000
  geo: {lat: 38.88714, lng: -104.78662}
  phone: 719-471-9992
  website: https://www.va.gov/colorado-springs-vet-center/
  hours:
  - {days: [mon, tue], open: '08:00', close: '18:30'}
  - {days: [wed, thu, fri], open: '08:00', close: '16:30'}
  external_ids: {va: vc_0525V}
  sources:
  - va/facilities-api
  verified: {'on': '2026-07-19', method: api}
- id: co/colorado-springs/convenient-care-center
  name: Convenient Care Center
  categories:
  - community-health-center
  address:
    street: 3205 N Academy Blvd, Suite 100
    city: Colorado Springs
    state: co
    zip: '80917'
  place: 0816000
  geo:
    lat: 38.87854
    lng: -104.75612
  phone: 719-632-5700
  website: https://www.peakvista.org
  external_ids:
    bphc: BPS-H80-012709
  sources:
  - hrsa/health-center-sites
  verified:
    'on': '2026-07-19'
    method: api
- id: co/colorado-springs/cos-free-pantry-library
  name: COS Free Pantry & Library
  categories:
  - food-pantry
  place: 0816000
  geo:
    lat: 38.91775
    lng: -104.76842
  external_ids:
    lfp: '4368'
  sources:
  - littlefreepantry/map
  verified:
    'on': '2026-07-19'
    method: scrape
- id: co/colorado-springs/crossroads-turning-points-inc
  name: Crossroads Turning Points Inc
  categories:
  - su-treatment
  address:
    street: 1026 Maxwell Street
    city: Colorado Springs
    state: co
    zip: '80906'
  place: 0816000
  geo:
    lat: 38.7746
    lng: -104.78107
  phone: 719-203-6550
  website: https://www.crossroadstp.org
  sources:
  - samhsa/findtreatment
  verified:
    'on': '2026-07-19'
    method: api
- id: co/colorado-springs/dental-health-center
  name: Dental Health Center
  categories:
  - community-health-center
  address:
    street: 2828 International Cir STE 100
    city: Colorado Springs
    state: co
    zip: '80910'
  place: 0816000
  geo:
    lat: 38.82718
    lng: -104.78819
  phone: 719-475-0738
  website: https://www.peakvista.org
  external_ids:
    bphc: BPS-H80-009591
  sources:
  - hrsa/health-center-sites
  verified:
    'on': '2026-07-19'
    method: api
- id: co/colorado-springs/denver-recovery-group-colorado-springs
  name: Denver Recovery Group Colorado Springs
  categories:
  - su-treatment
  address:
    street: 2531 Airport Road
    city: Colorado Springs
    state: co
    zip: '80910'
  place: 0816000
  geo:
    lat: 38.82412
    lng: -104.78232
  phone: 719-300-7021
  website: https://www.denverrecoverygroup.com
  sources:
  - samhsa/findtreatment
  verified:
    'on': '2026-07-19'
    method: api
- id: co/colorado-springs/developmental-disabilities-health-center
  name: Developmental Disabilities Health Center
  categories:
  - community-health-center
  address:
    street: 3205 N Academy Blvd STE 120
    city: Colorado Springs
    state: co
    zip: '80917'
  place: 0816000
  geo:
    lat: 38.87849
    lng: -104.75697
  phone: 719-632-5700
  external_ids:
    bphc: BPS-H80-036781
  sources:
  - hrsa/health-center-sites
  verified:
    'on': '2026-07-19'
    method: api
- id: co/colorado-springs/diversus-health-substance-use-services-adult-and
  name: Diversus Health Substance Use Services/Adult and Child
  categories:
  - su-treatment
  - mh-treatment
  address:
    street: 1795 Jetwing Drive
    city: Colorado Springs
    state: co
    zip: '80916'
  place: 0816000
  geo:
    lat: 38.80814
    lng: -104.74134
  phone: 719-572-6100
  website: https://diversushealth.org/
  sources:
  - samhsa/findtreatment
  verified:
    'on': '2026-07-19'
    method: api
- id: co/colorado-springs/downtown-health-center
  name: Downtown Health Center
  categories:
  - community-health-center
  address:
    street: 111 E Las Vegas St
    city: Colorado Springs
    state: co
    zip: '80903'
  place: 0816000
  geo:
    lat: 38.81831
    lng: -104.82397
  phone: 719-632-5700
  website: https://www.peakvista.org
  external_ids:
    bphc: BPS-H80-034369
  sources:
  - hrsa/health-center-sites
  verified:
    'on': '2026-07-19'
    method: api
- id: co/colorado-springs/early-connections-antlers-place
  name: Early Connections ANTLERS PLACE
  categories:
  - child-care
  address:
    street: 108 Antlers Pl
    city: Colorado Springs
    state: co
    zip: '80903'
  place: 0816000
  geo:
    lat: 38.83327
    lng: -104.82737
  phone: 719-635-1536
  sources:
  - acf/head-start-locations
  verified:
    'on': '2026-07-19'
    method: api
- id: co/colorado-springs/early-connections-rio-grande
  name: Early Connections RIO GRANDE
  categories:
  - child-care
  address:
    street: 104 E Rio Grande St
    city: Colorado Springs
    state: co
    zip: '80903'
  place: 0816000
  geo:
    lat: 38.82449
    lng: -104.82393
  phone: 719-635-1536
  sources:
  - acf/head-start-locations
  verified:
    'on': '2026-07-19'
    method: api
- id: co/colorado-springs/early-connections-south-chelton
  name: Early Connections SOUTH CHELTON
  categories:
  - child-care
  address:
    street: 1465 S Chelton Rd
    city: Colorado Springs
    state: co
    zip: '80910'
  place: 0816000
  geo:
    lat: 38.81053
    lng: -104.76629
  phone: 719-635-1536
  sources:
  - acf/head-start-locations
  verified:
    'on': '2026-07-19'
    method: api
- id: co/colorado-springs/enrollment-services-at-academy-suite-1500
  name: Enrollment Services at Academy, Suite 1500
  categories:
  - community-health-center
  address:
    street: 3207 N Academy Blvd
    city: Colorado Springs
    state: co
    zip: '80917'
  place: 0816000
  geo:
    lat: 38.87842
    lng: -104.75515
  phone: 719-632-5700
  website: https://www.peakvista.org
  external_ids:
    bphc: BPS-H80-012373
  sources:
  - hrsa/health-center-sites
  verified:
    'on': '2026-07-19'
    method: api
- id: co/colorado-springs/evans
  name: EVANS
  categories:
  - child-care
  address:
    street: 1675 Winnebago Rd
    city: Colorado Springs
    state: co
    zip: '80915'
  place: 0816000
  geo:
    lat: 38.85603
    lng: -104.69419
  phone: 719-635-1536
  sources:
  - acf/head-start-locations
  verified:
    'on': '2026-07-19'
    method: api
- id: co/colorado-springs/family-health-center-at-mitchell-high-school
  name: Family Health Center at Mitchell High School
  categories:
  - community-health-center
  address:
    street: 4041 E San Miguel St
    city: Colorado Springs
    state: co
    zip: '80909'
  place: 0816000
  geo:
    lat: 38.85066
    lng: -104.75003
  phone: 719-328-6600
  external_ids:
    bphc: BPS-H80-029887
  sources:
  - hrsa/health-center-sites
  verified:
    'on': '2026-07-19'
    method: api
- id: co/colorado-springs/flintridge-food-pantry
  name: Flintridge Food Pantry
  categories:
  - food-pantry
  place: 0816000
  geo:
    lat: 38.91376
    lng: -104.76207
  external_ids:
    lfp: '4951'
  sources:
  - littlefreepantry/map
  verified:
    'on': '2026-07-19'
    method: scrape
- id: co/colorado-springs/fort-carson-center
  name: Fort Carson Center
  categories:
  - child-care
  address:
    street: 7330 Womack St
    street2: Bldg 2765
    city: Colorado Springs
    state: co
    zip: '80913'
  place: 0816000
  geo:
    lat: 38.72718
    lng: -104.75661
  phone: 719-635-1536
  sources:
  - acf/head-start-locations
  verified:
    'on': '2026-07-19'
    method: api
- id: co/colorado-springs/garden-of-the-gods-va-clinic
  name: Garden of the Gods VA Clinic
  categories: &id001
  - va-facility
  - health
  description: Other Outpatient Services (OOS)
  address: {street: 1365 Garden of the Gods Road, city: Colorado Springs, state: co, zip: '80907'}
  place: 0816000
  geo: {lat: 38.89648, lng: -104.85347}
  phone: 719-593-5300
  website: https://www.va.gov/eastern-colorado-health-care/locations/garden-of-the-gods-va-clinic/
  hours:
  - {days: [mon, tue, wed, thu, fri], open: '07:30', close: '16:30'}
  external_ids: {va: vha_554QF}
  sources:
  - va/facilities-api
  verified: {'on': '2026-07-19', method: api}
- id: co/colorado-springs/gateway-to-success
  name: Gateway to Success
  categories:
  - su-treatment
  - mh-treatment
  address:
    street: 155 Printers Parkway
    city: Colorado Springs
    state: co
    zip: '80910'
  place: 0816000
  geo:
    lat: 38.83067
    lng: -104.78699
  phone: 719-374-1650
  website: https://www.gateway2success.us
  sources:
  - samhsa/findtreatment
  verified:
    'on': '2026-07-19'
    method: api
- id: co/colorado-springs/giberson
  name: GIBERSON
  categories:
  - child-care
  address:
    street: 2880 Ferber Dr
    city: Colorado Springs
    state: co
    zip: '80916'
  place: 0816000
  geo:
    lat: 38.79288
    lng: -104.74978
  phone: 719-635-1536
  sources:
  - acf/head-start-locations
  verified:
    'on': '2026-07-19'
    method: api
- id: co/colorado-springs/grant
  name: GRANT
  categories:
  - child-care
  address:
    street: 3215 Westwood Blvd
    city: Colorado Springs
    state: co
    zip: '80918'
  place: 0816000
  geo:
    lat: 38.89553
    lng: -104.76752
  phone: 719-635-1536
  sources:
  - acf/head-start-locations
  verified:
    'on': '2026-07-19'
    method: api
- id: co/colorado-springs/griffith-centers-colorado-springs
  name: Griffith Centers Colorado Springs
  categories:
  - su-treatment
  - mh-treatment
  address:
    street: 10 Farragut Avenue
    city: Colorado Springs
    state: co
    zip: '80909'
  place: 0816000
  geo:
    lat: 38.83384
    lng: -104.79809
  phone: 719-394-4124
  website: https://www.griffithcenters.org
  sources:
  - samhsa/findtreatment
  verified:
    'on': '2026-07-19'
    method: api
- id: co/colorado-springs/griffith-centers-colorado-springs-2
  name: Griffith Centers Colorado Springs 2
  categories:
  - su-treatment
  - mh-treatment
  address:
    street: 17 Farragut Avenue
    city: Colorado Springs
    state: co
    zip: '80909'
  place: 0816000
  geo:
    lat: 38.83371
    lng: -104.79731
  phone: 303-237-6865
  website: https://www.griffithcenters.org/
  sources:
  - samhsa/findtreatment
  verified:
    'on': '2026-07-19'
    method: api
- id: co/colorado-springs/hands-up-counseling-llc
  name: Hands Up Counseling LLC
  categories:
  - su-treatment
  address:
    street: 3100 North Academy Boulevard
    city: Colorado Springs
    state: co
    zip: '80917'
  place: 0816000
  geo:
    lat: 38.87652
    lng: -104.75753
  phone: 719-572-1844
  website: https://handsupcounseling.com
  sources:
  - samhsa/findtreatment
  verified:
    'on': '2026-07-19'
    method: api
- id: co/colorado-springs/health-center-at-academy-suite-3300
  name: Health Center at Academy, Suite 3300
  categories:
  - community-health-center
  address:
    street: 3207 N Academy Blvd STE 3300
    city: Colorado Springs
    state: co
    zip: '80917'
  place: 0816000
  geo:
    lat: 38.87849
    lng: -104.75697
  phone: 719-632-5700
  website: https://www.peakvista.org
  external_ids:
    bphc: BPS-H80-012713
  sources:
  - hrsa/health-center-sites
  verified:
    'on': '2026-07-19'
    method: api
- id: co/colorado-springs/health-center-at-academy-suite-3500
  name: Health Center at Academy, Suite 3500
  categories:
  - community-health-center
  address:
    street: 3207 N Academy Blvd
    city: Colorado Springs
    state: co
    zip: '80917'
  place: 0816000
  geo:
    lat: 38.87842
    lng: -104.75515
  phone: 719-632-5700
  website: https://www.peakvista.org
  external_ids:
    bphc: BPS-H80-012545
  sources:
  - hrsa/health-center-sites
  verified:
    'on': '2026-07-19'
    method: api
- id: co/colorado-springs/health-center-at-jet-wing
  name: Health Center at Jet Wing
  categories:
  - community-health-center
  address:
    street: 1815 Jet Wing Dr
    city: Colorado Springs
    state: co
    zip: '80916'
  place: 0816000
  geo:
    lat: 38.80698
    lng: -104.74041
  phone: 719-632-5700
  website: https://www.peakvista.org
  external_ids:
    bphc: BPS-H80-027295
  sources:
  - hrsa/health-center-sites
  verified:
    'on': '2026-07-19'
    method: api
- id: co/colorado-springs/health-center-at-myron-stratton
  name: Health Center at Myron Stratton
  categories:
  - community-health-center
  address:
    street: 410 Gold Pass Hts
    city: Colorado Springs
    state: co
    zip: '80906'
  place: 0816000
  geo:
    lat: 38.79413
    lng: -104.82042
  phone: 719-632-5700
  website: https://www.peakvista.org
  external_ids:
    bphc: BPS-H80-001731
  sources:
  - hrsa/health-center-sites
  verified:
    'on': '2026-07-19'
    method: api
- id: co/colorado-springs/health-center-at-printers-parkway-340
  name: Health Center at Printers Parkway, 340
  categories:
  - community-health-center
  address:
    street: 340 Printers Pkwy
    city: Colorado Springs
    state: co
    zip: '80910'
  place: 0816000
  geo:
    lat: 38.82703
    lng: -104.7875
  phone: 719-632-5700
  website: https://www.peakvista.org
  external_ids:
    bphc: BPS-H80-017084
  sources:
  - hrsa/health-center-sites
  verified:
    'on': '2026-07-19'
    method: api
- id: co/colorado-springs/health-center-at-union-women-s-health-center
  name: Health Center at Union, Women's Health Center
  categories:
  - community-health-center
  address:
    street: 225 S Union Blvd
    city: Colorado Springs
    state: co
    zip: '80910'
  place: 0816000
  geo:
    lat: 38.82823
    lng: -104.79425
  phone: 719-344-6948
  website: https://www.peakvista.org
  external_ids:
    bphc: BPS-H80-005239
  sources:
  - hrsa/health-center-sites
  verified:
    'on': '2026-07-19'
    method: api
- id: co/colorado-springs/health-center-at-wahsatch-behavioral-health-cent
  name: Health Center at Wahsatch, Behavioral Health Center
  categories:
  - community-health-center
  address:
    street: 722 S Wahsatch Ave
    city: Colorado Springs
    state: co
    zip: '80903'
  place: 0816000
  geo:
    lat: 38.82377
    lng: -104.81897
  phone: 719-632-5700
  website: https://www.peakvista.org
  external_ids:
    bphc: BPS-H80-001678
  sources:
  - hrsa/health-center-sites
  verified:
    'on': '2026-07-19'
    method: api
- id: co/colorado-springs/high-plains
  name: High Plains
  categories:
  - child-care
  address:
    street: 2248 Vintage Dr
    city: Colorado Springs
    state: co
    zip: '80920'
  place: 0816000
  geo:
    lat: 38.94731
    lng: -104.78287
  phone: 719-635-1536
  sources:
  - acf/head-start-locations
  verified:
    'on': '2026-07-19'
    method: api
- id: co/colorado-springs/housing-authority-of-the-city-of-colorado-spring
  name: Housing Authority Of The City Of Colorado Springs
  categories:
  - housing-assistance
  address:
    street: 831 S Nevada Ave
    city: Colorado Springs
    state: co
    zip: '80903'
  description: Public housing and Housing Choice Voucher agency
  place: 0816000
  geo:
    lat: 38.82284
    lng: -104.82202
  phone: 719-387-6700
  sources:
  - hud/resource-locator
  verified:
    'on': '2026-07-19'
    method: api
- id: co/colorado-springs/hunt
  name: HUNT
  categories:
  - child-care
  address:
    street: 917 E Moreno Ave
    city: Colorado Springs
    state: co
    zip: '80903'
  place: 0816000
  geo:
    lat: 38.82463
    lng: -104.80708
  phone: 719-635-1536
  sources:
  - acf/head-start-locations
  verified:
    'on': '2026-07-19'
    method: api
- id: co/colorado-springs/insight-services-pllc
  name: Insight Services PLLC
  categories:
  - su-treatment
  - mh-treatment
  address:
    street: 212 East Monument Street
    city: Colorado Springs
    state: co
    zip: '80903'
  place: 0816000
  geo:
    lat: 38.84397
    lng: -104.82033
  phone: 719-447-0370
  website: https://www.insightservicescolorado.com
  sources:
  - samhsa/findtreatment
  verified:
    'on': '2026-07-19'
    method: api
- id: co/colorado-springs/lane-family-health-center
  name: Lane Family Health Center
  categories:
  - community-health-center
  address:
    street: 4863 N Nevada Ave
    city: Colorado Springs
    state: co
    zip: '80918'
  place: 0816000
  geo:
    lat: 38.90189
    lng: -104.81665
  phone: 719-632-5700
  website: https://www.peakvista.org
  external_ids:
    bphc: BPS-H80-013493
  sources:
  - hrsa/health-center-sites
  verified:
    'on': '2026-07-19'
    method: api
- id: co/colorado-springs/little-free-pantry
  name: Little Free Pantry
  categories:
  - food-pantry
  place: 0816000
  geo:
    lat: 38.86738
    lng: -104.77636
  external_ids:
    lfp: '400'
  sources:
  - littlefreepantry/map
  verified:
    'on': '2026-07-19'
    method: scrape
- id: co/colorado-springs/little-tykes-learning-center
  name: Little Tykes Learning Center
  categories:
  - child-care
  address:
    street: 1815 S Academy Blvd
    city: Colorado Springs
    state: co
    zip: '80916'
  place: 0816000
  geo:
    lat: 38.80662
    lng: -104.75563
  phone: 719-358-7671
  sources:
  - acf/head-start-locations
  verified:
    'on': '2026-07-19'
    method: api
- id: co/colorado-springs/mobile-health-services-van-1
  name: Mobile Health Services Van 1
  categories:
  - community-health-center
  address:
    street: 2510 E Platte Pl
    city: Colorado Springs
    state: co
    zip: '80909'
  place: 0816000
  geo:
    lat: 38.83697
    lng: -104.78092
  phone: 719-632-5700
  website: https://www.peakvista.org
  external_ids:
    bphc: BPS-H80-009521
  sources:
  - hrsa/health-center-sites
  verified:
    'on': '2026-07-19'
    method: api
- id: co/colorado-springs/monroe
  name: MONROE
  categories:
  - child-care
  address:
    street: 15 S Chelton Rd
    city: Colorado Springs
    state: co
    zip: '80910'
  place: 0816000
  geo:
    lat: 38.83175
    lng: -104.76535
  phone: 719-635-1536
  sources:
  - acf/head-start-locations
  verified:
    'on': '2026-07-19'
    method: api
- id: co/colorado-springs/monterey
  name: MONTEREY
  categories:
  - child-care
  address:
    street: 2311 Monterey Rd
    city: Colorado Springs
    state: co
    zip: '80910'
  place: 0816000
  geo:
    lat: 38.79966
    lng: -104.76697
  phone: 719-635-1536
  sources:
  - acf/head-start-locations
  verified:
    'on': '2026-07-19'
    method: api
- id: co/colorado-springs/north
  name: North
  categories:
  - child-care
  address:
    street: 209 Leta Dr
    city: Colorado Springs
    state: co
    zip: '80911'
  place: 0816000
  geo:
    lat: 38.76116
    lng: -104.745
  phone: 719-635-1536
  sources:
  - acf/head-start-locations
  verified:
    'on': '2026-07-19'
    method: api
- id: co/colorado-springs/oak-creek
  name: OAK CREEK
  categories:
  - child-care
  address:
    street: 3333 Oak Creek Dr W
    city: Colorado Springs
    state: co
    zip: '80906'
  place: 0816000
  geo:
    lat: 38.78375
    lng: -104.81716
  phone: 719-635-1536
  sources:
  - acf/head-start-locations
  verified:
    'on': '2026-07-19'
    method: api
- id: co/colorado-springs/palmer-park
  name: Palmer Park
  categories:
  - meal-program
  address:
    street: 3650 Maizeland
    city: Colorado Springs
    state: co
    zip: '80909'
  description: Free summer meals for kids and teens (2026 season) — sponsored by COLORADO SPRINGS 11.
  place: 0816000
  geo:
    lat: 38.86791
    lng: -104.76066
  phone: (719) 520-2920
  external_ids:
    usda_master: Cycle 01_CO_SFSP_0091
  sources:
  - usda/summer-meal-sites
  verified:
    'on': '2026-07-19'
    method: api
- id: co/colorado-springs/peak-vista-administrative-services-center
  name: Peak Vista Administrative Services Center
  categories:
  - community-health-center
  address:
    street: 3205 N Academy Blvd, Suite 130
    city: Colorado Springs
    state: co
    zip: '80917'
  place: 0816000
  geo:
    lat: 38.87854
    lng: -104.75612
  phone: 719-632-5700
  website: https://www.peakvista.org
  external_ids:
    bphc: BPS-H80-014303
  sources:
  - hrsa/health-center-sites
  verified:
    'on': '2026-07-19'
    method: api
- id: co/colorado-springs/peak-vista-pharmacy-at-academy
  name: Peak Vista Pharmacy at Academy
  categories:
  - community-health-center
  address:
    street: 3207 N Academy Blvd STE 1200
    city: Colorado Springs
    state: co
    zip: '80917'
  place: 0816000
  geo:
    lat: 38.87849
    lng: -104.75697
  phone: 719-344-6398
  website: https://www.peakvista.org
  external_ids:
    bphc: BPS-H80-012601
  sources:
  - hrsa/health-center-sites
  verified:
    'on': '2026-07-19'
    method: api
- id: co/colorado-springs/peaks-recovery-centers
  name: Peaks Recovery Centers
  categories:
  - su-treatment
  - mh-treatment
  address:
    street: 6430 Brook Park Drive
    city: Colorado Springs
    state: co
    zip: '80918'
  place: 0816000
  phone: 719-528-3500
  website: https://peaksrecovery.com
  sources:
  - samhsa/findtreatment
  verified:
    'on': '2026-07-19'
    method: api
- id: co/colorado-springs/pediatric-health-center-at-international-circle
  name: Pediatric Health Center at International Circle
  categories:
  - community-health-center
  address:
    street: 2828 International Cir, Unit 140
    city: Colorado Springs
    state: co
    zip: '80910'
  place: 0816000
  geo:
    lat: 38.82636
    lng: -104.78787
  phone: 719-632-5700
  website: https://www.peakvista.org
  external_ids:
    bphc: BPS-H80-010559
  sources:
  - hrsa/health-center-sites
  verified:
    'on': '2026-07-19'
    method: api
- id: co/colorado-springs/pfc-floyd-k-lindstrom-department-of-veterans-aff
  name: PFC Floyd K. Lindstrom Department of Veterans Affairs Clinic
  categories: *id001
  description: Multi-Specialty CBOC
  address: {street: 3141 Centennial Boulevard, city: Colorado Springs, state: co, zip: '80907'}
  place: 0816000
  geo: {lat: 38.87414, lng: -104.84536}
  phone: 719-327-5660
  website: https://www.va.gov/eastern-colorado-health-care/locations/pfc-floyd-k-lindstrom-department-of-veterans-affairs-clinic/
  hours:
  - {days: [mon, tue, wed, thu, fri], open: '07:00', close: '18:00'}
  external_ids: {va: vha_554GE}
  sources:
  - va/facilities-api
  verified: {'on': '2026-07-19', method: api}
- id: co/colorado-springs/pikes-peak
  name: PIKES PEAK
  categories:
  - child-care
  address:
    street: 1520 Verde Dr
    city: Colorado Springs
    state: co
    zip: '80910'
  place: 0816000
  geo:
    lat: 38.8113
    lng: -104.77111
  phone: 719-635-1536
  sources:
  - acf/head-start-locations
  verified:
    'on': '2026-07-19'
    method: api
- id: co/colorado-springs/pikes-peak-state-college-ehs-and-hs
  name: Pikes Peak State College EHS and HS
  categories:
  - child-care
  address:
    street: 5675 S Academy Blvd
    street2: Bldg 23
    city: Colorado Springs
    state: co
    zip: '80906'
  place: 0816000
  geo:
    lat: 38.76411
    lng: -104.78928
  phone: 719-635-1536
  sources:
  - acf/head-start-locations
  verified:
    'on': '2026-07-19'
    method: api
- id: co/colorado-springs/queen-palmer
  name: QUEEN PALMER
  categories:
  - child-care
  address:
    street: 1921 E Yampa St
    city: Colorado Springs
    state: co
    zip: '80909'
  place: 0816000
  geo:
    lat: 38.84581
    lng: -104.79194
  phone: 719-635-1536
  sources:
  - acf/head-start-locations
  verified:
    'on': '2026-07-19'
    method: api
- id: co/colorado-springs/recovery-unlimited
  name: Recovery Unlimited
  categories:
  - su-treatment
  address:
    street: 140 South Parkside Drive
    city: Colorado Springs
    state: co
    zip: '80910'
  place: 0816000
  geo:
    lat: 38.83045
    lng: -104.7861
  phone: 719-358-7338
  website: https://www.recoveryunlimited.biz
  sources:
  - samhsa/findtreatment
  verified:
    'on': '2026-07-19'
    method: api
- id: co/colorado-springs/rivendell-health
  name: Rivendell Health
  categories:
  - su-treatment
  - mh-treatment
  address:
    street: 1465 Kelly Johnson Boulevard
    city: Colorado Springs
    state: co
    zip: '80920'
  place: 0816000
  geo:
    lat: 38.9448
    lng: -104.80327
  phone: 719-726-6573
  website: https://www.rivendell-health.com
  sources:
  - samhsa/findtreatment
  verified:
    'on': '2026-07-19'
    method: api
- id: co/colorado-springs/sandstone-care-colorado-springs-outpatient-cente
  name: Sandstone Care Colorado Springs Outpatient Center
  categories:
  - su-treatment
  - mh-treatment
  address:
    street: 5731 North Academy Boulevard
    city: Colorado Springs
    state: co
    zip: '80918'
  place: 0816000
  geo:
    lat: 38.91432
    lng: -104.78711
  phone: 719-445-3260
  website: https://www.sandstonecare.com/locations/colorado-springs-rehab-center/
  sources:
  - samhsa/findtreatment
  verified:
    'on': '2026-07-19'
    method: api
- id: co/colorado-springs/sandstone-care-detox-center
  name: Sandstone Care Detox Center
  categories:
  - su-treatment
  - mh-treatment
  address:
    street: 2102 University Park Boulevard
    city: Colorado Springs
    state: co
    zip: '80918'
  place: 0816000
  geo:
    lat: 38.91075
    lng: -104.78971
  phone: 719-249-3545
  website: https://www.sandstonecare.com/colorado/
  sources:
  - samhsa/findtreatment
  verified:
    'on': '2026-07-19'
    method: api
- id: co/colorado-springs/space-center-va-clinic
  name: Space Center VA Clinic
  categories: *id001
  description: Primary Care CBOC
  address: {street: 565 Space Center Drive, city: Colorado Springs, state: co, zip: '80915'}
  place: 0816000
  geo: {lat: 38.84058, lng: -104.72696}
  phone: 719-638-5000
  website: https://www.va.gov/eastern-colorado-health-care/locations/space-center-va-clinic/
  hours:
  - {days: [mon, tue, wed, thu, fri], open: '08:00', close: '16:30'}
  external_ids: {va: vha_554GM}
  sources:
  - va/facilities-api
  verified: {'on': '2026-07-19', method: api}
- id: co/colorado-springs/stratton-meadows
  name: STRATTON MEADOWS
  categories:
  - child-care
  address:
    street: 610 Brookshire Ave
    city: Colorado Springs
    state: co
    zip: '80905'
  place: 0816000
  geo:
    lat: 38.80586
    lng: -104.8126
  phone: 719-635-1536
  sources:
  - acf/head-start-locations
  verified:
    'on': '2026-07-19'
    method: api
- id: co/colorado-springs/tatum
  name: Tatum
  categories:
  - child-care
  address:
    street: 2340 Robinson St
    city: Colorado Springs
    state: co
    zip: '80904'
  place: 0816000
  geo:
    lat: 38.84308
    lng: -104.86437
  phone: 719-635-1536
  sources:
  - acf/head-start-locations
  verified:
    'on': '2026-07-19'
    method: api
- id: co/colorado-springs/union-boulevard-va-clinic
  name: Union Boulevard VA Clinic
  categories: *id001
  description: Primary Care CBOC
  address: {street: '3920 North Union Boulevard, Premier Health Plaza', city: Colorado Springs, state: co,
    zip: '80907'}
  place: 0816000
  geo: {lat: 38.88767, lng: -104.78749}
  phone: 719-327-5660
  website: https://www.va.gov/eastern-colorado-health-care/locations/union-boulevard-va-clinic/
  hours:
  - {days: [mon, tue, wed, thu, fri], open: '08:00', close: '16:30'}
  external_ids: {va: vha_554GK}
  sources:
  - va/facilities-api
  verified: {'on': '2026-07-19', method: api}
- id: co/colorado-springs/va-regional-benefit-satellite-office-at-garden-o
  name: VA Regional Benefit Satellite Office at Garden of the Gods VA Clinic
  categories: &id002
  - va-facility
  description: Satellite Office
  address: {street: '1365 Garden of the Gods Rd, Suite 110', city: Colorado Springs, state: co, zip: '80907'}
  place: 0816000
  geo: {lat: 38.89642, lng: -104.85384}
  phone: 303-914-5550
  external_ids: {va: vba_339g}
  sources:
  - va/facilities-api
  verified: {'on': '2026-07-19', method: api}
- id: co/colorado-springs/va-regional-benefit-satellite-office-at-pfc-floy
  name: VA Regional Benefit Satellite Office at PFC Floyd K. Lindstrom VA Clinic
  categories: *id002
  description: Satellite Office
  address: {street: 3141 Centennial Blvd, city: Colorado Springs, state: co, zip: '80907'}
  place: 0816000
  geo: {lat: 38.87414, lng: -104.84536}
  phone: 719-327-5660
  external_ids: {va: vba_339b}
  sources:
  - va/facilities-api
  verified: {'on': '2026-07-19', method: api}
- id: co/colorado-springs/wasson-early-learning-center
  name: WASSON  EARLY LEARNING CENTER
  categories:
  - child-care
  address:
    street: 2115 Afton Way
    city: Colorado Springs
    state: co
    zip: '80909'
  place: 0816000
  geo:
    lat: 38.86076
    lng: -104.78168
  phone: 719-635-1536
  sources:
  - acf/head-start-locations
  verified:
    'on': '2026-07-19'
    method: api
- id: co/colorado-springs/wilson-elementary-school
  name: Wilson Elementary School
  categories:
  - meal-program
  address:
    street: 1409 Dereamer Cr.
    city: Colorado Springs
    state: co
    zip: '80915'
  description: Free summer meals for kids and teens (2026 season) — sponsored by COLORADO SPRINGS 11.
  place: 0816000
  geo:
    lat: 38.8532
    lng: -104.7468
  phone: (719) 250-2933
  external_ids:
    usda_master: Cycle 06_CO_SFSP_0207
  sources:
  - usda/summer-meal-sites
  verified:
    'on': '2026-07-19'
    method: api
