- id: co/fairplay/care-clinic-park-county
  name: Care Clinic Park County
  categories:
  - community-health-center
  cost: sliding-scale
  address:
    street: 548 Front St
    city: Fairplay
    state: co
    zip: '80440'
  place: 0825610
  geo:
    lat: 39.22352
    lng: -106.00121
  phone: 970-668-4055
  website: https://summitclinic.org
  external_ids:
    bphc: BPS-H80-037750
  sources:
  - hrsa/health-center-sites
  verified:
    'on': '2026-07-19'
    method: api
- id: co/fairplay/fairplay-wic-clinic
  name: Fairplay WIC Clinic
  categories:
  - food
  - family-support
  description: 'WIC clinic — Special Supplemental Nutrition Program for Women, Infants, and Children:
    healthy food benefits, nutrition counseling, and breastfeeding support for pregnant and postpartum
    parents and children under 5. (Tuesdays, 8:30 a.m. to 5:00 p.m.)'
  address:
    street: 825 Clark Street
    city: Fairplay
    state: co
    zip: '80440'
  geo:
    lat: 39.22557
    lng: -105.9962
  place: 0825610
  phone: 719-836-4161
  external_ids:
    wic: co-cdphe:85
  sources:
  - wic/co-cdphe
  verified:
    'on': '2026-07-20'
    method: api
- id: co/fairplay/park-county-department-of-human-services-fairpla
  name: Park County Department of Human Services - Fairplay
  categories:
  - utility-assistance
  description: LIHEAP intake office serving Park County
  address:
    street: 825 Clark St. / P.O. Box 968
    city: Fairplay
    state: co
    zip: '80440'
  place: 0825610
  phone: 719-836-4139
  website: https://www.parkco.us/82/Human-Services
  sources:
  - acf/liheap-clearinghouse
  verified:
    'on': '2026-07-19'
    method: scrape
  geo:
    lat: 39.22496
    lng: -105.99521
- id: co/fairplay/park-county-re-2-sbhc
  name: Park County RE-2 SBHC
  categories:
  - community-health-center
  cost: sliding-scale
  address:
    street: 640 Hathaway St
    city: Fairplay
    state: co
    zip: '80440'
  place: 0825610
  geo:
    lat: 39.22383
    lng: -105.99902
  phone: 970-423-8831
  external_ids:
    bphc: BPS-H80-022346
  sources:
  - hrsa/health-center-sites
  verified:
    'on': '2026-07-19'
    method: api
- id: co/fairplay/silver-heels
  name: Silver Heels
  categories:
  - food-pantry
  place: 0825610
  geo:
    lat: 39.23048
    lng: -106.00084
  website: https://mapping.littlefreepantry.org/pantry/3295
  external_ids:
    lfp: '3295'
  sources:
  - littlefreepantry/map
  verified:
    'on': '2026-07-19'
    method: scrape
