- id: co/loveland/a-new-perspective-counseling-centers
  name: A New Perspective Counseling Centers
  categories:
  - su-treatment
  address:
    street: 2017 West Eisenhower Boulevard
    city: Loveland
    state: co
    zip: '80537'
  place: 0846465
  geo:
    lat: 40.40767
    lng: -105.10557
  phone: 970-461-0978
  website: https://anewperspective.com
  sources:
  - samhsa/findtreatment
  verified:
    'on': '2026-07-19'
    method: api
- id: co/loveland/bamford-elementary
  name: Bamford Elementary
  categories:
  - child-care
  address:
    street: 6055 Travers Stakes St
    city: Loveland
    state: co
    zip: '80538'
  place: 0846465
  geo:
    lat: 40.39776
    lng: -105.07498
  phone: 970-488-8500
  sources:
  - acf/head-start-locations
  verified:
    'on': '2026-07-19'
    method: api
- id: co/loveland/carrie-martin
  name: Carrie Martin
  categories:
  - child-care
  address:
    street: 4129 Joni Ln
    city: Loveland
    state: co
    zip: '80537'
  place: 0846465
  geo:
    lat: 40.35088
    lng: -105.09935
  phone: 970-613-5711
  sources:
  - acf/head-start-locations
  verified:
    'on': '2026-07-19'
    method: api
- id: co/loveland/centennial-elementary
  name: Centennial Elementary
  categories:
  - child-care
  address:
    street: 1555 W 37th St
    city: Loveland
    state: co
    zip: '80538'
  place: 0846465
  geo:
    lat: 40.43015
    lng: -105.09947
  phone: 970-613-5850
  sources:
  - acf/head-start-locations
  verified:
    'on': '2026-07-19'
    method: api
- id: co/loveland/creative-counseling-services
  name: Creative Counseling Services
  categories:
  - su-treatment
  address:
    street: 3001 North Taft Avenue
    city: Loveland
    state: co
    zip: '80538'
  place: 0846465
  geo:
    lat: 40.42235
    lng: -105.09824
  phone: 970-663-2900
  website: https://www.creativecounselingservices.org
  sources:
  - samhsa/findtreatment
  verified:
    'on': '2026-07-19'
    method: api
- id: co/loveland/early-childhood-center-at-stansberry
  name: Early Childhood Center at Stansberry
  categories:
  - child-care
  address:
    street: 407 E 42nd St
    city: Loveland
    state: co
    zip: '80538'
  place: 0846465
  geo:
    lat: 40.43569
    lng: -105.07172
  phone: 970-613-5052
  sources:
  - acf/head-start-locations
  verified:
    'on': '2026-07-19'
    method: api
- id: co/loveland/fairgrounds-park
  name: Fairgrounds Park
  categories:
  - meal-program
  address:
    street: 700 Railroad Ave
    city: Loveland
    state: co
    zip: '80537'
  description: Free summer meals for kids and teens (2026 season) — sponsored by Food Bank for Larimer
    County.
  place: 0846465
  geo:
    lat: 40.38824
    lng: -105.07936
  phone: (970) 493-4477
  external_ids:
    usda_master: Cycle 06_CO_SFSP_0474
  sources:
  - usda/summer-meal-sites
  verified:
    'on': '2026-07-19'
    method: api
- id: co/loveland/high-plains-prek-8
  name: High Plains PreK - 8
  categories:
  - child-care
  address:
    street: 4255 Buffalo Mountain Dr
    city: Loveland
    state: co
    zip: '80538'
  place: 0846465
  geo:
    lat: 40.41573
    lng: -105.01939
  phone: 970-613-5761
  sources:
  - acf/head-start-locations
  verified:
    'on': '2026-07-19'
    method: api
- id: co/loveland/laurene-edmondson-elementary
  name: Laurene Edmondson Elementary
  categories:
  - child-care
  address:
    street: 307 W 49th St
    city: Loveland
    state: co
    zip: '80538'
  place: 0846465
  geo:
    lat: 40.44317
    lng: -105.08002
  phone: 970-613-6359
  sources:
  - acf/head-start-locations
  verified:
    'on': '2026-07-19'
    method: api
- id: co/loveland/lincoln-elementary
  name: Lincoln Elementary
  categories:
  - child-care
  address:
    street: 3312 Douglas Ave
    city: Loveland
    state: co
    zip: '80538'
  place: 0846465
  geo:
    lat: 40.42616
    lng: -105.08878
  phone: 970-613-6280
  sources:
  - acf/head-start-locations
  verified:
    'on': '2026-07-19'
    method: api
- id: co/loveland/little-free-pantry
  name: Little Free Pantry
  categories:
  - food-pantry
  place: 0846465
  geo:
    lat: 40.40599
    lng: -105.07823
  external_ids:
    lfp: '1876'
  sources:
  - littlefreepantry/map
  verified:
    'on': '2026-07-19'
    method: scrape
- id: co/loveland/loveland-housing-authority
  name: Loveland Housing Authority
  categories:
  - housing-assistance
  address:
    street: 375 W 37th St
    city: Loveland
    state: co
    zip: '80538'
  description: Housing Choice Voucher (Section 8) agency
  place: 0846465
  geo:
    lat: 40.43066
    lng: -105.08109
  phone: 970-667-3232
  sources:
  - hud/resource-locator
  verified:
    'on': '2026-07-19'
    method: api
- id: co/loveland/loveland-public-library
  name: Loveland Public Library
  categories:
  - meal-program
  address:
    street: 300 Adams Ave
    city: Loveland
    state: co
    zip: '80537'
  description: Free summer meals for kids and teens (2026 season) — sponsored by Food Bank for Larimer
    County.
  place: 0846465
  geo:
    lat: 40.39484
    lng: -105.06919
  phone: (970) 493-4477
  external_ids:
    usda_master: Cycle 06_CO_SFSP_0468
  sources:
  - usda/summer-meal-sites
  verified:
    'on': '2026-07-19'
    method: api
- id: co/loveland/loveland-va-clinic
  name: Loveland VA Clinic
  categories: &id001
  - va-facility
  - health
  description: Other Outpatient Services (OOS)
  address:
    street: 5200 Hahns Peak Drive
    city: Loveland
    state: co
    zip: '80538'
  place: 0846465
  geo:
    lat: 40.41265
    lng: -105.00382
  phone: 970-962-4900
  website: https://www.va.gov/cheyenne-health-care/locations/loveland-va-clinic/
  hours:
  - days:
    - mon
    - tue
    - wed
    - thu
    - fri
    open: 07:00
    close: '17:00'
  services:
  - Cardiology
  - Chiropractic
  - My HealtheVet coordinator
  - Neurology
  - Pain management
  - Telehealth
  - Travel reimbursement
  - Whole health
  external_ids:
    va: vha_442GD
  sources:
  - va/facilities-api
  verified:
    'on': '2026-07-19'
    method: api
- id: co/loveland/mehaffey-park
  name: Mehaffey Park
  categories:
  - meal-program
  address:
    street: 3285 W. 22Nd St
    city: Loveland
    state: co
    zip: '80538'
  description: Free summer meals for kids and teens (2026 season) — sponsored by Food Bank for Larimer
    County.
  place: 0846465
  geo:
    lat: 40.41466
    lng: -105.1208
  phone: (970) 530-3115
  external_ids:
    usda_master: Cycle 06_CO_SFSP_0475
  sources:
  - usda/summer-meal-sites
  verified:
    'on': '2026-07-19'
    method: api
- id: co/loveland/north-loveland-community-health-center
  name: North Loveland Community Health Center
  categories:
  - community-health-center
  address:
    street: 201 W 69th Ct
    city: Loveland
    state: co
    zip: '80538'
  place: 0846465
  geo:
    lat: 40.46339
    lng: -105.079
  phone: 970-699-7500
  external_ids:
    bphc: BPS-H80-040268
  sources:
  - hrsa/health-center-sites
  verified:
    'on': '2026-07-19'
    method: api
- id: co/loveland/northern-colorado-va-clinic
  name: Northern Colorado VA Clinic
  categories: *id001
  description: Multi-Specialty CBOC
  address:
    street: 4575 Byrd Drive
    city: Loveland
    state: co
    zip: '80538'
  place: 0846465
  geo:
    lat: 40.44222
    lng: -104.99593
  phone: 970-593-3300
  website: https://www.va.gov/cheyenne-health-care/locations/northern-colorado-va-clinic/
  hours:
  - days:
    - mon
    - tue
    - wed
    - thu
    - fri
    open: 07:00
    close: '17:00'
  services:
  - Audiology and speech
  - Cardiology
  - Dental/oral surgery
  - Dermatology
  - Laboratory and pathology
  - Mental health care
  - Nutrition, food, and dietary care
  - Ophthalmology
  - Optometry
  - Orthopedics
  - Otolaryngology
  - Pharmacy
  - Physical medicine and rehabilitation
  - Podiatry
  - Primary care
  - Pulmonary medicine
  - Radiology
  - Social work
  - Telehealth
  - Urgent care
  - Urology
  - Women Veteran care
  external_ids:
    va: vha_442GE
  sources:
  - va/facilities-api
  verified:
    'on': '2026-07-19'
    method: api
- id: co/loveland/northpoint-colorado
  name: Northpoint Colorado
  categories:
  - su-treatment
  - mh-treatment
  address:
    street: 4565 Kendall Parkway
    city: Loveland
    state: co
    zip: '80538'
  place: 0846465
  geo:
    lat: 40.42909
    lng: -105.01058
  phone: 208-551-1160
  website: https://www.northpointcolorado.com/
  sources:
  - samhsa/findtreatment
  verified:
    'on': '2026-07-19'
    method: api
- id: co/loveland/nw-corner-of-w-1st-st-and-n-roosevelt-ave
  name: NW Corner of W 1st St and N Roosevelt Ave
  categories:
  - food-pantry
  place: 0846465
  geo:
    lat: 40.39292
    lng: -105.08407
  external_ids:
    lfp: '4095'
  sources:
  - littlefreepantry/map
  verified:
    'on': '2026-07-19'
    method: scrape
- id: co/loveland/peak-view-prek-8
  name: Peak View PreK-8
  categories:
  - child-care
  address:
    street: 2660 Monroe Ave
    city: Loveland
    state: co
    zip: '80538'
  place: 0846465
  geo:
    lat: 40.40822
    lng: -105.06752
  phone: 970-613-7300
  sources:
  - acf/head-start-locations
  verified:
    'on': '2026-07-19'
    method: api
- id: co/loveland/ponderosa-elementary
  name: Ponderosa Elementary
  categories:
  - child-care
  address:
    street: 4550 Florence Dr
    city: Loveland
    state: co
    zip: '80538'
  place: 0846465
  geo:
    lat: 40.43937
    lng: -105.12356
  phone: 970-679-9543
  sources:
  - acf/head-start-locations
  verified:
    'on': '2026-07-19'
    method: api
- id: co/loveland/sarah-milner-elementary
  name: Sarah Milner Elementary
  categories:
  - child-care
  address:
    street: 743 Jocelyn Dr
    city: Loveland
    state: co
    zip: '80537'
  place: 0846465
  geo:
    lat: 40.38496
    lng: -105.10867
  phone: 970-613-6710
  sources:
  - acf/head-start-locations
  verified:
    'on': '2026-07-19'
    method: api
- id: co/loveland/south-loveland-community-health-center
  name: South Loveland Community Health Center
  categories:
  - community-health-center
  address:
    street: 302 3rd St SE
    city: Loveland
    state: co
    zip: '80537'
  place: 0846465
  geo:
    lat: 40.38993
    lng: -105.07245
  phone: 970-669-4855
  website: https://sunrisecommunityhealth.org
  external_ids:
    bphc: BPS-H80-013578
  sources:
  - hrsa/health-center-sites
  verified:
    'on': '2026-07-19'
    method: api
- id: co/loveland/sunrise-summitstone-clinic
  name: SUNRISE SUMMITSTONE CLINIC
  categories:
  - community-health-center
  address:
    street: 1250 N Wilson Ave
    city: Loveland
    state: co
    zip: '80537'
  place: 0846465
  geo:
    lat: 40.40621
    lng: -105.10965
  phone: 970-353-9403
  website: https://sunrisecommunityhealth.org
  external_ids:
    bphc: BPS-H80-010573
  sources:
  - hrsa/health-center-sites
  verified:
    'on': '2026-07-19'
    method: api
- id: co/loveland/sunrise-thompson-health-clinic
  name: Sunrise Thompson Health Clinic
  categories:
  - community-health-center
  address:
    street: 2880 Monroe Ave
    city: Loveland
    state: co
    zip: '80538'
  place: 0846465
  geo:
    lat: 40.42162
    lng: -105.06801
  phone: 970-613-6800
  external_ids:
    bphc: BPS-H80-030681
  sources:
  - hrsa/health-center-sites
  verified:
    'on': '2026-07-19'
    method: api
- id: co/loveland/va-regional-benefit-satellite-office-at-northern
  name: VA Regional Benefit Satellite Office at Northern Colorado VA Clinic
  categories:
  - va-facility
  description: Satellite Office
  address:
    street: 4575 Byrd Drive
    city: Loveland
    state: co
    zip: '80538'
  place: 0846465
  geo:
    lat: 40.44017
    lng: -105.00021
  phone: 970-593-3300 ext. 2805
  services:
  - ApplyingForBenefits
  - BurialClaimAssistance
  - DisabilityClaimAssistance
  - HomelessAssistance
  - UpdatingDirectDepositInformation
  - eBenefitsRegistrationAssistance
  external_ids:
    va: vba_339e
  sources:
  - va/facilities-api
  verified:
    'on': '2026-07-19'
    method: api
- id: co/loveland/willow-bend-park
  name: Willow Bend Park
  categories:
  - meal-program
  address:
    street: 2538 E 1St St
    city: Loveland
    state: co
    zip: '80537'
  description: Free summer meals for kids and teens (2026 season) — sponsored by Food Bank for Larimer
    County.
  place: 0846465
  geo:
    lat: 40.39269
    lng: -105.04018
  phone: (970) 530-3109
  external_ids:
    usda_master: Cycle 06_CO_SFSP_0489
  sources:
  - usda/summer-meal-sites
  verified:
    'on': '2026-07-19'
    method: api
- id: co/loveland/winona-elementary
  name: Winona Elementary
  categories:
  - child-care
  address:
    street: 201 S Boise Ave
    city: Loveland
    state: co
    zip: '80537'
  place: 0846465
  geo:
    lat: 40.3914
    lng: -105.05471
  phone: 970-613-6464
  sources:
  - acf/head-start-locations
  verified:
    'on': '2026-07-19'
    method: api
- id: co/loveland/winona-elementary-school
  name: Winona Elementary School
  categories:
  - meal-program
  address:
    street: 201 S Boise Ave
    city: Loveland
    state: co
    zip: '80537'
  description: Free summer meals for kids and teens (2026 season) — sponsored by THOMPSON R2-J.
  place: 0846465
  geo:
    lat: 40.39073
    lng: -105.05431
  phone: (970) 613-7104
  external_ids:
    usda_master: Cycle 06_CO_SFSP_0279
  sources:
  - usda/summer-meal-sites
  verified:
    'on': '2026-07-19'
    method: api
