- id: co/olathe/montrose-county-housing-authority
  name: Montrose County Housing Authority
  categories:
  - housing-assistance
  address:
    street: 222 Hap Ct
    city: Olathe
    state: co
    zip: '81425'
  description: Housing Choice Voucher (Section 8) agency
  place: 0855540
  geo:
    lat: 38.60631
    lng: -107.98714
  phone: 970-323-5445
  sources:
  - hud/resource-locator
  verified:
    'on': '2026-07-19'
    method: api
- id: co/olathe/olathe-center
  name: Olathe Center
  categories:
  - child-care
  address:
    street: 290 Hap Ct
    city: Olathe
    state: co
    zip: '81425'
  place: 0855540
  geo:
    lat: 38.60727
    lng: -107.98769
  phone: 801-521-4473
  sources:
  - acf/head-start-locations
  verified:
    'on': '2026-07-19'
    method: api
- id: co/olathe/olathe-community-clinic-inc
  name: Olathe Community Clinic, Inc.
  categories:
  - community-health-center
  address:
    street: 308 Main St
    city: Olathe
    state: co
    zip: '81425'
  place: 0855540
  geo:
    lat: 38.60594
    lng: -107.98378
  phone: 970-323-6141
  external_ids:
    bphc: BPS-H80-013942
  sources:
  - hrsa/health-center-sites
  verified:
    'on': '2026-07-19'
    method: api
- id: co/olathe/olathe-early-childhood-center
  name: Olathe Early Childhood Center
  categories:
  - child-care
  address:
    street: 320 N 3rd St
    city: Olathe
    state: co
    zip: '81425'
  place: 0855540
  geo:
    lat: 38.61092
    lng: -107.98324
  phone: 970-240-6435
  sources:
  - acf/head-start-locations
  verified:
    'on': '2026-07-19'
    method: api
- id: co/olathe/olathe-elementary-school
  name: Olathe Elementary School
  categories:
  - meal-program
  address: {street: 211 S Roberts Ave, city: Olathe, state: co, zip: '81425'}
  description: Free summer meals for kids and teens (2026 season) — sponsored by MONTROSE COUNTY RE-1J.
  place: 0855540
  geo: {lat: 38.61122, lng: -107.98229}
  phone: (970) 252-7918
  external_ids: {usda_master: Cycle 06_CO_SFSP_0312}
  sources:
  - usda/summer-meal-sites
  verified: {'on': '2026-07-19', method: api}
