- id: co/pagosa-springs/axis-health-system-pagosa-springs-integrated-hea
  name: Axis Health System Pagosa Springs Integrated Healthcare
  categories:
  - su-treatment
  - mh-treatment
  address:
    street: 522 Village Drive
    city: Pagosa Springs
    state: co
    zip: '81147'
  place: 0856860
  geo:
    lat: 37.25905
    lng: -107.07082
  phone: 970-259-2162
  website: https://www.axishealthsystem.org
  sources:
  - samhsa/findtreatment
  verified:
    'on': '2026-07-19'
    method: api
- id: co/pagosa-springs/pagosa-community-pantry
  name: Pagosa Community Pantry
  categories:
  - food-pantry
  place: 0856860
  geo:
    lat: 37.26028
    lng: -107.05051
  external_ids:
    lfp: '4893'
  sources:
  - littlefreepantry/map
  verified:
    'on': '2026-07-19'
    method: scrape
- id: co/pagosa-springs/pagosa-springs-comprehensive-primary-care
  name: Pagosa Springs Comprehensive Primary Care
  categories:
  - community-health-center
  address:
    street: '27 Talisman Dr, #B'
    city: Pagosa Springs
    state: co
    zip: '81147'
  place: 0856860
  geo:
    lat: 37.25739
    lng: -107.07397
  phone: 970-335-2422
  external_ids:
    bphc: BPS-H80-039162
  sources:
  - hrsa/health-center-sites
  verified:
    'on': '2026-07-19'
    method: api
- id: co/pagosa-springs/pagosa-springs-elementary-school
  name: Pagosa Springs Elementary School
  categories:
  - child-care
  address:
    street: 141 S 10th St
    city: Pagosa Springs
    state: co
    zip: '81147'
  place: 0856860
  geo:
    lat: 37.26613
    lng: -107.02119
  phone: 970-247-5960
  sources:
  - acf/head-start-locations
  verified:
    'on': '2026-07-19'
    method: api
- id: co/pagosa-springs/pagosa-springs-head-start
  name: Pagosa Springs Head Start
  categories:
  - child-care
  address:
    street: 475 S 8th Street
    city: Pagosa Springs
    state: co
    zip: '81147'
  place: 0856860
  geo:
    lat: 37.26039
    lng: -107.01715
  phone: 970-264-2484
  sources:
  - acf/head-start-locations
  verified:
    'on': '2026-07-19'
    method: api
- id: co/pagosa-springs/pagosa-springs-integrated-healthcare
  name: Pagosa Springs Integrated Healthcare
  categories:
  - community-health-center
  address:
    street: 52 Village Dr
    city: Pagosa Springs
    state: co
    zip: '81147'
  place: 0856860
  geo:
    lat: 37.25665
    lng: -107.07887
  phone: 970-246-2104
  external_ids:
    bphc: BPS-H80-031823
  sources:
  - hrsa/health-center-sites
  verified:
    'on': '2026-07-19'
    method: api
