- id: co/pueblo-west/blessing-box
  name: Blessing Box
  categories:
  - food-pantry
  place: 0862220
  geo: {lat: 38.31378, lng: -104.7307}
  website: https://mapping.littlefreepantry.org/pantry/1786
  external_ids: {lfp: '1786'}
  sources:
  - littlefreepantry/map
  verified: {'on': '2026-07-19', method: scrape}
- id: co/pueblo-west/liberty-point-international-clubhouse
  name: Liberty Point International Clubhouse
  categories:
  - family-youth
  description: Boys & Girls Club
  address: {street: 484 South Maher Drive, city: Pueblo West, state: co, zip: '81007'}
  geo: {lat: 38.31735, lng: -104.7291}
  place: 0862220
  website: http://www.BGCPCkids.org
  external_ids: {bgca_site: '29581', bgca_org: '10528'}
  sources:
  - bgca/find-a-club
  verified: {'on': '2026-07-21', method: api}
- id: co/pueblo-west/liberty-point-international-school
  name: Liberty Point International School
  categories:
  - meal-program
  address: {street: 484 S Maher Dr, city: Pueblo West, state: co, zip: '81007'}
  description: Free summer meals for kids and teens (2026 season) — sponsored by Pueblo County School
    District 70.
  place: 0862220
  geo: {lat: 38.31727, lng: -104.73023}
  phone: (719) 295-6536
  external_ids: {usda_master: Cycle 01_CO_SFSP_0147}
  sources:
  - usda/summer-meal-sites
  verified: {'on': '2026-07-19', method: api}
- id: co/pueblo-west/prairie-winds-elementary
  name: Prairie Winds Elementary
  categories:
  - meal-program
  address: {street: 579 E Earl Dr, city: Pueblo West, state: co, zip: '81007'}
  description: Free summer meals for kids and teens (2026 season) — sponsored by Pueblo County School
    District 70.
  place: 0862220
  geo: {lat: 38.34558, lng: -104.71342}
  phone: (719) 295-6536
  external_ids: {usda_master: Cycle 01_CO_SFSP_0146}
  sources:
  - usda/summer-meal-sites
  verified: {'on': '2026-07-19', method: api}
- id: co/pueblo-west/pueblo-west-clubhouse
  name: Pueblo West Clubhouse
  categories:
  - family-youth
  description: Boys & Girls Club
  address: {street: '579 E Earl Dr

      Prairie Winds Elementary Prairie Winds Elementary', city: Pueblo West, state: co, zip: '81007'}
  geo: {lat: 38.34643, lng: -104.71351}
  place: 0862220
  phone: 719-647-5119
  website: http://www.BGCPCkids.org
  services:
  - Summer programs
  - Meals
  external_ids: {bgca_site: '11210', bgca_org: '10528'}
  sources:
  - bgca/find-a-club
  verified: {'on': '2026-07-21', method: api}
