- id: mt/ashland/ashland-unit
  name: Ashland Unit
  categories:
  - family-youth
  description: Boys & Girls Club
  address: {street: 1 Campus Drive, city: Ashland, state: mt, zip: '59003'}
  geo: {lat: 45.60676, lng: -106.28498}
  place: '3002800'
  phone: 406-784-2738
  website: https://www.ncbgclub.org/
  services:
  - Teen center
  - Meals
  - Native services
  external_ids: {bgca_site: '10810', bgca_org: '31259'}
  sources:
  - bgca/find-a-club
  verified: {'on': '2026-07-21', method: api}
- id: mt/ashland/one-health-ashland
  name: One Health - Ashland
  categories:
  - community-health-center
  cost: sliding-scale
  address: {street: 501 Main St, city: Ashland, state: mt, zip: '59003'}
  place: '3002800'
  geo: {lat: 45.59163, lng: -106.2674}
  phone: 406-748-3622
  external_ids: {bphc: BPS-H80-017520}
  sources:
  - hrsa/health-center-sites
  verified: {'on': '2026-07-19', method: api}
- id: mt/ashland/one-health-st-labre
  name: One Health - St. Labre
  categories:
  - community-health-center
  cost: sliding-scale
  address: {street: 1000 Tongue River Rd, city: Ashland, state: mt, zip: '59003'}
  place: '3002800'
  geo: {lat: 45.6052, lng: -106.28088}
  phone: 406-784-6721
  external_ids: {bphc: BPS-H80-018902}
  sources:
  - hrsa/health-center-sites
  verified: {'on': '2026-07-19', method: api}
- id: mt/ashland/st-labre-food-pantry
  name: St. Labre Food Pantry
  org: mt/montana-food-bank-network
  categories:
  - food-pantry
  address: {street: 112 St. Labre Campus Dr., city: Ashland, state: mt, zip: '59003'}
  place: '3002800'
  geo: {lat: 45.60583, lng: -106.28224}
  external_ids: {mt-montana-food-bank-network: '4915'}
  sources:
  - foodbank/mt-montana-food-bank-network
  verified: {'on': '2026-07-21', method: scrape}
- id: mt/ashland/st-labre-school
  name: St Labre School
  categories:
  - meal-program
  address: {street: 112 St. Labre Campus Drive, city: Ashland, state: mt, zip: '59003'}
  description: Free summer meals for kids and teens (2026 season) — sponsored by St Labre Schools.
  place: '3002800'
  geo: {lat: 45.60479, lng: -106.27943}
  phone: (406) 784-4520
  external_ids: {usda_master: Cycle 03_MT_SFSP_0118}
  sources:
  - usda/summer-meal-sites
  verified: {'on': '2026-07-19', method: api}
