- id: mt/hardin/custer-park
  name: Custer Park
  categories:
  - meal-program
  address: {street: 500 3Rd Street West, city: Hardin, state: mt, zip: '59034'}
  description: Free summer meals for kids and teens (2026 season) — sponsored by Hardin Public Schools.
  place: '3034225'
  geo: {lat: 45.73127, lng: -107.61353}
  phone: (406) 665-6397
  external_ids: {usda_master: Cycle 02_MT_SFSP_0003}
  sources:
  - usda/summer-meal-sites
  verified: {'on': '2026-07-19', method: api}
- id: mt/hardin/hardin-middle-school
  name: Hardin Middle School
  categories:
  - meal-program
  address: {street: 721 North Miles Avenue, city: Hardin, state: mt, zip: '59034'}
  description: Free summer meals for kids and teens (2026 season) — sponsored by Hardin Public Schools.
  place: '3034225'
  geo: {lat: 45.73561, lng: -107.61707}
  phone: (406) 665-6397
  external_ids: {usda_master: Cycle 02_MT_SFSP_0001}
  sources:
  - usda/summer-meal-sites
  verified: {'on': '2026-07-19', method: api}
- id: mt/hardin/heimat-park
  name: Heimat Park
  categories:
  - meal-program
  address: {street: 200 N Heimat Rd, city: Hardin, state: mt, zip: '59034'}
  description: Free summer meals for kids and teens (2026 season) — sponsored by Hardin Public Schools.
  place: '3034225'
  geo: {lat: 45.72995, lng: -107.62496}
  phone: (406) 665-6397
  external_ids: {usda_master: Cycle 02_MT_SFSP_0005}
  sources:
  - usda/summer-meal-sites
  verified: {'on': '2026-07-19', method: api}
- id: mt/hardin/helping-hands-in-hardin-food-bank
  name: Helping Hands in Hardin Food Bank
  categories:
  - food-pantry
  place: '3034225'
  geo:
    lat: 45.73169
    lng: -107.62056
  website: https://mapping.littlefreepantry.org/pantry/5737
  external_ids:
    lfp: '5737'
  sources:
  - littlefreepantry/map
  verified:
    'on': '2026-07-19'
    method: scrape
- id: mt/hardin/one-health-bighorn
  name: One Health - Bighorn
  categories:
  - community-health-center
  cost: sliding-scale
  address:
    street: 10 4th St W, Suite B
    city: Hardin
    state: mt
    zip: '59034'
  place: '3034225'
  geo:
    lat: 45.73225
    lng: -107.60635
  phone: 406-665-4103
  website: https://www.bighornvalley.org
  external_ids:
    bphc: BPS-H80-011775
  sources:
  - hrsa/health-center-sites
  verified:
    'on': '2026-07-19'
    method: api
- id: mt/hardin/one-health-bighorn-valley-health-center-dba
  name: One Health Bighorn Valley Health Center DBA
  categories:
  - su-treatment
  - mh-treatment
  address:
    street: 1223 North Center Avenue
    city: Hardin
    state: mt
    zip: '59034'
  place: '3034225'
  geo:
    lat: 45.74162
    lng: -107.60575
  phone: 406-665-4103
  website: https://www.onechc.org
  services:
  - Outpatient
  - Outpatient methadone/buprenorphine or naltrexone treatment
  - Regular outpatient treatment
  cost: sliding-scale
  sources:
  - samhsa/findtreatment
  verified:
    'on': '2026-07-19'
    method: api
- id: mt/hardin/one-health-campus
  name: One Health - Campus
  categories:
  - community-health-center
  cost: sliding-scale
  address:
    street: 1223 N Center Ave
    city: Hardin
    state: mt
    zip: '59034'
  place: '3034225'
  geo:
    lat: 45.74162
    lng: -107.60575
  phone: 406-665-4103
  external_ids:
    bphc: BPS-H80-030276
  sources:
  - hrsa/health-center-sites
  verified:
    'on': '2026-07-19'
    method: api
- id: mt/hardin/one-health-corporate
  name: One Health - Corporate
  categories:
  - community-health-center
  cost: sliding-scale
  address:
    street: 402 N Center Ave
    city: Hardin
    state: mt
    zip: '59034'
  place: '3034225'
  geo:
    lat: 45.73259
    lng: -107.60623
  phone: 406-665-4103
  website: https://www.onechc.org
  external_ids:
    bphc: BPS-H80-040597
  sources:
  - hrsa/health-center-sites
  verified:
    'on': '2026-07-19'
    method: api
- id: mt/hardin/one-health-hardin-clinic
  name: One Health - Hardin Clinic
  categories:
  - community-health-center
  cost: sliding-scale
  address:
    street: 16 N Miles Ave STE 101
    city: Hardin
    state: mt
    zip: '59034'
  place: '3034225'
  geo:
    lat: 45.72911
    lng: -107.61704
  phone: 406-665-4103
  external_ids:
    bphc: BPS-H80-037191
  sources:
  - hrsa/health-center-sites
  verified:
    'on': '2026-07-19'
    method: api
- id: mt/hardin/one-health-hardin-high-school
  name: One Health - Hardin High School
  categories:
  - community-health-center
  cost: sliding-scale
  address:
    street: 721 North Miles Avenue
    city: Hardin
    state: mt
    zip: '59034'
  place: '3034225'
  geo:
    lat: 45.73561
    lng: -107.61707
  phone: 406-665-4103
  external_ids:
    bphc: BPS-H80-034150
  sources:
  - hrsa/health-center-sites
  verified:
    'on': '2026-07-19'
    method: api
- id: mt/hardin/one-health-hope-center
  name: One Health - HOPE Center
  categories:
  - community-health-center
  cost: sliding-scale
  address:
    street: 809 N Custer Ave
    city: Hardin
    state: mt
    zip: '59034'
  place: '3034225'
  geo:
    lat: 45.73671
    lng: -107.60711
  phone: 406-209-0109
  external_ids:
    bphc: BPS-H80-036026
  sources:
  - hrsa/health-center-sites
  verified:
    'on': '2026-07-19'
    method: api
- id: mt/hardin/south-park-hardin
  name: South Park - Hardin
  categories:
  - meal-program
  address: {street: 700 W Division, city: Hardin, state: mt, zip: '59034'}
  description: Free summer meals for kids and teens (2026 season) — sponsored by Hardin Public Schools.
  place: '3034225'
  geo: {lat: 45.7283, lng: -107.61758}
  phone: (406) 665-6397
  external_ids: {usda_master: Cycle 02_MT_SFSP_0004}
  sources:
  - usda/summer-meal-sites
  verified: {'on': '2026-07-19', method: api}
