- id: mt/miles-city/eastern-montana-cmhc-miles-city-office
  name: Eastern Montana CMHC Miles City Office
  categories:
  - su-treatment
  - mh-treatment
  address:
    street: 2508 Wilson Street
    city: Miles City
    state: mt
    zip: '59301'
  place: '3049525'
  geo:
    lat: 46.39686
    lng: -105.82906
  phone: 406-234-1687
  website: https://www.emcmhc.org
  sources:
  - samhsa/findtreatment
  verified:
    'on': '2026-07-19'
    method: api
- id: mt/miles-city/miles-city-head-start
  name: Miles City Head Start
  categories:
  - child-care
  address:
    street: 1608 N Merriam Ave
    city: Miles City
    state: mt
    zip: '59301'
  place: '3049525'
  geo:
    lat: 46.42179
    lng: -105.83395
  phone: 406-232-5223
  sources:
  - acf/head-start-locations
  verified:
    'on': '2026-07-19'
    method: api
- id: mt/miles-city/one-health-miles-city
  name: One Health - Miles City
  categories:
  - community-health-center
  address:
    street: 305 S 4th St
    city: Miles City
    state: mt
    zip: '59301'
  place: '3049525'
  geo:
    lat: 46.40073
    lng: -105.84974
  phone: 406-874-8700
  website: https://www.bighornvalley.org
  external_ids:
    bphc: BPS-H80-027034
  sources:
  - hrsa/health-center-sites
  verified:
    'on': '2026-07-19'
    method: api
- id: mt/miles-city/one-health-miles-city-public-health
  name: One Health - Miles City Public Health
  categories:
  - community-health-center
  address:
    street: 2811 Comstock St
    city: Miles City
    state: mt
    zip: '59301'
  place: '3049525'
  geo:
    lat: 46.40101
    lng: -105.82454
  phone: 406-874-8730
  website: https://www.bighornvalley.org
  external_ids:
    bphc: BPS-H80-029786
  sources:
  - hrsa/health-center-sites
  verified:
    'on': '2026-07-19'
    method: api
- id: mt/miles-city/one-health-milligan
  name: One Health - Milligan
  categories:
  - community-health-center
  address:
    street: 601 Main St
    city: Miles City
    state: mt
    zip: '59301'
  place: '3049525'
  geo:
    lat: 46.40637
    lng: -105.85041
  phone: 406-874-8700
  website: https://www.onechc.org
  external_ids:
    bphc: BPS-H80-040893
  sources:
  - hrsa/health-center-sites
  verified:
    'on': '2026-07-19'
    method: api
- id: mt/miles-city/yellowstone-boys-and-girls-ranch-community-based
  name: Yellowstone Boys and Girls Ranch Community Based Services
  categories:
  - su-treatment
  - mh-treatment
  address:
    street: 2900 Mallet Lane
    city: Miles City
    state: mt
    zip: '59301'
  place: '3049525'
  geo:
    lat: 46.40537
    lng: -105.8245
  phone: 406-655-2100
  website: https://www.ybgr.org
  sources:
  - samhsa/findtreatment
  verified:
    'on': '2026-07-19'
    method: api
