- id: mt/polson/ag-worker-health-services
  name: Ag Worker Health & Services
  categories:
  - community-health-center
  cost: sliding-scale
  address: {street: 35432 Mt Highway 35, city: Polson, state: mt, zip: '59860'}
  place: '3058750'
  geo: {lat: 47.72525, lng: -114.0377}
  phone: 800-813-4492
  website: https://www.agworker.org
  external_ids: {bphc: BPS-H80-024528}
  sources:
  - hrsa/health-center-sites
  verified: {'on': '2026-07-19', method: api}
- id: mt/polson/cherry-valley-elementary
  name: Cherry Valley Elementary
  categories:
  - meal-program
  address:
    street: 107 8Th Ave W
    city: Polson
    state: mt
    zip: '59860'
  description: Free summer meals for kids and teens (2026 season) — sponsored by Polson Public Schools.
  place: '3058750'
  geo:
    lat: 47.68822
    lng: -114.16583
  phone: (406) 883-6355
  external_ids:
    usda_master: Cycle 05_MT_SFSP_0195
  sources:
  - usda/summer-meal-sites
  verified:
    'on': '2026-07-19'
    method: api
- id: mt/polson/fun-and-fancy-free-learning-center
  name: Fun and Fancy Free Learning Center
  categories:
  - child-care
  address:
    street: 111 11th Ave W
    city: Polson
    state: mt
    zip: '59860'
  place: '3058750'
  geo:
    lat: 47.68512
    lng: -114.16637
  phone: 406-883-1105
  sources:
  - acf/head-start-locations
  verified:
    'on': '2026-07-19'
    method: api
- id: mt/polson/polson
  name: Polson
  categories:
  - child-care
  address:
    street: 301 8th Ave W
    city: Polson
    state: mt
    zip: '59860'
  place: '3058750'
  geo:
    lat: 47.68792
    lng: -114.16874
  phone: 406-883-5451
  sources:
  - acf/head-start-locations
  verified:
    'on': '2026-07-19'
    method: api
- id: mt/polson/tutle-lake
  name: Tutle Lake
  categories:
  - child-care
  address:
    street: 37181 Turtle Lake Rd
    city: Polson
    state: mt
    zip: '59860'
  place: '3058750'
  geo:
    lat: 47.67239
    lng: -114.07565
  phone: 406-883-1105
  sources:
  - acf/head-start-locations
  verified:
    'on': '2026-07-19'
    method: api
