- id: mt/polson/ag-worker-health-services
  name: Ag Worker Health & Services
  categories:
  - community-health-center
  cost: sliding-scale
  address: {street: 35432 Mt Highway 35, city: Polson, state: mt, zip: '59860'}
  place: '3058750'
  geo: {lat: 47.72525, lng: -114.0377}
  phone: 800-813-4492
  website: https://www.agworker.org
  external_ids: {bphc: BPS-H80-024528}
  sources:
  - hrsa/health-center-sites
  verified: {'on': '2026-07-19', method: api}
- id: mt/polson/cherry-valley-elementary
  name: Cherry Valley Elementary
  categories:
  - meal-program
  address: {street: 107 8Th Ave W, city: Polson, state: mt, zip: '59860'}
  description: Free summer meals for kids and teens (2026 season) — sponsored by Polson Public Schools.
  place: '3058750'
  geo: {lat: 47.68822, lng: -114.16583}
  phone: (406) 883-6355
  external_ids: {usda_master: Cycle 05_MT_SFSP_0195}
  sources:
  - usda/summer-meal-sites
  verified: {'on': '2026-07-19', method: api}
- id: mt/polson/cskt-polson-tribal-health-center
  name: CSKT Polson Tribal Health Center
  categories:
  - health
  description: Tribal health center
  address: {street: '#5 Fourth Ave East', city: Polson, state: mt, zip: '59860'}
  geo: {lat: 47.69257, lng: -114.16221}
  place: '3058750'
  phone: 406-883-5541
  website: https://www.cskthealth.org
  services:
  - Full Ambulatory Care
  - Acute Care
  - Addictions Services
  - Behavioral Health
  - Denistry
  - Lab
  - Pharmacy
  - Physical Therapy
  - Primary Care
  - Public Health Nursing
  - Radiology
  - Vision Care
  external_ids: {asufac: '454311'}
  sources:
  - ihs/find-health-care
  verified: {'on': '2026-07-21', method: api}
- id: mt/polson/fun-and-fancy-free-learning-center
  name: Fun and Fancy Free Learning Center
  categories:
  - child-care
  address: {street: 111 11th Ave W, city: Polson, state: mt, zip: '59860'}
  description: Head Start early childhood program — 16 funded slots; operated by Confederated Salish And
    Kootenai Tribes.
  place: '3058750'
  geo: {lat: 47.68512, lng: -114.16637}
  phone: 406-883-1105
  sources:
  - acf/head-start-locations
  verified: {'on': '2026-07-19', method: api}
- id: mt/polson/lake-house-group-home
  name: Lake House Group Home
  org: mt/montana-food-bank-network
  categories:
  - meal-program
  address: {street: 7 13th Ave East, city: Polson, state: mt, zip: '59860'}
  place: '3058750'
  geo: {lat: 47.68361, lng: -114.16261}
  external_ids: {mt-montana-food-bank-network: '13912'}
  sources:
  - foodbank/mt-montana-food-bank-network
  verified: {'on': '2026-07-21', method: scrape}
- id: mt/polson/polson
  name: Polson
  categories:
  - child-care
  address: {street: 301 8th Ave W, city: Polson, state: mt, zip: '59860'}
  description: Head Start early childhood program — 37 funded slots; operated by Confederated Salish And
    Kootenai Tribes.
  place: '3058750'
  geo: {lat: 47.68792, lng: -114.16874}
  phone: 406-883-5451
  sources:
  - acf/head-start-locations
  verified: {'on': '2026-07-19', method: api}
- id: mt/polson/polson-loaves-fish-pantry
  name: Polson Loaves & Fish Pantry
  org: mt/montana-food-bank-network
  categories:
  - food-pantry
  address: {street: 904 1st Street E, city: Polson, state: mt, zip: '59860'}
  place: '3058750'
  geo: {lat: 47.68694, lng: -114.16253}
  external_ids: {mt-montana-food-bank-network: '4857'}
  sources:
  - foodbank/mt-montana-food-bank-network
  verified: {'on': '2026-07-21', method: scrape}
- id: mt/polson/polson-senior-citizens-center
  name: Polson Senior Citizens Center
  org: mt/montana-food-bank-network
  categories:
  - meal-program
  address: {street: 504 3rd Avenue E, city: Polson, state: mt, zip: '59860'}
  place: '3058750'
  geo: {lat: 47.69306, lng: -114.15585}
  external_ids: {mt-montana-food-bank-network: '4858'}
  sources:
  - foodbank/mt-montana-food-bank-network
  verified: {'on': '2026-07-21', method: scrape}
- id: mt/polson/polson-unit
  name: Polson Unit
  categories:
  - family-youth
  description: Boys & Girls Club
  address: {street: 110 17H AVE W, city: Polson, state: mt, zip: '59860'}
  geo: {lat: 47.68052, lng: -114.16609}
  place: '3058750'
  phone: 406-883-0521
  website: http://www.bgclynx.org
  services:
  - Teen center
  - Summer programs
  - Meals
  - Native services
  external_ids: {bgca_site: '2877', bgca_org: '10922'}
  sources:
  - bgca/find-a-club
  verified: {'on': '2026-07-21', method: api}
- id: mt/polson/tutle-lake
  name: Tutle Lake
  categories:
  - child-care
  address: {street: 37181 Turtle Lake Rd, city: Polson, state: mt, zip: '59860'}
  description: Head Start early childhood program — 14 funded slots; operated by Confederated Salish And
    Kootenai Tribes.
  place: '3058750'
  geo: {lat: 47.67239, lng: -114.07565}
  phone: 406-883-1105
  sources:
  - acf/head-start-locations
  verified: {'on': '2026-07-19', method: api}
