- id: mt/thompson-falls/community-harvest-food-bank
  name: Community Harvest Food Bank
  org: mt/montana-food-bank-network
  categories:
  - food-pantry
  address: {street: 704 1/2 Preston Ave., city: Thompson Falls, state: mt, zip: '59873'}
  place: '3073825'
  geo: {lat: 47.59628, lng: -115.34957}
  external_ids: {mt-montana-food-bank-network: '7914'}
  sources:
  - foodbank/mt-montana-food-bank-network
  verified: {'on': '2026-07-20', method: scrape}
- id: mt/thompson-falls/gospel-mountain-assembly-of-god-food-bank
  name: Gospel Mountain Assembly of God Food Bank
  org: mt/montana-food-bank-network
  categories:
  - food-pantry
  address: {street: 1120 Preston Ave., city: Thompson Falls, state: mt, zip: '59873'}
  place: '3073825'
  geo: {lat: 47.59954, lng: -115.35707}
  external_ids: {mt-montana-food-bank-network: '4919'}
  sources:
  - foodbank/mt-montana-food-bank-network
  verified: {'on': '2026-07-20', method: scrape}
- id: mt/thompson-falls/sanders-county-coalition-for-families
  name: Sanders County Coalition for Families
  org: mt/montana-food-bank-network
  categories:
  - food-pantry
  address: {street: '303 Main Street, Suite 4', city: Thompson Falls, state: mt, zip: '59873'}
  place: '3073825'
  geo: {lat: 47.5938, lng: -115.3445}
  external_ids: {mt-montana-food-bank-network: '4928'}
  sources:
  - foodbank/mt-montana-food-bank-network
  verified: {'on': '2026-07-20', method: scrape}
- id: mt/thompson-falls/thompson-falls-elem-schl
  name: Thompson Falls Elem Schl
  categories:
  - meal-program
  address: {street: 315 Columbia Street, city: Thompson Falls, state: mt, zip: '59873'}
  description: Free summer meals for kids and teens (2026 season) — sponsored by Thompson Falls Pub Schls.
  place: '3073825'
  geo: {lat: 47.59784, lng: -115.34442}
  phone: (406) 827-7190
  external_ids: {usda_master: Cycle 02_MT_SFSP_0089}
  sources:
  - usda/summer-meal-sites
  verified: {'on': '2026-07-19', method: api}
- id: mt/thompson-falls/thompson-falls-senior-citizens-center
  name: Thompson Falls Senior Citizens Center
  org: mt/montana-food-bank-network
  categories:
  - meal-program
  address: {street: 1191 Mount Silcox Dr., city: Thompson Falls, state: mt, zip: '59873'}
  place: '3073825'
  geo: {lat: 47.59306, lng: -115.31675}
  external_ids: {mt-montana-food-bank-network: '4929'}
  sources:
  - foodbank/mt-montana-food-bank-network
  verified: {'on': '2026-07-20', method: scrape}
