- id: nj/clifton/adult-family-health-services
  name: Adult Family Health Services
  categories:
  - su-treatment
  - mh-treatment
  address:
    street: 53 Orchard Street
    city: Clifton
    state: nj
    zip: '07013'
  place: '3413690'
  geo:
    lat: 40.86751
    lng: -74.1586
  phone: 973-773-7600
  website: https://www.afhsnj.com
  sources:
  - samhsa/findtreatment
  verified:
    'on': '2026-07-19'
    method: api
- id: nj/clifton/calvary-baptist-church
  name: Calvary Baptist Church
  categories:
  - child-care
  address:
    street: 462 Lexington Ave
    city: Clifton
    state: nj
    zip: '07011'
  place: '3413690'
  geo:
    lat: 40.87626
    lng: -74.1334
  phone: 201-397-2471
  sources:
  - acf/head-start-locations
  verified:
    'on': '2026-07-19'
    method: api
- id: nj/clifton/cela-b
  name: Cela B
  categories:
  - meal-program
  address:
    street: 290 Brighton Rd
    city: Clifton
    state: nj
    zip: '07012'
  description: Free summer meals for kids and teens (2026 season) — sponsored by Clifton Board of Education.
  place: '3413690'
  geo:
    lat: 40.85436
    lng: -74.15787
  phone: (973) 777-2060
  external_ids:
    usda_master: Cycle 05_NJ_SFSP_0180
  sources:
  - usda/summer-meal-sites
  verified:
    'on': '2026-07-19'
    method: api
- id: nj/clifton/center-for-family-resources-12
  name: 'Center for Family Resources #12'
  categories:
  - child-care
  address:
    street: 165 Clifton Ave
    city: Clifton
    state: nj
    zip: '07011'
  place: '3413690'
  geo:
    lat: 40.87678
    lng: -74.13212
  phone: 973-470-2393
  sources:
  - acf/head-start-locations
  verified:
    'on': '2026-07-19'
    method: api
- id: nj/clifton/center-for-family-resources-4
  name: 'Center for Family Resources #4'
  categories:
  - child-care
  address:
    street: 194 W 2nd St
    city: Clifton
    state: nj
    zip: '07011'
  place: '3413690'
  geo:
    lat: 40.88781
    lng: -74.15744
  phone: 973-470-2382
  sources:
  - acf/head-start-locations
  verified:
    'on': '2026-07-19'
    method: api
- id: nj/clifton/center-for-family-resources-cela-a
  name: Center for Family Resources CELA A
  categories:
  - child-care
  address:
    street: 39 Allwood Rd
    city: Clifton
    state: nj
    zip: '07014'
  place: '3413690'
  geo:
    lat: 40.83274
    lng: -74.14296
  phone: 973-778-0305
  sources:
  - acf/head-start-locations
  verified:
    'on': '2026-07-19'
    method: api
- id: nj/clifton/center-for-family-resources-cela-b
  name: Center for Family Resources CELA B
  categories:
  - child-care
  address:
    street: 290 Brighton Rd
    city: Clifton
    state: nj
    zip: '07012'
  place: '3413690'
  geo:
    lat: 40.8542
    lng: -74.15657
  phone: 973-470-2060
  sources:
  - acf/head-start-locations
  verified:
    'on': '2026-07-19'
    method: api
- id: nj/clifton/center-for-family-resources-inc-clifton-father-m
  name: Center for Family Resources, Inc. - Clifton Father Mychal Judge
  categories:
  - child-care
  address:
    street: 712 Gregory Ave
    city: Clifton
    state: nj
    zip: '07011'
  place: '3413690'
  geo:
    lat: 40.86851
    lng: -74.14658
  phone: 973-472-8880
  sources:
  - acf/head-start-locations
  verified:
    'on': '2026-07-19'
    method: api
- id: nj/clifton/center-for-family-resources-inc-clifton-school-1
  name: 'Center for Family Resources, Inc. - Clifton School  #14'
  categories:
  - child-care
  address:
    street: 99 Saint Andrews Blvd
    city: Clifton
    state: nj
    zip: '07012'
  place: '3413690'
  geo:
    lat: 40.8561
    lng: -74.16768
  phone: 973-591-5219
  sources:
  - acf/head-start-locations
  verified:
    'on': '2026-07-19'
    method: api
- id: nj/clifton/center-for-family-resources-inc-clifton-school-1-2
  name: 'Center for Family Resources, Inc. - Clifton School # 17'
  categories:
  - child-care
  address:
    street: 361 Lexington Ave
    city: Clifton
    state: nj
    zip: '07011'
  place: '3413690'
  geo:
    lat: 40.87387
    lng: -74.13094
  phone: 973-907-3441
  sources:
  - acf/head-start-locations
  verified:
    'on': '2026-07-19'
    method: api
- id: nj/clifton/christopher-columbus-middle-school
  name: Christopher Columbus Middle School
  categories:
  - meal-program
  address:
    street: 350 Piaget Ave.
    city: Clifton
    state: nj
    zip: '07011'
  description: Free summer meals for kids and teens (2026 season) — sponsored by Clifton Board of Education.
  place: '3413690'
  geo:
    lat: 40.88038
    lng: -74.15158
  phone: (973) 470-2360
  external_ids:
    usda_master: Cycle 05_NJ_SFSP_0201
  sources:
  - usda/summer-meal-sites
  verified:
    'on': '2026-07-19'
    method: api
- id: nj/clifton/clifton-boys-and-girls-club
  name: Clifton Boys And Girls Club
  categories:
  - meal-program
  address:
    street: 181 Colfax Avenue
    city: Clifton
    state: nj
    zip: '07013'
  description: Free summer meals for kids and teens (2026 season) — sponsored by Clifton Board of Education.
  place: '3413690'
  geo:
    lat: 40.86799
    lng: -74.1573
  phone: (973) 773-2697
  external_ids:
    usda_master: Cycle 05_NJ_SFSP_0181
  sources:
  - usda/summer-meal-sites
  verified:
    'on': '2026-07-19'
    method: api
- id: nj/clifton/clifton-high-school
  name: Clifton High School
  categories:
  - meal-program
  address:
    street: 333 Colfax Avenue
    city: Clifton
    state: nj
    zip: '07013'
  description: Free summer meals for kids and teens (2026 season) — sponsored by Clifton Board of Education.
  place: '3413690'
  geo:
    lat: 40.87133
    lng: -74.16301
  phone: (973) 470-2310
  external_ids:
    usda_master: Cycle 05_NJ_SFSP_0179
  sources:
  - usda/summer-meal-sites
  verified:
    'on': '2026-07-19'
    method: api
- id: nj/clifton/clifton-housing-authority
  name: Clifton Housing Authority
  categories:
  - housing-assistance
  address:
    street: 900 Clifton Ave
    city: Clifton
    state: nj
    zip: '07013'
  description: Housing Choice Voucher (Section 8) agency
  place: '3413690'
  geo:
    lat: 40.86572
    lng: -74.16056
  phone: 973-470-5846
  sources:
  - hud/resource-locator
  verified:
    'on': '2026-07-19'
    method: api
- id: nj/clifton/clifton-little-free-pantry-2
  name: Clifton little free pantry 2
  categories:
  - food-pantry
  place: '3413690'
  geo:
    lat: 40.8527
    lng: -74.17268
  external_ids:
    lfp: '4020'
  sources:
  - littlefreepantry/map
  verified:
    'on': '2026-07-19'
    method: scrape
- id: nj/clifton/clifton-little-pantry
  name: Clifton Little Pantry
  categories:
  - food-pantry
  place: '3413690'
  geo:
    lat: 40.86644
    lng: -74.16042
  external_ids:
    lfp: '3915'
  sources:
  - littlefreepantry/map
  verified:
    'on': '2026-07-19'
    method: scrape
- id: nj/clifton/mental-health-clinic-of-passaic
  name: Mental Health Clinic of Passaic
  categories:
  - mh-treatment
  address:
    street: 1451 Van Houten Avenue
    city: Clifton
    state: nj
    zip: '07013'
  place: '3413690'
  geo:
    lat: 40.87476
    lng: -74.1779
  phone: 973-473-2775
  website: https://www.mhcp.org
  sources:
  - samhsa/findtreatment
  verified:
    'on': '2026-07-19'
    method: api
- id: nj/clifton/pantries-clifton
  name: Pantries Clifton
  categories:
  - food-pantry
  place: '3413690'
  geo:
    lat: 40.87777
    lng: -74.15995
  external_ids:
    lfp: '4178'
  sources:
  - littlefreepantry/map
  verified:
    'on': '2026-07-19'
    method: scrape
- id: nj/clifton/passaic-arts-and-science-charter-school
  name: Passaic Arts And Science Charter School
  categories:
  - meal-program
  address:
    street: 410 Mount Prospect
    city: Clifton
    state: nj
    zip: '07012'
  description: Free summer meals for kids and teens (2026 season) — sponsored by Passaic Arts and Science
    Charter School.
  place: '3413690'
  geo:
    lat: 40.85446
    lng: -74.16243
  phone: (862) 306-7140
  external_ids:
    usda_master: Cycle 05_NJ_SFSP_0160
  sources:
  - usda/summer-meal-sites
  verified:
    'on': '2026-07-19'
    method: api
- id: nj/clifton/passaic-arts-and-science-charter-school-clifton
  name: Passaic Arts And Science Charter School - Clifton Middle
  categories:
  - meal-program
  address:
    street: 43 Clifton Ave
    city: Clifton
    state: nj
    zip: '07011'
  description: Free summer meals for kids and teens (2026 season) — sponsored by Passaic Arts and Science
    Charter School.
  place: '3413690'
  geo:
    lat: 40.87912
    lng: -74.12732
  phone: (973) 955-4055
  external_ids:
    usda_master: Cycle 05_NJ_SFSP_0948
  sources:
  - usda/summer-meal-sites
  verified:
    'on': '2026-07-19'
    method: api
- id: nj/clifton/school-11
  name: School 11
  categories:
  - meal-program
  address:
    street: 147 Merselis Ave
    city: Clifton
    state: nj
    zip: '07011'
  description: Free summer meals for kids and teens (2026 season) — sponsored by Clifton Board of Education.
  place: '3413690'
  geo:
    lat: 40.88516
    lng: -74.1392
  phone: (973) 470-2081
  external_ids:
    usda_master: Cycle 05_NJ_SFSP_0183
  sources:
  - usda/summer-meal-sites
  verified:
    'on': '2026-07-19'
    method: api
- id: nj/clifton/school-12-annex
  name: 'School #12 Annex'
  categories:
  - meal-program
  address:
    street: 225 Ackerman Avenue
    city: Clifton
    state: nj
    zip: '07011'
  description: Free summer meals for kids and teens (2026 season) — sponsored by Clifton Board of Education.
  place: '3413690'
  geo:
    lat: 40.87637
    lng: -74.1288
  phone: (973) 594-4190
  external_ids:
    usda_master: Cycle 05_NJ_SFSP_0182
  sources:
  - usda/summer-meal-sites
  verified:
    'on': '2026-07-19'
    method: api
- id: nj/clifton/school-14
  name: School 14
  categories:
  - meal-program
  address:
    street: 99 St. Andrew'S Blvd
    city: Clifton
    state: nj
    zip: '07012'
  description: Free summer meals for kids and teens (2026 season) — sponsored by Clifton Board of Education.
  place: '3413690'
  geo:
    lat: 40.85553
    lng: -74.16599
  phone: (973) 470-2411
  external_ids:
    usda_master: Cycle 05_NJ_SFSP_0202
  sources:
  - usda/summer-meal-sites
  verified:
    'on': '2026-07-19'
    method: api
- id: nj/clifton/school-17
  name: School 17
  categories:
  - meal-program
  address:
    street: 361 Lexington Avenue
    city: Clifton
    state: nj
    zip: '07011'
  description: Free summer meals for kids and teens (2026 season) — sponsored by Clifton Board of Education.
  place: '3413690'
  geo:
    lat: 40.87395
    lng: -74.13188
  phone: (973) 458-6017
  external_ids:
    usda_master: Cycle 05_NJ_SFSP_0661
  sources:
  - usda/summer-meal-sites
  verified:
    'on': '2026-07-19'
    method: api
- id: nj/clifton/serv-behavioral-health-system-inc-serv-centers-o
  name: SERV Behavioral Health System Inc SERV Centers of NJ Inc
  categories:
  - su-treatment
  - mh-treatment
  address:
    street: 777 Bloomfield Avenue
    city: Clifton
    state: nj
    zip: '07012'
  place: '3413690'
  geo:
    lat: 40.84826
    lng: -74.1525
  phone: 973-594-0125
  website: https://www.servbhs.org
  sources:
  - samhsa/findtreatment
  verified:
    'on': '2026-07-19'
    method: api
- id: nj/clifton/woodrow-wilson-middle-school
  name: Woodrow Wilson Middle School
  categories:
  - meal-program
  address:
    street: 1400 Van Houten Ave
    city: Clifton
    state: nj
    zip: '07013'
  description: Free summer meals for kids and teens (2026 season) — sponsored by Clifton Board of Education.
  place: '3413690'
  geo:
    lat: 40.87352
    lng: -74.1752
  phone: (973) 470-2350
  external_ids:
    usda_master: Cycle 05_NJ_SFSP_0203
  sources:
  - usda/summer-meal-sites
  verified:
    'on': '2026-07-19'
    method: api
