- id: nj/clifton/adult-family-health-services
  name: Adult Family Health Services
  categories:
  - su-treatment
  - mh-treatment
  address:
    street: 53 Orchard Street
    city: Clifton
    state: nj
    zip: '07013'
  place: '3413690'
  geo:
    lat: 40.86751
    lng: -74.1586
  phone: 973-773-7600
  website: https://www.afhsnj.com
  sources:
  - samhsa/findtreatment
  verified:
    'on': '2026-07-19'
    method: api
- id: nj/clifton/calvary-baptist-church
  name: Calvary Baptist Church
  categories:
  - child-care
  address:
    street: 462 Lexington Ave
    city: Clifton
    state: nj
    zip: '07011'
  place: '3413690'
  geo:
    lat: 40.87626
    lng: -74.1334
  phone: 201-397-2471
  sources:
  - acf/head-start-locations
  verified:
    'on': '2026-07-19'
    method: api
- id: nj/clifton/center-for-family-resources-12
  name: 'Center for Family Resources #12'
  categories:
  - child-care
  address:
    street: 165 Clifton Ave
    city: Clifton
    state: nj
    zip: '07011'
  place: '3413690'
  geo:
    lat: 40.87678
    lng: -74.13212
  phone: 973-470-2393
  sources:
  - acf/head-start-locations
  verified:
    'on': '2026-07-19'
    method: api
- id: nj/clifton/center-for-family-resources-4
  name: 'Center for Family Resources #4'
  categories:
  - child-care
  address:
    street: 194 W 2nd St
    city: Clifton
    state: nj
    zip: '07011'
  place: '3413690'
  geo:
    lat: 40.88781
    lng: -74.15744
  phone: 973-470-2382
  sources:
  - acf/head-start-locations
  verified:
    'on': '2026-07-19'
    method: api
- id: nj/clifton/center-for-family-resources-cela-a
  name: Center for Family Resources CELA A
  categories:
  - child-care
  address:
    street: 39 Allwood Rd
    city: Clifton
    state: nj
    zip: '07014'
  place: '3413690'
  geo:
    lat: 40.83274
    lng: -74.14296
  phone: 973-778-0305
  sources:
  - acf/head-start-locations
  verified:
    'on': '2026-07-19'
    method: api
- id: nj/clifton/center-for-family-resources-cela-b
  name: Center for Family Resources CELA B
  categories:
  - child-care
  address:
    street: 290 Brighton Rd
    city: Clifton
    state: nj
    zip: '07012'
  place: '3413690'
  geo:
    lat: 40.8542
    lng: -74.15657
  phone: 973-470-2060
  sources:
  - acf/head-start-locations
  verified:
    'on': '2026-07-19'
    method: api
- id: nj/clifton/center-for-family-resources-inc-clifton-father-m
  name: Center for Family Resources, Inc. - Clifton Father Mychal Judge
  categories:
  - child-care
  address:
    street: 712 Gregory Ave
    city: Clifton
    state: nj
    zip: '07011'
  place: '3413690'
  geo:
    lat: 40.86851
    lng: -74.14658
  phone: 973-472-8880
  sources:
  - acf/head-start-locations
  verified:
    'on': '2026-07-19'
    method: api
- id: nj/clifton/center-for-family-resources-inc-clifton-school-1
  name: 'Center for Family Resources, Inc. - Clifton School  #14'
  categories:
  - child-care
  address:
    street: 99 Saint Andrews Blvd
    city: Clifton
    state: nj
    zip: '07012'
  place: '3413690'
  geo:
    lat: 40.8561
    lng: -74.16768
  phone: 973-591-5219
  sources:
  - acf/head-start-locations
  verified:
    'on': '2026-07-19'
    method: api
- id: nj/clifton/center-for-family-resources-inc-clifton-school-1-2
  name: 'Center for Family Resources, Inc. - Clifton School # 17'
  categories:
  - child-care
  address:
    street: 361 Lexington Ave
    city: Clifton
    state: nj
    zip: '07011'
  place: '3413690'
  geo:
    lat: 40.87387
    lng: -74.13094
  phone: 973-907-3441
  sources:
  - acf/head-start-locations
  verified:
    'on': '2026-07-19'
    method: api
- id: nj/clifton/clifton-housing-authority
  name: Clifton Housing Authority
  categories:
  - housing-assistance
  address: {street: 900 Clifton Ave, city: Clifton, state: nj, zip: '07013'}
  description: Housing Choice Voucher (Section 8) agency
  place: '3413690'
  geo: {lat: 40.86572, lng: -74.16056}
  phone: 973-470-5846
  sources:
  - hud/resource-locator
  verified: {'on': '2026-07-19', method: api}
- id: nj/clifton/clifton-little-free-pantry-2
  name: Clifton little free pantry 2
  categories:
  - food-pantry
  place: '3413690'
  geo:
    lat: 40.8527
    lng: -74.17268
  external_ids:
    lfp: '4020'
  sources:
  - littlefreepantry/map
  verified:
    'on': '2026-07-19'
    method: scrape
- id: nj/clifton/clifton-little-pantry
  name: Clifton Little Pantry
  categories:
  - food-pantry
  place: '3413690'
  geo:
    lat: 40.86644
    lng: -74.16042
  external_ids:
    lfp: '3915'
  sources:
  - littlefreepantry/map
  verified:
    'on': '2026-07-19'
    method: scrape
- id: nj/clifton/mental-health-clinic-of-passaic
  name: Mental Health Clinic of Passaic
  categories:
  - mh-treatment
  address:
    street: 1451 Van Houten Avenue
    city: Clifton
    state: nj
    zip: '07013'
  place: '3413690'
  geo:
    lat: 40.87476
    lng: -74.1779
  phone: 973-473-2775
  website: https://www.mhcp.org
  sources:
  - samhsa/findtreatment
  verified:
    'on': '2026-07-19'
    method: api
- id: nj/clifton/pantries-clifton
  name: Pantries Clifton
  categories:
  - food-pantry
  place: '3413690'
  geo:
    lat: 40.87777
    lng: -74.15995
  external_ids:
    lfp: '4178'
  sources:
  - littlefreepantry/map
  verified:
    'on': '2026-07-19'
    method: scrape
- id: nj/clifton/serv-behavioral-health-system-inc-serv-centers-o
  name: SERV Behavioral Health System Inc SERV Centers of NJ Inc
  categories:
  - su-treatment
  - mh-treatment
  address:
    street: 777 Bloomfield Avenue
    city: Clifton
    state: nj
    zip: '07012'
  place: '3413690'
  geo:
    lat: 40.84826
    lng: -74.1525
  phone: 973-594-0125
  website: https://www.servbhs.org
  sources:
  - samhsa/findtreatment
  verified:
    'on': '2026-07-19'
    method: api
