- id: nj/elizabeth/1189-e-broad
  name: 1189 E Broad
  categories:
  - child-care
  address:
    street: 1189 E Broad St
    city: Elizabeth
    state: nj
    zip: 07208
  place: '3421000'
  geo:
    lat: 40.66833
    lng: -74.21309
  phone: 908-629-9199
  sources:
  - acf/head-start-locations
  verified:
    'on': '2026-07-19'
    method: api
- id: nj/elizabeth/elizabeth-housing-authority
  name: Elizabeth Housing Authority
  categories:
  - housing-assistance
  address: {street: 688 Maple Ave, city: Elizabeth, state: nj, zip: '07202'}
  description: Public housing and Housing Choice Voucher agency
  place: '3421000'
  geo: {lat: 40.64715, lng: -74.21452}
  phone: 908-965-2400
  sources:
  - hud/resource-locator
  verified: {'on': '2026-07-19', method: api}
- id: nj/elizabeth/family-and-childrens-services
  name: Family and Childrens Services
  categories:
  - mh-treatment
  address:
    street: 40 North Avenue
    city: Elizabeth
    state: nj
    zip: 07208
  place: '3421000'
  geo:
    lat: 40.68169
    lng: -74.21621
  phone: 908-352-7474
  website: https://www.facsnj.org
  sources:
  - samhsa/findtreatment
  verified:
    'on': '2026-07-19'
    method: api
- id: nj/elizabeth/intervention-specialists
  name: Intervention Specialists
  categories:
  - su-treatment
  - mh-treatment
  address:
    street: 333 North Broad Street
    city: Elizabeth
    state: nj
    zip: 07208
  place: '3421000'
  geo:
    lat: 40.67086
    lng: -74.21495
  phone: 908-289-0700
  website: https://www.interventionspc.com/
  sources:
  - samhsa/findtreatment
  verified:
    'on': '2026-07-19'
    method: api
- id: nj/elizabeth/jewish-family-service-of-central-nj
  name: Jewish Family Service of Central NJ
  categories:
  - mh-treatment
  address:
    street: 655 Westfield Avenue
    city: Elizabeth
    state: nj
    zip: 07208
  place: '3421000'
  geo:
    lat: 40.66564
    lng: -74.23704
  phone: 908-352-8375
  website: https://www.jfscentralnj.org
  sources:
  - samhsa/findtreatment
  verified:
    'on': '2026-07-19'
    method: api
- id: nj/elizabeth/lennard-clinic-inc
  name: Lennard Clinic Inc
  categories:
  - su-treatment
  address:
    street: 850 Woodruff Lane
    city: Elizabeth
    state: nj
    zip: '07201'
  place: '3421000'
  geo:
    lat: 40.67299
    lng: -74.19467
  phone: 908-352-0850 x410
  website: https://www.thelennardclinic.org
  sources:
  - samhsa/findtreatment
  verified:
    'on': '2026-07-19'
    method: api
- id: nj/elizabeth/proceed-inc-addiction-services
  name: Proceed Inc Addiction Services
  categories:
  - su-treatment
  - mh-treatment
  address:
    street: 1126 Dickinson Street
    city: Elizabeth
    state: nj
    zip: '07201'
  place: '3421000'
  geo:
    lat: 40.66276
    lng: -74.21266
  phone: 908-469-3200 x251
  website: https://www.proceedinc.com
  sources:
  - samhsa/findtreatment
  verified:
    'on': '2026-07-19'
    method: api
- id: nj/elizabeth/union-county-housing-authority
  name: Union County Housing Authority
  categories:
  - housing-assistance
  address: {street: 1 Elizabethtown Plz, city: Elizabeth, state: nj, zip: '07202'}
  description: Housing Choice Voucher (Section 8) agency
  place: '3421000'
  geo: {lat: 40.66172, lng: -74.2169}
  phone: 732-382-8100
  sources:
  - hud/resource-locator
  verified: {'on': '2026-07-19', method: api}
