- id: nj/kearny/family-service-bureau-of-kearny
  name: Family Service Bureau of Kearny
  categories:
  - su-treatment
  - mh-treatment
  address:
    street: 379 Kearny Avenue
    city: Kearny
    state: nj
    zip: '07032'
  place: '3436510'
  geo:
    lat: 40.76387
    lng: -74.1491
  phone: 201-286-8077
  website: https://www.newcommunity.org
  sources:
  - samhsa/findtreatment
  verified:
    'on': '2026-07-19'
    method: api
- id: nj/kearny/franklin-elementary-school
  name: Franklin Elementary School
  categories:
  - meal-program
  address: {street: 100 Davis Avenue, city: Kearny, state: nj, zip: '07032'}
  description: Free summer meals for kids and teens (2026 season) — sponsored by Kearny Board of Education.
  place: '3436510'
  geo: {lat: 40.75648, lng: -74.14837}
  phone: (201) 955-5029
  external_ids: {usda_master: Cycle 05_NJ_SFSP_0671}
  sources:
  - usda/summer-meal-sites
  verified: {'on': '2026-07-19', method: api}
- id: nj/kearny/hudson-arts-and-science-charter-school
  name: Hudson Arts And Science Charter School
  categories:
  - meal-program
  address: {street: 131 Midland Avenue, city: Kearny, state: nj, zip: '07032'}
  description: Free summer meals for kids and teens (2026 season) — sponsored by Passaic Arts and Science
    Charter School.
  place: '3436510'
  geo: {lat: 40.7698, lng: -74.14311}
  phone: (201) 955-1818
  external_ids: {usda_master: Cycle 05_NJ_SFSP_0159}
  sources:
  - usda/summer-meal-sites
  verified: {'on': '2026-07-19', method: api}
- id: nj/kearny/inter-county-council-on-drug-alc-abuse-administr
  name: Inter County Council on Drug/Alc Abuse Administration/Drug Free Counseling
  categories:
  - su-treatment
  address:
    street: 480 Kearny Avenue
    city: Kearny
    state: nj
    zip: '07032'
  place: '3436510'
  geo:
    lat: 40.76735
    lng: -74.14661
  phone: 201-998-7422
  website: https://www.iccdaa.org
  sources:
  - samhsa/findtreatment
  verified:
    'on': '2026-07-19'
    method: api
- id: nj/kearny/inter-county-council-on-drug-alc-abuse-medicatio
  name: Inter County Council on Drug/Alc Abuse Medication Assisted Therapy
  categories:
  - su-treatment
  address:
    street: 482 Kearny Avenue
    city: Kearny
    state: nj
    zip: '07032'
  place: '3436510'
  geo:
    lat: 40.76735
    lng: -74.14661
  phone: 201-997-4000
  website: https://www.iccdaa.org
  sources:
  - samhsa/findtreatment
  verified:
    'on': '2026-07-19'
    method: api
- id: nj/kearny/kearny
  name: Kearny
  categories:
  - child-care
  address:
    street: 380 Kearny Ave
    city: Kearny
    state: nj
    zip: '07032'
  place: '3436510'
  geo:
    lat: 40.76394
    lng: -74.14837
  phone: 201-246-8786
  sources:
  - acf/head-start-locations
  verified:
    'on': '2026-07-19'
    method: api
- id: nj/kearny/kearny-high-school
  name: Kearny High School
  categories:
  - meal-program
  address: {street: 336 Devon Street, city: Kearny, state: nj, zip: '07032'}
  description: Free summer meals for kids and teens (2026 season) — sponsored by Kearny Board of Education.
  place: '3436510'
  geo: {lat: 40.76223, lng: -74.14779}
  phone: (201) 955-5000
  external_ids: {usda_master: Cycle 05_NJ_SFSP_0672}
  sources:
  - usda/summer-meal-sites
  verified: {'on': '2026-07-19', method: api}
- id: nj/kearny/lincoln-middle-school
  name: Lincoln Middle School
  categories:
  - meal-program
  address: {street: 121 Beech Street, city: Kearny, state: nj, zip: '07032'}
  description: Free summer meals for kids and teens (2026 season) — sponsored by Kearny Board of Education.
  place: '3436510'
  geo: {lat: 40.76953, lng: -74.14433}
  phone: (201) 955-5029
  external_ids: {usda_master: Cycle 05_NJ_SFSP_0673}
  sources:
  - usda/summer-meal-sites
  verified: {'on': '2026-07-19', method: api}
