- id: nj/mount-holly/catholic-charities-delaware-house-outpatient-pro
  name: Catholic Charities Delaware House Outpatient Program
  categories:
  - su-treatment
  - mh-treatment
  address:
    street: 25 Ikea Drive
    city: Mount Holly
    state: nj
    zip: 08060
  geo:
    lat: 40.01171
    lng: -74.85798
  phone: 609-386-7331
  website: https://www.catholiccharitiestrenton.org
  sources:
  - samhsa/findtreatment
  verified:
    'on': '2026-07-19'
    method: api
- id: nj/mount-holly/catholic-charities-early-intervention-support-se
  name: Catholic Charities Early Intervention Support Services
  categories:
  - su-treatment
  - mh-treatment
  address:
    street: 25 Ikea Drive
    city: Mount Holly
    state: nj
    zip: 08060
  geo:
    lat: 40.01171
    lng: -74.85798
  phone: 609-386-7331
  website: https://www.catholiccharitiestrenton.org
  sources:
  - samhsa/findtreatment
  verified:
    'on': '2026-07-19'
    method: api
- id: nj/mount-holly/gertrude-folwell-school
  name: Gertrude Folwell School
  categories:
  - meal-program
  address: {street: 455 Hedding-Jacksonville Road, city: Mount Holly, state: nj, zip: 08022}
  description: Free summer meals for kids and teens (2026 season) — sponsored by Burlington City Board
    of Education.
  geo: {lat: 40.06418, lng: -74.75704}
  phone: (609) 267-7033
  external_ids: {usda_master: Cycle 05_NJ_SFSP_0743}
  sources:
  - usda/summer-meal-sites
  verified: {'on': '2026-07-19', method: api}
- id: nj/mount-holly/hampton-behavioral-health-center
  name: Hampton Behavioral Health Center
  categories:
  - su-treatment
  - mh-treatment
  address:
    street: 650 Rancocas Road
    city: Mount Holly
    state: nj
    zip: 08060
  geo:
    lat: 40.0079
    lng: -74.84646
  phone: 609-267-7000
  website: https://www.hamptonhospital.com
  sources:
  - samhsa/findtreatment
  verified:
    'on': '2026-07-19'
    method: api
- id: nj/mount-holly/legacy-treatment-services-karos-house
  name: Legacy Treatment Services Karos House
  categories:
  - su-treatment
  - mh-treatment
  address:
    city: Mount Holly
    state: nj
    zip: 08060
  phone: 609-261-3034
  website: https://www.legacytreatment.org
  sources:
  - samhsa/findtreatment
  verified:
    'on': '2026-07-19'
    method: api
- id: nj/mount-holly/legacy-treatment-services-mount-holly-outpatient
  name: Legacy Treatment Services Mount Holly Outpatient Department
  categories:
  - su-treatment
  - mh-treatment
  address:
    street: 795 Woodlane Road
    city: Mount Holly
    state: nj
    zip: 08060
  geo:
    lat: 40.0129
    lng: -74.8051
  phone: 609-267-1377
  website: https://www.legacytreatment.org
  sources:
  - samhsa/findtreatment
  verified:
    'on': '2026-07-19'
    method: api
- id: nj/mount-holly/new-brunswick-counseling-center-dba-burlington-c
  name: New Brunswick Counseling Center DBA Burlington Comprehensive Csl
  categories:
  - su-treatment
  - mh-treatment
  address:
    street: 605 High Street
    city: Mount Holly
    state: nj
    zip: 08060
  geo:
    lat: 40.0081
    lng: -74.79708
  phone: 609-267-3610 x109
  website: https://www.nbcounselingcenter.org
  sources:
  - samhsa/findtreatment
  verified:
    'on': '2026-07-19'
    method: api
- id: nj/mount-holly/oak-integrated-care-addiction-services
  name: Oak Integrated Care Addiction Services
  categories:
  - su-treatment
  address:
    street: 770 Woodlane Road
    city: Mount Holly
    state: nj
    zip: 08060
  geo:
    lat: 40.0119
    lng: -74.8098
  phone: 609-267-5928 x80502
  website: https://www.oaksintcare.org
  sources:
  - samhsa/findtreatment
  verified:
    'on': '2026-07-19'
    method: api
- id: nj/mount-holly/oaks-integrated-care-addiction-services
  name: Oaks Integrated Care Addiction Services
  categories:
  - su-treatment
  - mh-treatment
  address:
    street: 770 Woodlane Road
    city: Mount Holly
    state: nj
    zip: 08060
  geo:
    lat: 40.0119
    lng: -74.8098
  phone: 609-267-5928 x80502
  website: https://www.oaksintcare.org
  sources:
  - samhsa/findtreatment
  verified:
    'on': '2026-07-19'
    method: api
- id: nj/mount-holly/phoenix-treatment-center
  name: Phoenix Treatment Center
  categories:
  - su-treatment
  address:
    street: 11 Garden Street
    city: Mount Holly
    state: nj
    zip: 08060
  geo:
    lat: 39.99567
    lng: -74.78755
  phone: 609-920-3631
  website: https://
  sources:
  - samhsa/findtreatment
  verified:
    'on': '2026-07-19'
    method: api
- id: nj/mount-holly/virtua-mount-holly-hospital-burlington-county
  name: Virtua Mount Holly Hospital Burlington County
  categories:
  - su-treatment
  - mh-treatment
  address:
    street: 175 Madison Avenue
    city: Mount Holly
    state: nj
    zip: 08060
  geo:
    lat: 39.986
    lng: -74.7949
  phone: 609-914-6000 x46402
  website: https://www.virtua.org
  sources:
  - samhsa/findtreatment
  verified:
    'on': '2026-07-19'
    method: api
