- id: nj/newton/center-for-family-services
  name: Center for Family Services
  categories:
  - su-treatment
  - mh-treatment
  address:
    street: 55 Mill Street
    city: Newton
    state: nj
    zip: 07860
  place: '3451930'
  geo:
    lat: 41.06175
    lng: -74.75538
  phone: 877-922-2377
  website: https://www.centerffs.org
  sources:
  - samhsa/findtreatment
  verified:
    'on': '2026-07-19'
    method: api
- id: nj/newton/center-for-prevention-and-counseling
  name: Center for Prevention and Counseling
  categories:
  - su-treatment
  address:
    street: 61 Spring Street
    city: Newton
    state: nj
    zip: 07860
  place: '3451930'
  geo:
    lat: 41.0584
    lng: -74.75278
  phone: 973-383-4787
  website: https://www.centerforprevention.org
  sources:
  - samhsa/findtreatment
  verified:
    'on': '2026-07-19'
    method: api
- id: nj/newton/halsted-middle-school
  name: Halsted Middle School
  categories:
  - meal-program
  address: {street: 59 Halsted Street, city: Newton, state: nj, zip: 07860}
  description: Free summer meals for kids and teens (2026 season) — sponsored by Newton Board of Education.
  place: '3451930'
  geo: {lat: 41.05365, lng: -74.74997}
  phone: (973) 383-7440
  external_ids: {usda_master: Cycle 05_NJ_SFSP_0676}
  sources:
  - usda/summer-meal-sites
  verified: {'on': '2026-07-19', method: api}
- id: nj/newton/merriam-avenue-elementary
  name: Merriam Avenue Elementary
  categories:
  - meal-program
  address: {street: 81 Merriam Avenue, city: Newton, state: nj, zip: 07860}
  description: Free summer meals for kids and teens (2026 season) — sponsored by Newton Board of Education.
  place: '3451930'
  geo: {lat: 41.0451, lng: -74.75399}
  phone: (973) 383-7440
  external_ids: {usda_master: Cycle 05_NJ_SFSP_0674}
  sources:
  - usda/summer-meal-sites
  verified: {'on': '2026-07-19', method: api}
- id: nj/newton/newton-head-start-early-head-start
  name: Newton Head Start/Early Head Start
  categories:
  - child-care
  address:
    street: 111 Ryerson Ave
    city: Newton
    state: nj
    zip: 07860
  place: '3451930'
  geo:
    lat: 41.04542
    lng: -74.764
  phone: 973-300-4091
  sources:
  - acf/head-start-locations
  verified:
    'on': '2026-07-19'
    method: api
- id: nj/newton/newton-high-school
  name: Newton High School
  categories:
  - meal-program
  address: {street: 44 Ryerson Avenue, city: Newton, state: nj, zip: 07860}
  description: Free summer meals for kids and teens (2026 season) — sponsored by Newton Board of Education.
  place: '3451930'
  geo: {lat: 41.0501, lng: -74.75934}
  phone: (973) 383-7573
  external_ids: {usda_master: Cycle 05_NJ_SFSP_0675}
  sources:
  - usda/summer-meal-sites
  verified: {'on': '2026-07-19', method: api}
- id: nj/newton/newton-housing-authority
  name: Newton Housing Authority
  categories:
  - housing-assistance
  address:
    street: 32 Liberty St
    city: Newton
    state: nj
    zip: 07860
  description: Public housing (Low-Rent) agency
  place: '3451930'
  geo:
    lat: 41.05648
    lng: -74.75722
  phone: 973-383-5191
  sources:
  - hud/resource-locator
  verified:
    'on': '2026-07-19'
    method: api
- id: nj/newton/resource-center-for-the-chemically-dep-sussex-co
  name: Resource Center for the Chemically Dep Sussex County Aftercare Center
  categories:
  - su-treatment
  address:
    street: 124 Hampton House Road
    city: Newton
    state: nj
    zip: 07860
  place: '3451930'
  geo:
    lat: 41.09783
    lng: -74.73116
  phone: 973-383-8880
  website: https://www.mcaftercare.org
  sources:
  - samhsa/findtreatment
  verified:
    'on': '2026-07-19'
    method: api
- id: nj/newton/zufall-health-center-sussex
  name: Zufall Health Center - Sussex
  categories:
  - community-health-center
  address:
    street: 238 Spring St
    city: Newton
    state: nj
    zip: 07860
  place: '3451930'
  geo:
    lat: 41.05561
    lng: -74.74978
  phone: 973-862-6650
  external_ids:
    bphc: BPS-H80-017739
  sources:
  - hrsa/health-center-sites
  verified:
    'on': '2026-07-19'
    method: api
