- id: nj/passaic/children-s-day-preschool
  name: Children's Day Preschool
  categories:
  - child-care
  address:
    street: 104 Jefferson St
    city: Passaic
    state: nj
    zip: '07055'
  place: '3456550'
  geo:
    lat: 40.86362
    lng: -74.12233
  phone: 973-777-5544
  sources:
  - acf/head-start-locations
  verified:
    'on': '2026-07-19'
    method: api
- id: nj/passaic/highland-avenue-center
  name: Highland Avenue Center
  categories:
  - child-care
  address:
    street: 91 Highland Ave
    city: Passaic
    state: nj
    zip: '07055'
  place: '3456550'
  geo:
    lat: 40.87424
    lng: -74.12409
  phone: 973-272-0900
  sources:
  - acf/head-start-locations
  verified:
    'on': '2026-07-19'
    method: api
- id: nj/passaic/housing-authority-of-the-city-of-passaic
  name: Housing Authority Of The City Of Passaic
  categories:
  - housing-assistance
  address: {street: 52 Aspen Pl, city: Passaic, state: nj, zip: '07055'}
  description: Public housing and Housing Choice Voucher agency
  place: '3456550'
  geo: {lat: 40.86031, lng: -74.12226}
  phone: 973-365-6330
  sources:
  - hud/resource-locator
  verified: {'on': '2026-07-19', method: api}
- id: nj/passaic/jewish-fam-servs-and-childrens-ctr
  name: Jewish Fam Servs and Childrens Ctr
  categories:
  - su-treatment
  - mh-treatment
  address:
    street: 110 Main Avenue
    city: Passaic
    state: nj
    zip: '07055'
  place: '3456550'
  geo:
    lat: 40.84305
    lng: -74.12964
  phone: 973-777-7638 x139
  website: https://www.jfsclifton.org
  sources:
  - samhsa/findtreatment
  verified:
    'on': '2026-07-19'
    method: api
- id: nj/passaic/mental-health-clinic-of-passaic
  name: Mental Health Clinic of Passaic
  categories:
  - mh-treatment
  address:
    street: 124 Gregory Avenue
    city: Passaic
    state: nj
    zip: '07055'
  place: '3456550'
  geo:
    lat: 40.85661
    lng: -74.12517
  phone: 973-471-8006
  website: https://www.mhcp.org
  sources:
  - samhsa/findtreatment
  verified:
    'on': '2026-07-19'
    method: api
- id: nj/passaic/north-hudson-community-action-corporation-passai
  name: North Hudson Community Action Corporation @ Passaic
  categories:
  - community-health-center
  address:
    street: 220 Passaic St
    city: Passaic
    state: nj
    zip: '07055'
  place: '3456550'
  geo:
    lat: 40.86203
    lng: -74.118
  phone: 201-210-0100
  external_ids:
    bphc: BPS-H80-021287
  sources:
  - hrsa/health-center-sites
  verified:
    'on': '2026-07-19'
    method: api
- id: nj/passaic/northeast-life-skills-associates-inc
  name: Northeast Life Skills Associates Inc
  categories:
  - su-treatment
  - mh-treatment
  address:
    street: 121 Howe Avenue
    city: Passaic
    state: nj
    zip: '07055'
  place: '3456550'
  geo:
    lat: 40.8608
    lng: -74.13237
  phone: 973-777-2962 x102
  website: https://www.northeastlifeskills.org
  sources:
  - samhsa/findtreatment
  verified:
    'on': '2026-07-19'
    method: api
- id: nj/passaic/passaic-alliance
  name: Passaic Alliance
  categories:
  - su-treatment
  address:
    street: 69 Jefferson Street
    city: Passaic
    state: nj
    zip: '07055'
  place: '3456550'
  geo:
    lat: 40.86394
    lng: -74.12078
  phone: 973-365-5740
  website: https://www.cityofpassaic.com
  sources:
  - samhsa/findtreatment
  verified:
    'on': '2026-07-19'
    method: api
- id: nj/passaic/prime-healthcare-services-st-marys-general-hospi
  name: Prime Healthcare Services St Marys General Hospital Seton Center
  categories:
  - mh-treatment
  address:
    street: 530 Main Avenue
    city: Passaic
    state: nj
    zip: '07055'
  place: '3456550'
  geo:
    lat: 40.8571
    lng: -74.12322
  phone: 973-470-3514
  website: https://www.smh-nj.com
  sources:
  - samhsa/findtreatment
  verified:
    'on': '2026-07-19'
    method: api
- id: nj/passaic/third-street-center
  name: Third Street Center
  categories:
  - child-care
  address:
    street: 68 Third St
    city: Passaic
    state: nj
    zip: '07055'
  place: '3456550'
  geo:
    lat: 40.86378
    lng: -74.11532
  phone: 973-365-5808
  sources:
  - acf/head-start-locations
  verified:
    'on': '2026-07-19'
    method: api
