- id: nj/somerville/high-focus-centers
  name: High Focus Centers
  categories:
  - su-treatment
  - mh-treatment
  address:
    street: 3322 Route 22 West
    city: Somerville
    state: nj
    zip: 08876
  place: '3468460'
  geo:
    lat: 40.60785
    lng: -74.70284
  phone: 732-474-7447
  website: https://www.highfocuscenters.com
  sources:
  - samhsa/findtreatment
  verified:
    'on': '2026-07-19'
    method: api
- id: nj/somerville/s-h-a-r-e-pantry-sclsnj-somerville-branch
  name: 'S.H.A.R.E. Pantry: SCLSNJ Somerville branch'
  categories:
  - food-pantry
  place: '3468460'
  geo:
    lat: 40.57071
    lng: -74.61984
  external_ids:
    lfp: '4949'
  sources:
  - littlefreepantry/map
  verified:
    'on': '2026-07-19'
    method: scrape
- id: nj/somerville/somerset-treatment-services
  name: Somerset Treatment Services
  categories:
  - su-treatment
  - mh-treatment
  address:
    street: 118 West End Avenue
    city: Somerville
    state: nj
    zip: 08876
  place: '3468460'
  geo:
    lat: 40.57275
    lng: -74.62261
  phone: 908-722-1232 x3000
  website: https://www.stscares.org
  sources:
  - samhsa/findtreatment
  verified:
    'on': '2026-07-19'
    method: api
- id: nj/somerville/somerville-ymca
  name: Somerville YMCA
  categories:
  - food-pantry
  place: '3468460'
  geo:
    lat: 40.57461
    lng: -74.61031
  external_ids:
    lfp: '3452'
  sources:
  - littlefreepantry/map
  verified:
    'on': '2026-07-19'
    method: scrape
- id: nj/somerville/zufall-health-center-somerville
  name: Zufall Health Center Somerville
  categories:
  - community-health-center
  address:
    street: 71 4th St
    city: Somerville
    state: nj
    zip: 08876
  place: '3468460'
  geo:
    lat: 40.56091
    lng: -74.60965
  phone: 908-526-2335
  external_ids:
    bphc: BPS-H80-013454
  sources:
  - hrsa/health-center-sites
  verified:
    'on': '2026-07-19'
    method: api
