- id: nj/vineland/collaborations-dibiase-preschool
  name: Collaborations- DiBiase Preschool
  categories:
  - child-care
  address:
    street: 2040 E Oak Rd
    city: Vineland
    state: nj
    zip: 08361
  place: '3476070'
  geo:
    lat: 39.49933
    lng: -74.98663
  sources:
  - acf/head-start-locations
  verified:
    'on': '2026-07-19'
    method: api
- id: nj/vineland/collaborations-little-lamb-preschool
  name: Collaborations-Little Lamb PreSchool
  categories:
  - child-care
  address:
    street: 1005 E Wheat Rd
    city: Vineland
    state: nj
    zip: 08360
  place: '3476070'
  geo:
    lat: 39.51012
    lng: -75.00511
  sources:
  - acf/head-start-locations
  verified:
    'on': '2026-07-19'
    method: api
- id: nj/vineland/collaborations-the-courtyard-preschool
  name: Collaborations- The Courtyard Preschool
  categories:
  - child-care
  address:
    street: 1270 S East Ave
    city: Vineland
    state: nj
    zip: 08360
  place: '3476070'
  geo:
    lat: 39.46705
    lng: -75.01854
  sources:
  - acf/head-start-locations
  verified:
    'on': '2026-07-19'
    method: api
- id: nj/vineland/completecare-mobile-medical-unit
  name: CompleteCare Mobile Medical Unit
  categories:
  - community-health-center
  address:
    street: 785 W Sherman Ave
    city: Vineland
    state: nj
    zip: 08360
  place: '3476070'
  geo:
    lat: 39.44628
    lng: -75.04415
  phone: 856-451-4700
  website: https://CompleteCareNJ.org
  external_ids:
    bphc: BPS-H80-036679
  sources:
  - hrsa/health-center-sites
  verified:
    'on': '2026-07-19'
    method: api
- id: nj/vineland/completecare-vineland-health-campus
  name: CompleteCare Vineland Health Campus
  categories:
  - community-health-center
  address:
    street: 785 W Sherman Ave
    city: Vineland
    state: nj
    zip: 08360
  place: '3476070'
  geo:
    lat: 39.44628
    lng: -75.04415
  phone: 856-451-4700
  website: https://www.completecarenj.org
  external_ids:
    bphc: BPS-H80-014865
  sources:
  - hrsa/health-center-sites
  verified:
    'on': '2026-07-19'
    method: api
- id: nj/vineland/dibiase-preschool
  name: DiBiase Preschool
  categories:
  - child-care
  address:
    street: 2040 E Oak Rd
    city: Vineland
    state: nj
    zip: 08361
  place: '3476070'
  geo:
    lat: 39.49953
    lng: -74.98649
  phone: 856-451-6330
  sources:
  - acf/head-start-locations
  verified:
    'on': '2026-07-19'
    method: api
- id: nj/vineland/golden-gate-child-care-development-center-ii
  name: Golden Gate Child Care Development Center II
  categories:
  - child-care
  address:
    street: 120 W Wood St
    city: Vineland
    state: nj
    zip: 08360
  place: '3476070'
  geo:
    lat: 39.48802
    lng: -75.03401
  phone: 856-205-0556
  sources:
  - acf/head-start-locations
  verified:
    'on': '2026-07-19'
    method: api
- id: nj/vineland/greater-deliverance
  name: Greater Deliverance
  categories:
  - child-care
  address:
    street: 2120 N Delsea Dr
    street2: Bldg A
    city: Vineland
    state: nj
    zip: 08360
  place: '3476070'
  geo:
    lat: 39.51768
    lng: -75.04163
  phone: 856-794-4844
  sources:
  - acf/head-start-locations
  verified:
    'on': '2026-07-19'
    method: api
- id: nj/vineland/hendricks-house-inc
  name: Hendricks House Inc
  categories:
  - su-treatment
  address:
    city: Vineland
    state: nj
    zip: 08360
  place: '3476070'
  phone: 856-794-2443 x135
  website: https://www.hendrickshousegroup.org
  sources:
  - samhsa/findtreatment
  verified:
    'on': '2026-07-19'
    method: api
- id: nj/vineland/linda-dechen-elc-vineland-ii-head-start
  name: Linda Dechen ELC-Vineland II Head Start
  categories:
  - child-care
  address:
    street: 237 W Chestnut Ave
    city: Vineland
    state: nj
    zip: 08360
  place: '3476070'
  geo:
    lat: 39.47884
    lng: -75.03254
  phone: 856-692-7239
  sources:
  - acf/head-start-locations
  verified:
    'on': '2026-07-19'
    method: api
- id: nj/vineland/maryville-inc-outpatient-treatment-services
  name: Maryville Inc Outpatient Treatment Services
  categories:
  - su-treatment
  - mh-treatment
  address:
    street: 1173 East Landis Avenue
    city: Vineland
    state: nj
    zip: 08360
  place: '3476070'
  geo:
    lat: 39.48423
    lng: -75.00078
  phone: 856-690-1000
  website: https://www.maryvillenj.org
  sources:
  - samhsa/findtreatment
  verified:
    'on': '2026-07-19'
    method: api
- id: nj/vineland/oaks-integrated-care-certified-community-behavio
  name: Oaks Integrated Care Certified Community Behavioral Health
  categories:
  - su-treatment
  - mh-treatment
  address:
    street: 1138 East Chestnut Avenue
    city: Vineland
    state: nj
    zip: 08360
  place: '3476070'
  geo:
    lat: 39.47838
    lng: -75.00435
  phone: 856-696-1233
  website: https://oaksintcare.org
  sources:
  - samhsa/findtreatment
  verified:
    'on': '2026-07-19'
    method: api
- id: nj/vineland/oaks-integrated-care-certified-community-behavio-2
  name: Oaks Integrated Care Certified Community Behavioral Health
  categories:
  - su-treatment
  - mh-treatment
  address:
    street: 1420 South Lincoln Avenue
    city: Vineland
    state: nj
    zip: 08361
  place: '3476070'
  geo:
    lat: 39.46313
    lng: -74.9803
  phone: 856-537-2310
  website: https://oaksintcare.org
  sources:
  - samhsa/findtreatment
  verified:
    'on': '2026-07-19'
    method: api
- id: nj/vineland/pinnacle-treatment-centers-nj-iii-vineland-treat
  name: Pinnacle Treatment Centers NJ III Vineland Treatment Services
  categories:
  - su-treatment
  address:
    street: 1051 Sherman Avenue
    city: Vineland
    state: nj
    zip: 08360
  place: '3476070'
  geo:
    lat: 39.44443
    lng: -75.00949
  phone: 865-839-2210
  website: https://pinnacletreatment.com
  sources:
  - samhsa/findtreatment
  verified:
    'on': '2026-07-19'
    method: api
- id: nj/vineland/ritecare-at-vineland-shoprite
  name: RiteCare at Vineland ShopRite
  categories:
  - community-health-center
  address:
    street: 1255 Landis Ave
    city: Vineland
    state: nj
    zip: 08360
  place: '3476070'
  geo:
    lat: 39.48482
    lng: -75.04934
  phone: 856-451-4700
  website: https://www.completecarenj.org
  external_ids:
    bphc: BPS-H80-012649
  sources:
  - hrsa/health-center-sites
  verified:
    'on': '2026-07-19'
    method: api
- id: nj/vineland/total-family-solutions-vineland
  name: Total Family Solutions Vineland
  categories:
  - su-treatment
  - mh-treatment
  address:
    street: 60 West Landis Avenue
    city: Vineland
    state: nj
    zip: 08360
  place: '3476070'
  geo:
    lat: 39.48744
    lng: -75.03802
  phone: 856-772-5852
  website: https://www.totalfamilysolutions.com/
  sources:
  - samhsa/findtreatment
  verified:
    'on': '2026-07-19'
    method: api
- id: nj/vineland/vineland-housing-authority
  name: Vineland Housing Authority
  categories:
  - housing-assistance
  address: {street: 191 W Chestnut Ave, city: Vineland, state: nj, zip: 08360}
  description: Public housing and Housing Choice Voucher agency
  place: '3476070'
  geo: {lat: 39.47921, lng: -75.03411}
  phone: 856-691-4099
  sources:
  - hud/resource-locator
  verified: {'on': '2026-07-19', method: api}
- id: nj/vineland/vineland-iii-head-start
  name: Vineland III Head Start
  categories:
  - child-care
  address:
    street: 116 W Elmer St
    city: Vineland
    state: nj
    zip: 08360
  place: '3476070'
  geo:
    lat: 39.48582
    lng: -75.0344
  phone: 856-691-5838
  sources:
  - acf/head-start-locations
  verified:
    'on': '2026-07-19'
    method: api
- id: nj/vineland/vineland-treatment-services
  name: Vineland Treatment Services
  categories:
  - su-treatment
  address:
    street: 1051 West Sherman Avenue
    city: Vineland
    state: nj
    zip: 08360
  place: '3476070'
  geo:
    lat: 39.44632
    lng: -75.0485
  phone: 856-839-2482
  website: https://pinnacletreatment.com
  sources:
  - samhsa/findtreatment
  verified:
    'on': '2026-07-19'
    method: api
