- id: nj/voorhees/center-for-family-services
  name: Center for Family Services
  categories:
  - su-treatment
  - mh-treatment
  address:
    street: 108 Somerdale Avenue
    city: Voorhees
    state: nj
    zip: 08043
  place: '3476250'
  geo:
    lat: 39.85142
    lng: -75.00579
  phone: 877-922-2377
  website: https://www.centerffs.org
  sources:
  - samhsa/findtreatment
  verified:
    'on': '2026-07-19'
    method: api
- id: nj/voorhees/franklin-township-community-relations-bureau-lit
  name: Franklin Township Community Relations Bureau Little Pantry
  categories:
  - food-pantry
  place: '3476250'
  geo:
    lat: 40.48804
    lng: -74.48421
  external_ids:
    lfp: '2926'
  sources:
  - littlefreepantry/map
  verified:
    'on': '2026-07-19'
    method: scrape
- id: nj/voorhees/fresh-start-addiction-llc-dba-eleve-behavioral-h
  name: Fresh Start Addiction LLC DBA Eleve Behavioral Health
  categories:
  - su-treatment
  address:
    street: 1307 White Horse
    city: Voorhees
    state: nj
    zip: 08043
  place: '3476250'
  geo:
    lat: 39.85588
    lng: -74.97922
  phone: 856-856-2871
  website: https://www.elevebh.com
  sources:
  - samhsa/findtreatment
  verified:
    'on': '2026-07-19'
    method: api
- id: nj/voorhees/higher-ground-behavioral-health
  name: Higher Ground Behavioral Health
  categories:
  - su-treatment
  - mh-treatment
  address:
    street: 1010 Haddonfield Berllin Road
    city: Voorhees
    state: nj
    zip: 08043
  place: '3476250'
  geo:
    lat: 39.84704
    lng: -74.97668
  phone: 856-809-2940
  website: https://www.highergroundbh.org
  sources:
  - samhsa/findtreatment
  verified:
    'on': '2026-07-19'
    method: api
- id: nj/voorhees/total-family-solutions-llc-voorhees
  name: Total Family Solutions LLC Voorhees
  categories:
  - su-treatment
  - mh-treatment
  address:
    street: 221 Laurel Road
    city: Voorhees
    state: nj
    zip: 08043
  place: '3476250'
  geo:
    lat: 39.84936
    lng: -74.9988
  phone: 856-772-5809
  website: https://www.totalfamilysolutions.com/
  sources:
  - samhsa/findtreatment
  verified:
    'on': '2026-07-19'
    method: api
