- id: fl/azalea-park/4c-engelwood
  name: 4C Engelwood
  org: fl/second-harvest-food-bank-of-central-florida-inc
  categories:
  - food-pantry
  place: '1202850'
  geo: {lat: 28.53054, lng: -81.30349}
  phone: 407-751-7906
  external_ids: {fl-second-harvest-food-bank-of-central-florida-inc: '496620905'}
  sources:
  - foodbank/fl-second-harvest-food-bank-of-central-florida-inc
  verified: {'on': '2026-07-21', method: api}
- id: fl/azalea-park/advance-community-outreach-center
  name: Advance Community Outreach Center
  org: fl/second-harvest-food-bank-of-central-florida-inc
  categories:
  - food-pantry
  place: '1202850'
  geo: {lat: 28.55566, lng: -81.28539}
  phone: 407-350-3311
  external_ids: {fl-second-harvest-food-bank-of-central-florida-inc: '496620918'}
  sources:
  - foodbank/fl-second-harvest-food-bank-of-central-florida-inc
  verified: {'on': '2026-07-21', method: api}
- id: fl/azalea-park/catholic-charities-of-central-florida-inc
  name: Catholic Charities of Central Florida, Inc.
  org: fl/second-harvest-food-bank-of-central-florida-inc
  categories:
  - food-pantry
  place: '1202850'
  geo: {lat: 28.56847, lng: -81.31016}
  phone: 407-658-1818
  external_ids: {fl-second-harvest-food-bank-of-central-florida-inc: '496620955'}
  sources:
  - foodbank/fl-second-harvest-food-bank-of-central-florida-inc
  verified: {'on': '2026-07-21', method: api}
- id: fl/azalea-park/christ-the-king-episcopal-church
  name: Christ the King Episcopal Church
  org: fl/second-harvest-food-bank-of-central-florida-inc
  categories:
  - food-pantry
  place: '1202850'
  geo: {lat: 28.54532, lng: -81.30611}
  phone: 407-277-1151
  external_ids: {fl-second-harvest-food-bank-of-central-florida-inc: '496620962'}
  sources:
  - foodbank/fl-second-harvest-food-bank-of-central-florida-inc
  verified: {'on': '2026-07-21', method: api}
- id: fl/azalea-park/el-tabernaculo-pentecostal
  name: El Tabernaculo Pentecostal
  org: fl/second-harvest-food-bank-of-central-florida-inc
  categories:
  - food-pantry
  place: '1202850'
  geo: {lat: 28.57077, lng: -81.28685}
  phone: 407-868-9439
  external_ids: {fl-second-harvest-food-bank-of-central-florida-inc: '496621015'}
  sources:
  - foodbank/fl-second-harvest-food-bank-of-central-florida-inc
  verified: {'on': '2026-07-21', method: api}
- id: fl/azalea-park/hands-to-the-needy
  name: Hands to the Needy
  org: fl/second-harvest-food-bank-of-central-florida-inc
  categories:
  - food-pantry
  place: '1202850'
  geo: {lat: 28.54055, lng: -81.31185}
  phone: 407-470-0131
  external_ids: {fl-second-harvest-food-bank-of-central-florida-inc: '496621066'}
  sources:
  - foodbank/fl-second-harvest-food-bank-of-central-florida-inc
  verified: {'on': '2026-07-21', method: api}
- id: fl/azalea-park/iglesia-apostolica-el-maestro
  name: Iglesia Apostolica El Maestro
  org: fl/second-harvest-food-bank-of-central-florida-inc
  categories:
  - food-pantry
  place: '1202850'
  geo: {lat: 28.5415, lng: -81.31205}
  phone: 407-325-2596
  external_ids: {fl-second-harvest-food-bank-of-central-florida-inc: '496621092'}
  sources:
  - foodbank/fl-second-harvest-food-bank-of-central-florida-inc
  verified: {'on': '2026-07-21', method: api}
- id: fl/azalea-park/iglesia-bautista-el-camino
  name: Iglesia Bautista El Camino
  org: fl/second-harvest-food-bank-of-central-florida-inc
  categories:
  - food-pantry
  place: '1202850'
  geo: {lat: 28.56875, lng: -81.30895}
  phone: 407-485-4489
  external_ids: {fl-second-harvest-food-bank-of-central-florida-inc: '496621093'}
  sources:
  - foodbank/fl-second-harvest-food-bank-of-central-florida-inc
  verified: {'on': '2026-07-21', method: api}
- id: fl/azalea-park/islamic-society-of-central-florida-goldenrod
  name: Islamic Society of Central Florida Goldenrod
  org: fl/second-harvest-food-bank-of-central-florida-inc
  categories:
  - food-pantry
  place: '1202850'
  geo: {lat: 28.56426, lng: -81.2866}
  phone: 407-250-5822
  external_ids: {fl-second-harvest-food-bank-of-central-florida-inc: '496621119'}
  sources:
  - foodbank/fl-second-harvest-food-bank-of-central-florida-inc
  verified: {'on': '2026-07-21', method: api}
- id: fl/azalea-park/prince-of-peace-lutheran-church
  name: Prince Of Peace Lutheran Church
  org: fl/second-harvest-food-bank-of-central-florida-inc
  categories:
  - food-pantry
  place: '1202850'
  geo: {lat: 28.52394, lng: -81.30959}
  phone: 407-277-3945
  external_ids: {fl-second-harvest-food-bank-of-central-florida-inc: '496621206'}
  sources:
  - foodbank/fl-second-harvest-food-bank-of-central-florida-inc
  verified: {'on': '2026-07-21', method: api}
