- id: fl/brandon/brandon-community-health-center
  name: Brandon Community Health Center
  categories:
  - community-health-center
  address:
    street: 313 S Lakewood Dr
    city: Brandon
    state: fl
    zip: '33511'
  place: '1208150'
  geo:
    lat: 27.93312
    lng: -82.30959
  phone: 813-349-7900
  external_ids:
    bphc: BPS-H80-017445
  sources:
  - hrsa/health-center-sites
  verified:
    'on': '2026-07-19'
    method: api
- id: fl/brandon/brandon-park
  name: Brandon Park
  categories:
  - meal-program
  address:
    street: 502 E Sadie St
    city: Brandon
    state: fl
    zip: '33510'
  description: Free summer meals for kids and teens (2026 season) — sponsored by Hillsborough County Schl
    Board.
  place: '1208150'
  geo:
    lat: 27.9417
    lng: -82.28056
  phone: (813) 605-5154
  external_ids:
    usda_master: Cycle 05_FL_SFSP_1083
  sources:
  - usda/summer-meal-sites
  verified:
    'on': '2026-07-19'
    method: api
- id: fl/brandon/brandon-sr-high-school
  name: Brandon Sr. High School
  categories:
  - meal-program
  address:
    street: 1101 Victoria St
    city: Brandon
    state: fl
    zip: '33510'
  description: Free summer meals for kids and teens (2026 season) — sponsored by Hillsborough County Schl
    Board.
  place: '1208150'
  geo:
    lat: 27.9451
    lng: -82.2999
  phone: (813) 744-8120
  external_ids:
    usda_master: Cycle 03_FL_SFSP_0978
  sources:
  - usda/summer-meal-sites
  verified:
    'on': '2026-07-19'
    method: api
- id: fl/brandon/carey-family-brandon-boys-girls-club
  name: Carey Family Brandon Boys & Girls Club
  categories:
  - meal-program
  address:
    street: 510 E Sadie St
    city: Brandon
    state: fl
    zip: '33510'
  description: Free summer meals for kids and teens (2026 season) — sponsored by Boys & Girls Clubs of
    Tampa Bay Inc..
  place: '1208150'
  geo:
    lat: 27.94154
    lng: -82.27934
  phone: (813) 785-0535
  external_ids:
    usda_master: Cycle 03_FL_SFSP_1182
  sources:
  - usda/summer-meal-sites
  verified:
    'on': '2026-07-19'
    method: api
- id: fl/brandon/center-of-excellence-in-training-and-education
  name: Center of Excellence in Training and Education
  categories:
  - community-health-center
  address:
    street: 223 Morrison Rd
    city: Brandon
    state: fl
    zip: '33511'
  place: '1208150'
  geo:
    lat: 27.93362
    lng: -82.30925
  phone: 813-653-6268
  external_ids:
    bphc: BPS-H80-037713
  sources:
  - hrsa/health-center-sites
  verified:
    'on': '2026-07-19'
    method: api
- id: fl/brandon/kingswood
  name: Kingswood
  categories:
  - child-care
  address:
    street: 3102 S Kings Ave
    city: Brandon
    state: fl
    zip: '33511'
  place: '1208150'
  geo:
    lat: 27.89816
    lng: -82.29612
  phone: 813-744-8234
  sources:
  - acf/head-start-locations
  verified:
    'on': '2026-07-19'
    method: api
- id: fl/brandon/learning-to-achieve-wellness
  name: Learning to Achieve Wellness
  categories:
  - su-treatment
  - mh-treatment
  address:
    street: 413 West Robertson Street
    city: Brandon
    state: fl
    zip: '33511'
  place: '1208150'
  geo:
    lat: 27.93542
    lng: -82.29019
  phone: 813-999-1516
  website: https://learningtoachievewellness.com/
  sources:
  - samhsa/findtreatment
  verified:
    'on': '2026-07-19'
    method: api
- id: fl/brandon/mann-middle-school
  name: Mann Middle School
  categories:
  - meal-program
  address:
    street: 409 E Jersey Ave
    city: Brandon
    state: fl
    zip: '33510'
  description: Free summer meals for kids and teens (2026 season) — sponsored by Hillsborough County Schl
    Board.
  place: '1208150'
  geo:
    lat: 27.95233
    lng: -82.2804
  phone: (813) 744-8400
  external_ids:
    usda_master: Cycle 03_FL_SFSP_1016
  sources:
  - usda/summer-meal-sites
  verified:
    'on': '2026-07-19'
    method: api
- id: fl/brandon/metro-brandon
  name: METRO Brandon
  categories:
  - community-health-center
  address:
    street: 302 Bryan Rd
    city: Brandon
    state: fl
    zip: '33511'
  place: '1208150'
  geo:
    lat: 27.93319
    lng: -82.27786
  phone: 727-321-3854
  website: https://www.metrotampabay.org
  external_ids:
    bphc: BPS-LAL-036888
  sources:
  - hrsa/health-center-sites
  verified:
    'on': '2026-07-19'
    method: api
- id: fl/brandon/metro-treatment-of-florida-lp-new-season-treatme
  name: Metro Treatment of Florida LP New Season Treatment Center 22
  categories:
  - su-treatment
  address:
    street: 320 Oakfield Drive
    city: Brandon
    state: fl
    zip: '33511'
  place: '1208150'
  geo:
    lat: 27.934
    lng: -82.28959
  phone: 813-906-5544
  website: https://www.newseason.com
  sources:
  - samhsa/findtreatment
  verified:
    'on': '2026-07-19'
    method: api
- id: fl/brandon/phoenix-house-florida-derek-jeter-center
  name: Phoenix House Florida Derek Jeter Center
  categories:
  - su-treatment
  address:
    street: 510 Vonderburg Drive
    city: Brandon
    state: fl
    zip: '33511'
  place: '1208150'
  geo:
    lat: 27.93066
    lng: -82.28923
  phone: 813-881-1000
  website: https://www.phoenixfl.org/treatment/outpatient-services/the-derek-jeter-center/
  sources:
  - samhsa/findtreatment
  verified:
    'on': '2026-07-19'
    method: api
- id: fl/brandon/schmidt-elementary-school
  name: Schmidt Elementary School
  categories:
  - meal-program
  address:
    street: 1250 Williams Rd
    city: Brandon
    state: fl
    zip: '33510'
  description: Free summer meals for kids and teens (2026 season) — sponsored by Hillsborough County Schl
    Board.
  place: '1208150'
  geo:
    lat: 27.95873
    lng: -82.31869
  phone: (813) 651-2110
  external_ids:
    usda_master: Cycle 03_FL_SFSP_1035
  sources:
  - usda/summer-meal-sites
  verified:
    'on': '2026-07-19'
    method: api
- id: fl/brandon/suncoast-mobile-dental-bus-i
  name: Suncoast Mobile Dental Bus I
  categories:
  - community-health-center
  address:
    street: 313 S Lakewood Dr
    city: Brandon
    state: fl
    zip: '33511'
  place: '1208150'
  geo:
    lat: 27.93312
    lng: -82.30959
  phone: 813-653-6100
  external_ids:
    bphc: BPS-H80-009993
  sources:
  - hrsa/health-center-sites
  verified:
    'on': '2026-07-19'
    method: api
- id: fl/brandon/suncoast-mobile-dental-bus-ii
  name: Suncoast Mobile Dental Bus II
  categories:
  - community-health-center
  address:
    street: 313 S Lakewood Dr
    city: Brandon
    state: fl
    zip: '33511'
  place: '1208150'
  geo:
    lat: 27.93312
    lng: -82.30959
  phone: 813-653-6268
  external_ids:
    bphc: BPS-H80-022005
  sources:
  - hrsa/health-center-sites
  verified:
    'on': '2026-07-19'
    method: api
- id: fl/brandon/white-sands-alcohol-and-drug-rehab-brandon
  name: White Sands Alcohol and Drug Rehab Brandon
  categories:
  - su-treatment
  address:
    street: 1310 East Lumsden Road
    city: Brandon
    state: fl
    zip: '33511'
  place: '1208150'
  geo:
    lat: 27.92376
    lng: -82.26197
  phone: 813-285-4605
  website: https://www.whitesandstreatment.com
  sources:
  - samhsa/findtreatment
  verified:
    'on': '2026-07-19'
    method: api
- id: fl/brandon/whitesands-alcohol-and-drug-rehab-brandon
  name: WhiteSands Alcohol and Drug Rehab Brandon
  categories:
  - su-treatment
  - mh-treatment
  address:
    street: 1316 East Lumsden Road
    city: Brandon
    state: fl
    zip: '33511'
  place: '1208150'
  geo:
    lat: 27.92369
    lng: -82.26181
  phone: 877-640-7820
  website: https://www.whitesandstreatment.com
  sources:
  - samhsa/findtreatment
  verified:
    'on': '2026-07-19'
    method: api
