- id: fl/cutler-bay/cc-good-shepherd-hs
  name: CC-Good Shepherd HS
  categories:
  - child-care
  address:
    street: 18601 SW 97th Ave
    city: Cutler Bay
    state: fl
    zip: '33157'
  place: '1215968'
  geo:
    lat: 25.59579
    lng: -80.34752
  phone: 305-235-1756
  sources:
  - acf/head-start-locations
  verified:
    'on': '2026-07-19'
    method: api
- id: fl/cutler-bay/cutler-bay-health-center
  name: Cutler Bay Health Center
  categories:
  - community-health-center
  address:
    street: 10720 Caribbean Blvd
    city: Cutler Bay
    state: fl
    zip: '33189'
  place: '1215968'
  geo:
    lat: 25.57627
    lng: -80.36571
  phone: 305-774-3400
  external_ids:
    bphc: BPS-H80-024749
  sources:
  - hrsa/health-center-sites
  verified:
    'on': '2026-07-19'
    method: api
- id: fl/cutler-bay/cutler-bay-middle-school
  name: Cutler Bay Middle School
  categories:
  - community-health-center
  address:
    street: 19400 Gulfstream Rd
    city: Cutler Bay
    state: fl
    zip: '33157'
  place: '1215968'
  geo:
    lat: 25.58824
    lng: -80.34813
  phone: 305-235-4761
  website: https://www.chisouthfl.org
  external_ids:
    bphc: BPS-H80-022331
  sources:
  - hrsa/health-center-sites
  verified:
    'on': '2026-07-19'
    method: api
- id: fl/cutler-bay/doris-ison-health-center
  name: DORIS ISON HEALTH CENTER
  categories:
  - community-health-center
  address:
    street: 10300 SW 216th St
    city: Cutler Bay
    state: fl
    zip: '33190'
  place: '1215968'
  geo:
    lat: 25.56577
    lng: -80.35806
  phone: 305-252-4824
  website: https://www.chisouthfl.org
  external_ids:
    bphc: BPS-H80-003441
  sources:
  - hrsa/health-center-sites
  verified:
    'on': '2026-07-19'
    method: api
- id: fl/cutler-bay/mdcps-dr-edward-l-whigham-elementary-hs-ehs
  name: MDCPS-Dr. Edward L Whigham Elementary HS/EHS
  categories:
  - child-care
  address:
    street: 8035 SW 196th St
    city: Cutler Bay
    state: fl
    zip: '33189'
  place: '1215968'
  geo:
    lat: 25.58506
    lng: -80.32097
  phone: 305-252-5050
  sources:
  - acf/head-start-locations
  verified:
    'on': '2026-07-19'
    method: api
- id: fl/cutler-bay/mobile-medical-van-2
  name: 'Mobile Medical Van #2'
  categories:
  - community-health-center
  address:
    street: 10300 SW 216th St
    city: Cutler Bay
    state: fl
    zip: '33190'
  place: '1215968'
  geo:
    lat: 25.56577
    lng: -80.35806
  phone: 305-252-4853
  website: https://www.chisouthfl.org
  external_ids:
    bphc: BPS-H80-030840
  sources:
  - hrsa/health-center-sites
  verified:
    'on': '2026-07-19'
    method: api
- id: fl/cutler-bay/mobile-van-1
  name: 'Mobile Van #1'
  categories:
  - community-health-center
  address:
    street: 10300 SW 216th St
    city: Cutler Bay
    state: fl
    zip: '33190'
  place: '1215968'
  geo:
    lat: 25.56577
    lng: -80.35806
  phone: 305-253-5100
  website: https://www.chisouthfl.org
  external_ids:
    bphc: BPS-H80-018192
  sources:
  - hrsa/health-center-sites
  verified:
    'on': '2026-07-19'
    method: api
