- id: fl/fairview-shores/aspire-health-partners-thistledown
  name: Aspire Health Partners/Thistledown
  org: fl/second-harvest-food-bank-of-central-florida-inc
  categories:
  - food-pantry
  place: '1221750'
  geo: {lat: 28.59914, lng: -81.39942}
  phone: 407-875-3700
  external_ids: {fl-second-harvest-food-bank-of-central-florida-inc: '496620930'}
  sources:
  - foodbank/fl-second-harvest-food-bank-of-central-florida-inc
  verified: {'on': '2026-07-21', method: api}
- id: fl/fairview-shores/church-in-the-son-inc
  name: Church In The Son, Inc.
  org: fl/second-harvest-food-bank-of-central-florida-inc
  categories:
  - food-pantry
  place: '1221750'
  geo: {lat: 28.59554, lng: -81.42}
  phone: 407-246-0001
  external_ids: {fl-second-harvest-food-bank-of-central-florida-inc: '496620971'}
  sources:
  - foodbank/fl-second-harvest-food-bank-of-central-florida-inc
  verified: {'on': '2026-07-21', method: api}
- id: fl/fairview-shores/church-on-the-drive
  name: Church on the Drive
  categories:
  - food-pantry
  place: '1221750'
  geo: {lat: 28.56913, lng: -81.3899}
  website: https://mapping.littlefreepantry.org/pantry/1653
  external_ids: {lfp: '1653'}
  sources:
  - littlefreepantry/map
  verified: {'on': '2026-07-19', method: scrape}
- id: fl/fairview-shores/neighborhood-fridge
  name: Neighborhood Fridge
  categories:
  - food-pantry
  place: '1221750'
  geo: {lat: 28.60656, lng: -81.40829}
  website: https://mapping.littlefreepantry.org/pantry/3437
  external_ids: {lfp: '3437'}
  sources:
  - littlefreepantry/map
  verified: {'on': '2026-07-19', method: scrape}
- id: fl/fairview-shores/one-heart-for-women-and-children
  name: One Heart for Women and Children
  org: fl/second-harvest-food-bank-of-central-florida-inc
  categories:
  - food-pantry
  place: '1221750'
  geo: {lat: 28.56996, lng: -81.40231}
  phone: 321-205-3403
  external_ids: {fl-second-harvest-food-bank-of-central-florida-inc: '496621181'}
  sources:
  - foodbank/fl-second-harvest-food-bank-of-central-florida-inc
  verified: {'on': '2026-07-21', method: api}
- id: fl/fairview-shores/united-heart-church-for-nations
  name: United Heart Church for Nations
  org: fl/second-harvest-food-bank-of-central-florida-inc
  categories:
  - food-pantry
  place: '1221750'
  geo: {lat: 28.59963, lng: -81.42052}
  phone: 407-406-9207
  external_ids: {fl-second-harvest-food-bank-of-central-florida-inc: '496621303'}
  sources:
  - foodbank/fl-second-harvest-food-bank-of-central-florida-inc
  verified: {'on': '2026-07-21', method: api}
