- id: fl/fort-myers/aim-target-programs-inc
  name: AIM Target Programs Inc
  categories:
  - su-treatment
  address:
    street: 3049 Cleveland Avenue
    city: Fort Myers
    state: fl
    zip: '33901'
  place: '1224125'
  geo:
    lat: 26.62126
    lng: -81.87147
  phone: 239-939-3363
  website: https://aimtargetprograms.com
  sources:
  - samhsa/findtreatment
  verified:
    'on': '2026-07-19'
    method: api
- id: fl/fort-myers/beyond-barriers-inc
  name: Beyond Barriers Inc
  categories:
  - su-treatment
  - mh-treatment
  address:
    street: 3949 Evans Avenue
    city: Fort Myers
    state: fl
    zip: '33901'
  place: '1224125'
  geo:
    lat: 26.60502
    lng: -81.85929
  phone: 239-839-3907
  website: https://www.beyondbarriersinc.com
  sources:
  - samhsa/findtreatment
  verified:
    'on': '2026-07-19'
    method: api
- id: fl/fort-myers/broadway-dental-office
  name: BROADWAY DENTAL OFFICE
  categories:
  - community-health-center
  address:
    street: 3600 Broadway
    city: Fort Myers
    state: fl
    zip: '33901'
  place: '1224125'
  geo:
    lat: 26.61059
    lng: -81.86765
  phone: 239-344-2335
  website: https://www.fhcswf.org
  external_ids:
    bphc: BPS-H80-002503
  sources:
  - hrsa/health-center-sites
  verified:
    'on': '2026-07-19'
    method: api
- id: fl/fort-myers/calusa-recovery
  name: Calusa Recovery
  categories:
  - su-treatment
  - mh-treatment
  address:
    street: 15611 New Hampshire Court
    city: Fort Myers
    state: fl
    zip: '33908'
  place: '1224125'
  geo:
    lat: 26.51578
    lng: -81.89633
  phone: 866-939-6292
  website: https://www.calusarecovery.com
  sources:
  - samhsa/findtreatment
  verified:
    'on': '2026-07-19'
    method: api
- id: fl/fort-myers/celadon-recovery-center
  name: Celadon Recovery Center
  categories:
  - su-treatment
  - mh-treatment
  address:
    street: 3331 East Riverside Drive
    city: Fort Myers
    state: fl
    zip: '33916'
  place: '1224125'
  geo:
    lat: 26.66022
    lng: -81.84873
  phone: 239-880-3990
  website: https://www.CeladonRecovery.com
  sources:
  - samhsa/findtreatment
  verified:
    'on': '2026-07-19'
    method: api
- id: fl/fort-myers/celadon-recovery-outpatient-services
  name: Celadon Recovery Outpatient Services
  categories:
  - su-treatment
  - mh-treatment
  address:
    city: Fort Myers
    state: fl
    zip: '33912'
  place: '1224125'
  phone: 239-880-3990
  website: https://www.CeladonRecovery.com
  sources:
  - samhsa/findtreatment
  verified:
    'on': '2026-07-19'
    method: api
- id: fl/fort-myers/centerstone
  name: Centerstone
  categories:
  - su-treatment
  - mh-treatment
  address:
    street: 4350 Fowler Street
    city: Fort Myers
    state: fl
    zip: '33901'
  place: '1224125'
  geo:
    lat: 26.59948
    lng: -81.86329
  phone: 239-208-6390
  website: https://www.centerstone.org
  sources:
  - samhsa/findtreatment
  verified:
    'on': '2026-07-19'
    method: api
- id: fl/fort-myers/centerstone-2
  name: Centerstone
  categories:
  - su-treatment
  - mh-treatment
  address:
    street: 2830 Winkler Avenue
    city: Fort Myers
    state: fl
    zip: '33916'
  place: '1224125'
  geo:
    lat: 26.60358
    lng: -81.8542
  phone: 239-208-6390
  website: https://centerstone.org
  sources:
  - samhsa/findtreatment
  verified:
    'on': '2026-07-19'
    method: api
- id: fl/fort-myers/colonial-administrative
  name: Colonial Administrative
  categories:
  - community-health-center
  address:
    street: 2270 Colonial Blvd
    city: Fort Myers
    state: fl
    zip: '33907'
  place: '1224125'
  geo:
    lat: 26.59595
    lng: -81.8663
  phone: 239-270-3600
  website: https://www.fhcswfl.org
  external_ids:
    bphc: BPS-H80-040175
  sources:
  - hrsa/health-center-sites
  verified:
    'on': '2026-07-19'
    method: api
- id: fl/fort-myers/early-childhood-center
  name: Early Childhood Center
  categories:
  - child-care
  address:
    street: 3650 Michigan Ave
    street2: Ste 4
    city: Fort Myers
    state: fl
    zip: '33916'
  place: '1224125'
  geo:
    lat: 26.64709
    lng: -81.8365
  phone: 239-332-2515
  sources:
  - acf/head-start-locations
  verified:
    'on': '2026-07-19'
    method: api
- id: fl/fort-myers/east-fort-myers-medical-office
  name: EAST FORT MYERS MEDICAL OFFICE
  categories:
  - community-health-center
  address:
    street: 4040 Palm Beach Blvd, Suite A
    city: Fort Myers
    state: fl
    zip: '33916'
  place: '1224125'
  geo:
    lat: 26.66527
    lng: -81.83145
  phone: 239-344-2304
  website: https://www.fhcswf.org
  external_ids:
    bphc: BPS-H80-001718
  sources:
  - hrsa/health-center-sites
  verified:
    'on': '2026-07-19'
    method: api
- id: fl/fort-myers/estero-health-center
  name: Estero Health Center
  categories:
  - community-health-center
  address:
    street: 19701 S Tamiami Trl
    city: Fort Myers
    state: fl
    zip: '33908'
  place: '1224125'
  geo:
    lat: 26.45413
    lng: -81.82149
  phone: 239-332-0417
  website: https://www.fhcswf.org
  external_ids:
    bphc: BPS-H80-011409
  sources:
  - hrsa/health-center-sites
  verified:
    'on': '2026-07-19'
    method: api
- id: fl/fort-myers/fort-myers-center-downtown
  name: FORT MYERS CENTER - DOWNTOWN
  categories:
  - community-health-center
  address:
    street: 2232 Grand Ave
    city: Fort Myers
    state: fl
    zip: '33901'
  place: '1224125'
  geo:
    lat: 26.63607
    lng: -81.87093
  phone: 239-332-0417
  website: https://www.fhcswf.org
  external_ids:
    bphc: BPS-H80-004883
  sources:
  - hrsa/health-center-sites
  verified:
    'on': '2026-07-19'
    method: api
- id: fl/fort-myers/franklin-park-elementary
  name: Franklin Park Elementary
  categories:
  - child-care
  address:
    street: 2323 Ford St
    city: Fort Myers
    state: fl
    zip: '33916'
  place: '1224125'
  geo:
    lat: 26.63562
    lng: -81.84728
  phone: 239-332-2512
  sources:
  - acf/head-start-locations
  verified:
    'on': '2026-07-19'
    method: api
- id: fl/fort-myers/housing-authority-of-the-city-of-fort-myers
  name: Housing Authority Of The City Of Fort Myers
  categories:
  - housing-assistance
  address: {street: 4224 Renaissance Preserve Way, city: Fort Myers, state: fl, zip: '33916'}
  description: Public housing and Housing Choice Voucher agency
  place: '1224125'
  geo: {lat: 26.6471, lng: -81.82941}
  phone: 239-344-3220
  sources:
  - hud/resource-locator
  verified: {'on': '2026-07-19', method: api}
- id: fl/fort-myers/huntingdon-health-services-suite-201
  name: Huntingdon Health Services Suite 201
  categories:
  - community-health-center
  address:
    street: 43 Barkley Cir STE 201
    city: Fort Myers
    state: fl
    zip: '33907'
  place: '1224125'
  geo:
    lat: 26.58789
    lng: -81.88162
  phone: 239-936-5250
  website: https://www.mcrhs.org
  external_ids:
    bphc: BPS-H80-019494
  sources:
  - hrsa/health-center-sites
  verified:
    'on': '2026-07-19'
    method: api
- id: fl/fort-myers/huntingdon-health-services-suite-203
  name: Huntingdon Health Services Suite 203
  categories:
  - community-health-center
  address:
    street: 43 Barkley Cir STE 203
    city: Fort Myers
    state: fl
    zip: '33907'
  place: '1224125'
  geo:
    lat: 26.58789
    lng: -81.88162
  phone: 239-936-5250
  website: https://www.mcrhs.org
  external_ids:
    bphc: BPS-H80-019495
  sources:
  - hrsa/health-center-sites
  verified:
    'on': '2026-07-19'
    method: api
- id: fl/fort-myers/james-stephens-early-learning-center
  name: James Stephens Early Learning Center
  categories:
  - child-care
  address:
    street: 1111 Clotilde Ave
    city: Fort Myers
    state: fl
    zip: '33916'
  place: '1224125'
  geo:
    lat: 26.65428
    lng: -81.82597
  phone: 239-332-2512
  sources:
  - acf/head-start-locations
  verified:
    'on': '2026-07-19'
    method: api
- id: fl/fort-myers/mentus-behavioral-health
  name: Mentus Behavioral Health
  categories:
  - su-treatment
  - mh-treatment
  address:
    street: 12651 McGregor Boulevard
    city: Fort Myers
    state: fl
    zip: '33919'
  place: '1224125'
  geo:
    lat: 26.55925
    lng: -81.90876
  phone: 239-314-3223
  website: https://www.mentus.health/
  sources:
  - samhsa/findtreatment
  verified:
    'on': '2026-07-19'
    method: api
- id: fl/fort-myers/omega-centre
  name: Omega Centre
  categories:
  - su-treatment
  - mh-treatment
  address:
    street: 12811 Kenwood Lane
    city: Fort Myers
    state: fl
    zip: '33907'
  place: '1224125'
  geo:
    lat: 26.55488
    lng: -81.87377
  phone: 239-600-7241
  website: https://omegacentreinc.com
  sources:
  - samhsa/findtreatment
  verified:
    'on': '2026-07-19'
    method: api
- id: fl/fort-myers/p-a-geraci
  name: P. A. Geraci
  categories:
  - child-care
  address:
    street: 3713 Canal St
    city: Fort Myers
    state: fl
    zip: '33916'
  place: '1224125'
  geo:
    lat: 26.63042
    lng: -81.8342
  phone: 239-337-4995
  sources:
  - acf/head-start-locations
  verified:
    'on': '2026-07-19'
    method: api
- id: fl/fort-myers/park-royal-hospital
  name: Park Royal Hospital
  categories:
  - su-treatment
  - mh-treatment
  address:
    street: 9241 Park Royal Drive
    city: Fort Myers
    state: fl
    zip: '33908'
  place: '1224125'
  geo:
    lat: 26.51035
    lng: -81.90955
  phone: 239-204-2131
  website: https://www.parkroyalhospital.com
  sources:
  - samhsa/findtreatment
  verified:
    'on': '2026-07-19'
    method: api
- id: fl/fort-myers/playmates-preschool-and-daycare
  name: Playmates Preschool and Daycare
  categories:
  - child-care
  address:
    street: 11610 S Cleveland Ave
    city: Fort Myers
    state: fl
    zip: '33907'
  place: '1224125'
  geo:
    lat: 26.57116
    lng: -81.87242
  phone: 239-936-7309
  sources:
  - acf/head-start-locations
  verified:
    'on': '2026-07-19'
    method: api
- id: fl/fort-myers/rmcm-mobile-van
  name: RMCM Mobile Van
  categories:
  - community-health-center
  address:
    street: 1926 Victoria Ave
    city: Fort Myers
    state: fl
    zip: '33901'
  place: '1224125'
  geo:
    lat: 26.63684
    lng: -81.87373
  phone: 239-278-3600
  website: http://www.fhcswfl.org
  external_ids:
    bphc: BPS-H80-021460
  sources:
  - hrsa/health-center-sites
  verified:
    'on': '2026-07-19'
    method: api
- id: fl/fort-myers/saluscare-evans-campus
  name: SalusCare Evans Campus
  categories:
  - su-treatment
  - mh-treatment
  address:
    street: 3763 Evans Avenue
    city: Fort Myers
    state: fl
    zip: '33901'
  place: '1224125'
  geo:
    lat: 26.60753
    lng: -81.85841
  phone: 239-275-3222
  website: https://www.saluscareflorida.org
  sources:
  - samhsa/findtreatment
  verified:
    'on': '2026-07-19'
    method: api
- id: fl/fort-myers/saluscare-evans-outpatient
  name: SalusCare Evans Outpatient
  categories:
  - su-treatment
  - mh-treatment
  address:
    street: 3763 Evans Avenue
    city: Fort Myers
    state: fl
    zip: '33901'
  place: '1224125'
  geo:
    lat: 26.60732
    lng: -81.85868
  phone: 239-275-3222
  website: https://www.saluscareflorida.org
  sources:
  - samhsa/findtreatment
  verified:
    'on': '2026-07-19'
    method: api
- id: fl/fort-myers/saluscare-transitional-living-center-tlc
  name: SalusCare Transitional Living Center (TLC)
  categories:
  - su-treatment
  - mh-treatment
  address:
    street: 2516 Grand Avenue
    city: Fort Myers
    state: fl
    zip: '33901'
  place: '1224125'
  geo:
    lat: 26.63112
    lng: -81.87065
  phone: 239-338-2977
  website: https://www.saluscareflorida.org
  sources:
  - samhsa/findtreatment
  verified:
    'on': '2026-07-19'
    method: api
- id: fl/fort-myers/sprout-recovery
  name: Sprout Recovery
  categories:
  - su-treatment
  - mh-treatment
  address:
    street: 9405 Cypress Lake Drive
    city: Fort Myers
    state: fl
    zip: '33919'
  place: '1224125'
  geo:
    lat: 26.5449
    lng: -81.91071
  phone: 239-372-6141
  website: https://www.sproutrecovery.com
  sources:
  - samhsa/findtreatment
  verified:
    'on': '2026-07-19'
    method: api
- id: fl/fort-myers/summerlin-health-center
  name: Summerlin Health Center
  categories:
  - community-health-center
  address:
    street: 11100 Summer Ridge Ln
    city: Fort Myers
    state: fl
    zip: '33908'
  place: '1224125'
  geo:
    lat: 26.49487
    lng: -81.93816
  phone: 239-344-2362
  external_ids:
    bphc: BPS-H80-032637
  sources:
  - hrsa/health-center-sites
  verified:
    'on': '2026-07-19'
    method: api
- id: fl/fort-myers/the-salvation-army
  name: The Salvation Army
  categories:
  - community-health-center
  address:
    street: 2450 Edison Ave
    city: Fort Myers
    state: fl
    zip: '33901'
  place: '1224125'
  geo:
    lat: 26.63321
    lng: -81.86316
  phone: 239-278-3600
  external_ids:
    bphc: BPS-H80-035811
  sources:
  - hrsa/health-center-sites
  verified:
    'on': '2026-07-19'
    method: api
- id: fl/fort-myers/victoria
  name: VICTORIA
  categories:
  - community-health-center
  address:
    street: 1926 Victoria Ave
    city: Fort Myers
    state: fl
    zip: '33901'
  place: '1224125'
  geo:
    lat: 26.63684
    lng: -81.87373
  phone: 239-278-3600
  website: http://www.fhcswfl.org
  external_ids:
    bphc: BPS-H80-024478
  sources:
  - hrsa/health-center-sites
  verified:
    'on': '2026-07-19'
    method: api
- id: fl/fort-myers/villas-elementary
  name: Villas Elementary
  categories:
  - child-care
  address:
    street: 8385 Beacon Blvd
    city: Fort Myers
    state: fl
    zip: '33907'
  place: '1224125'
  geo:
    lat: 26.56799
    lng: -81.86853
  phone: 239-332-2512
  sources:
  - acf/head-start-locations
  verified:
    'on': '2026-07-19'
    method: api
- id: fl/fort-myers/white-sands-alcohol-and-drug-rehab-fort-myers
  name: White Sands Alcohol and Drug Rehab Fort Myers
  categories:
  - su-treatment
  - mh-treatment
  address:
    street: 1820 Colonial Boulevard
    city: Fort Myers
    state: fl
    zip: '33907'
  place: '1224125'
  geo:
    lat: 26.59643
    lng: -81.87549
  phone: 239-895-0610
  website: https://www.whitesandstreatment.com
  sources:
  - samhsa/findtreatment
  verified:
    'on': '2026-07-19'
    method: api
- id: fl/fort-myers/white-sands-alcohol-and-drug-rehab-fort-myers-su
  name: White Sands Alcohol and Drug Rehab Fort Myers/Sunspire
  categories:
  - su-treatment
  - mh-treatment
  address:
    street: 14150 Metropolis Avenue
    city: Fort Myers
    state: fl
    zip: '33912'
  place: '1224125'
  geo:
    lat: 26.53663
    lng: -81.85398
  phone: 239-895-0610
  website: https://www.whitesandstreatment.com
  sources:
  - samhsa/findtreatment
  verified:
    'on': '2026-07-19'
    method: api
- id: fl/fort-myers/whitesands-alcohol-and-drug-rehab-fort-myers
  name: WhiteSands Alcohol and Drug Rehab Fort Myers
  categories:
  - su-treatment
  - mh-treatment
  address:
    street: 1870 Colonial Boulevard
    city: Fort Myers
    state: fl
    zip: '33907'
  place: '1224125'
  geo:
    lat: 26.59618
    lng: -81.87438
  phone: 239-895-0610
  website: https://www.whitesandstreatment.com
  sources:
  - samhsa/findtreatment
  verified:
    'on': '2026-07-19'
    method: api
- id: fl/fort-myers/young-parent-education-program-formerly-lamp
  name: Young Parent Education Program (Formerly LAMP)
  categories:
  - child-care
  address:
    street: 3650 Michigan Ave
    street2: Ste 4
    city: Fort Myers
    state: fl
    zip: '33916'
  place: '1224125'
  geo:
    lat: 26.64709
    lng: -81.8365
  phone: 239-332-2512
  sources:
  - acf/head-start-locations
  verified:
    'on': '2026-07-19'
    method: api
