- id: fl/gulfport/boca-ciega-high-school
  name: Boca Ciega High School
  categories:
  - meal-program
  address:
    street: 924 58Th St S
    city: Gulfport
    state: fl
    zip: '33707'
  description: Free summer meals for kids and teens (2026 season) — sponsored by Pinellas County School
    Board.
  place: '1228175'
  geo:
    lat: 27.76229
    lng: -82.7121
  phone: (727) 893-1641
  external_ids:
    usda_master: Cycle 03_FL_SFSP_0108
  sources:
  - usda/summer-meal-sites
  verified:
    'on': '2026-07-19'
    method: api
- id: fl/gulfport/funky-flamingo-deli
  name: Funky Flamingo Deli
  categories:
  - food-pantry
  place: '1228175'
  geo:
    lat: 27.75582
    lng: -82.71197
  website: https://mapping.littlefreepantry.org/pantry/3515
  external_ids:
    lfp: '3515'
  sources:
  - littlefreepantry/map
  verified:
    'on': '2026-07-19'
    method: scrape
- id: fl/gulfport/gulfport-elementary-school
  name: Gulfport Elementary School
  categories:
  - meal-program
  address:
    street: 2014 52Nd St S
    city: Gulfport
    state: fl
    zip: '33707'
  description: Free summer meals for kids and teens (2026 season) — sponsored by Pinellas County School
    Board.
  place: '1228175'
  geo:
    lat: 27.75021
    lng: -82.70379
  phone: (727) 893-1136
  external_ids:
    usda_master: Cycle 03_FL_SFSP_0131
  sources:
  - usda/summer-meal-sites
  verified:
    'on': '2026-07-19'
    method: api
- id: fl/gulfport/gulfport-presbyterian-church
  name: Gulfport Presbyterian Church
  categories:
  - food-pantry
  place: '1228175'
  geo:
    lat: 27.74272
    lng: -82.70588
  website: https://mapping.littlefreepantry.org/pantry/453
  external_ids:
    lfp: '453'
  sources:
  - littlefreepantry/map
  verified:
    'on': '2026-07-19'
    method: scrape
- id: fl/gulfport/higher-learning-christian-academy
  name: Higher Learning Christian Academy
  categories:
  - meal-program
  address:
    street: 1700 49Th St S
    city: Gulfport
    state: fl
    zip: '33707'
  description: Free summer meals for kids and teens (2026 season) — sponsored by Feeding America Tampa
    Bay, Inc..
  place: '1228175'
  geo:
    lat: 27.75337
    lng: -82.6997
  phone: (727) 623-0192
  external_ids:
    usda_master: Cycle 05_FL_SFSP_0627
  sources:
  - usda/summer-meal-sites
  verified:
    'on': '2026-07-19'
    method: api
- id: fl/gulfport/higher-learning-christian-academy-2
  name: Higher Learning Christian Academy
  categories:
  - meal-program
  address:
    street: 1844 54Th St S
    city: Gulfport
    state: fl
    zip: '33707'
  description: Free summer meals for kids and teens (2026 season) — sponsored by Feeding America Tampa
    Bay, Inc..
  place: '1228175'
  geo:
    lat: 27.75153
    lng: -82.70648
  phone: (727) 623-0192
  external_ids:
    usda_master: Cycle 06_FL_SFSP_1204
  sources:
  - usda/summer-meal-sites
  verified:
    'on': '2026-07-19'
    method: api
- id: fl/gulfport/little-sunshine-pantry
  name: Little Sunshine Pantry
  categories:
  - food-pantry
  place: '1228175'
  geo:
    lat: 27.75838
    lng: -82.69302
  website: https://mapping.littlefreepantry.org/pantry/5381
  external_ids:
    lfp: '5381'
  sources:
  - littlefreepantry/map
  verified:
    'on': '2026-07-19'
    method: scrape
- id: fl/gulfport/pantry-jax-in-out-cafe
  name: Pantry @ Jax In & Out Cafe
  categories:
  - food-pantry
  place: '1228175'
  geo:
    lat: 27.74804
    lng: -82.70061
  website: https://mapping.littlefreepantry.org/pantry/1381
  external_ids:
    lfp: '1381'
  sources:
  - littlefreepantry/map
  verified:
    'on': '2026-07-19'
    method: scrape
