- id: fl/hobe-sound/b-l-a-s-t
  name: B.L.A.S.T.
  categories:
  - meal-program
  address: {street: 12212 Se Lantana Ave, city: Hobe Sound, state: fl, zip: '33455'}
  description: Free summer meals for kids and teens (2026 season) — sponsored by Martin County School
    Board.
  place: '1230975'
  geo: {lat: 27.05534, lng: -80.14087}
  phone: (772) 545-0953
  external_ids: {usda_master: Cycle 05_FL_SSO_0243}
  sources:
  - usda/summer-meal-sites
  verified: {'on': '2026-07-19', method: api}
- id: fl/hobe-sound/banner-lake-early-learning-center
  name: Banner Lake Early Learning Center
  categories:
  - child-care
  address: {street: 12100 SE Lantana Ave, city: Hobe Sound, state: fl, zip: '33455'}
  description: Head Start early childhood program — 36 funded slots; operated by Agricultural and Labor
    Program, Inc..
  place: '1230975'
  geo: {lat: 27.05652, lng: -80.14169}
  phone: 772-545-0808
  sources:
  - acf/head-start-locations
  verified: {'on': '2026-07-19', method: api}
- id: fl/hobe-sound/hobe-sound-club
  name: Hobe Sound Club
  categories:
  - meal-program
  address: {street: 8891 Se Bridge Rd, city: Hobe Sound, state: fl, zip: '33455'}
  description: Free summer meals for kids and teens (2026 season) — sponsored by Boys & Girls Clubs of
    Martin County.
  place: '1230975'
  geo: {lat: 27.06054, lng: -80.13366}
  phone: (772) 545-1255
  external_ids: {usda_master: Cycle 03_FL_SFSP_1377}
  sources:
  - usda/summer-meal-sites
  verified: {'on': '2026-07-19', method: api}
- id: fl/hobe-sound/hobe-sound-early-learning-center
  name: Hobe Sound Early Learning Center
  categories:
  - child-care
  address: {street: 11580 SE Gomez Ave, city: Hobe Sound, state: fl, zip: '33455'}
  description: Head Start early childhood program — 18 funded slots; operated by Agricultural and Labor
    Program, Inc..
  place: '1230975'
  geo: {lat: 27.06277, lng: -80.12973}
  phone: 772-546-5462
  sources:
  - acf/head-start-locations
  verified: {'on': '2026-07-19', method: api}
- id: fl/hobe-sound/hobe-sound-elementary-school
  name: Hobe Sound Elementary School
  categories:
  - meal-program
  address: {street: 11555 Se Gomez Ave, city: Hobe Sound, state: fl, zip: '33455'}
  description: Free summer meals for kids and teens (2026 season) — sponsored by Martin County School
    Board.
  place: '1230975'
  geo: {lat: 27.06329, lng: -80.12937}
  phone: (772) 546-3508
  external_ids: {usda_master: Cycle 05_FL_SSO_2472}
  sources:
  - usda/summer-meal-sites
  verified: {'on': '2026-07-19', method: api}
- id: fl/hobe-sound/reverse-the-door-inc
  name: Reverse the Door, Inc.
  org: fl/treasure-coast-food-bank
  categories:
  - food-pantry
  address: {street: 10100 SE Federal Highway, city: Hobe Sound, state: fl, zip: '33455'}
  place: '1230975'
  geo: {lat: 27.08111, lng: -80.14733}
  phone: 772-485-1279
  external_ids: {fl-treasure-coast-food-bank: '7420'}
  sources:
  - foodbank/fl-treasure-coast-food-bank
  verified: {'on': '2026-07-21', method: api}
- id: fl/hobe-sound/st-vincent-de-paul
  name: St. Vincent De Paul
  org: fl/treasure-coast-food-bank
  categories:
  - food-pantry
  address: {street: '12001 SE Federal Highway, Suite D', city: Hobe Sound, state: fl, zip: '33455'}
  place: '1230975'
  geo: {lat: 27.05877, lng: -80.1353}
  phone: 772-546-2492
  external_ids: {fl-treasure-coast-food-bank: '7439'}
  sources:
  - foodbank/fl-treasure-coast-food-bank
  verified: {'on': '2026-07-21', method: api}
