- id: fl/lake-worth/archstone-behavioral-health
  name: Archstone Behavioral Health
  categories:
  - su-treatment
  - mh-treatment
  address:
    street: 501 West Perry Street
    city: Lake Worth
    state: fl
    zip: '33462'
  geo:
    lat: 26.57864
    lng: -80.05488
  phone: 561-588-8323
  website: https://www.archstonerecovery.com
  sources:
  - samhsa/findtreatment
  verified:
    'on': '2026-07-19'
    method: api
- id: fl/lake-worth/awareness-counseling-agency-llc
  name: Awareness Counseling Agency LLC
  categories:
  - su-treatment
  address:
    street: 3900 Woodlake Boulevard
    city: Lake Worth
    state: fl
    zip: '33463'
  geo:
    lat: 26.62037
    lng: -80.13981
  phone: 561-307-1766
  website: https://
  sources:
  - samhsa/findtreatment
  verified:
    'on': '2026-07-19'
    method: api
- id: fl/lake-worth/behavioral-health-of-the-palm-beaches-dba-ctr-fo
  name: Behavioral Health of the Palm Beaches DBA Ctr for Alcohol and Drug Studies
  categories:
  - su-treatment
  - mh-treatment
  address:
    street: 7859 Lake Worth Road
    city: Lake Worth
    state: fl
    zip: '33467'
  geo:
    lat: 26.61852
    lng: -80.17115
  phone: 888-432-2467
  website: https://www.bhpalmbeach.com
  sources:
  - samhsa/findtreatment
  verified:
    'on': '2026-07-19'
    method: api
- id: fl/lake-worth/center-for-trauma-counseling-inc
  name: Center for Trauma Counseling Inc
  categories:
  - mh-treatment
  address:
    street: 6801 Lake Worth Road
    city: Lake Worth
    state: fl
    zip: '33467'
  geo:
    lat: 26.61882
    lng: -80.15223
  phone: 561-444-3914
  website: https://palmbeachmentalhealth.org/
  sources:
  - samhsa/findtreatment
  verified:
    'on': '2026-07-19'
    method: api
- id: fl/lake-worth/central-florida-treatment-center-lake-worth-op-m
  name: Central Florida Treatment Center Lake Worth OP MAT
  categories:
  - su-treatment
  address:
    street: 3155 Lake Worth Road
    city: Lake Worth
    state: fl
    zip: '33461'
  geo:
    lat: 26.61818
    lng: -80.09179
  phone: 561-439-8440
  website: https://www.cfltreatmentcenters.org
  sources:
  - samhsa/findtreatment
  verified:
    'on': '2026-07-19'
    method: api
- id: fl/lake-worth/comprehensive-wellness-centers
  name: Comprehensive Wellness Centers
  categories:
  - su-treatment
  - mh-treatment
  address:
    street: 660 South Dixie Highway
    city: Lake Worth
    state: fl
    zip: '33462'
  geo:
    lat: 26.57913
    lng: -80.05275
  phone: 561-619-5858 x110
  website: https://www.cwcrecovery.com
  sources:
  - samhsa/findtreatment
  verified:
    'on': '2026-07-19'
    method: api
- id: fl/lake-worth/highland-elementary
  name: HIGHLAND ELEMENTARY
  categories:
  - child-care
  address:
    street: 500 Highland Ave
    city: Lake Worth
    state: fl
    zip: '33460'
  geo:
    lat: 26.62185
    lng: -80.0659
  phone: 561-202-0500
  sources:
  - acf/head-start-locations
  verified:
    'on': '2026-07-19'
    method: api
- id: fl/lake-worth/lake-worth-center
  name: LAKE WORTH CENTER
  categories:
  - child-care
  address:
    street: 1699 Wingfield St
    city: Lake Worth
    state: fl
    zip: '33460'
  geo:
    lat: 26.59739
    lng: -80.06087
  phone: 561-694-5411
  sources:
  - acf/head-start-locations
  verified:
    'on': '2026-07-19'
    method: api
- id: fl/lake-worth/map-to-health-dba-recovery-unplugged
  name: Map to Health DBA Recovery Unplugged
  categories:
  - su-treatment
  address:
    city: Lake Worth
    state: fl
    zip: '33461'
  phone: 561-336-6336
  website: https://www.recoveryunplugged.com
  sources:
  - samhsa/findtreatment
  verified:
    'on': '2026-07-19'
    method: api
- id: fl/lake-worth/olympic-behavioral-health-llc
  name: Olympic Behavioral Health LLC
  categories:
  - su-treatment
  - mh-treatment
  address:
    street: 3618 Lantana Road
    city: Lake Worth
    state: fl
    zip: '33462'
  geo:
    lat: 26.58829
    lng: -80.10124
  phone: 561-559-5766
  website: https://www.olympicbehavioralhealth.com/
  sources:
  - samhsa/findtreatment
  verified:
    'on': '2026-07-19'
    method: api
- id: fl/lake-worth/palms-recovery-florida-llc
  name: Palms Recovery Florida LLC
  categories:
  - su-treatment
  - mh-treatment
  address:
    street: 3444 South Congress Avenue
    city: Lake Worth
    state: fl
    zip: '33461'
  geo:
    lat: 26.62562
    lng: -80.0882
  phone: 844-807-2567
  website: https://www.thepalmsrecovery.com
  sources:
  - samhsa/findtreatment
  verified:
    'on': '2026-07-19'
    method: api
- id: fl/lake-worth/sunrise-detoxification-center-llc
  name: Sunrise Detoxification Center LLC
  categories:
  - su-treatment
  address:
    street: 3185 Boutwell Road
    city: Lake Worth
    state: fl
    zip: '33461'
  geo:
    lat: 26.62907
    lng: -80.0758
  phone: 561-533-0074
  website: https://www.sunrisedetox.com
  sources:
  - samhsa/findtreatment
  verified:
    'on': '2026-07-19'
    method: api
- id: fl/lake-worth/urp-lake-worth-llc
  name: URP Lake Worth LLC
  categories:
  - su-treatment
  - mh-treatment
  address:
    city: Lake Worth
    state: fl
    zip: '33461'
  phone: 844-787-5142
  website: https://unitedrecoveryproject.com
  sources:
  - samhsa/findtreatment
  verified:
    'on': '2026-07-19'
    method: api
- id: fl/lake-worth/we-level-up-lake-worth-fl
  name: We Level Up Lake Worth FL
  categories:
  - su-treatment
  - mh-treatment
  address:
    street: 9935 Palomino Drive
    city: Lake Worth
    state: fl
    zip: '33467'
  geo:
    lat: 26.62882
    lng: -80.20307
  phone: 561-257-5914
  website: https://leveluplakeworth.com
  sources:
  - samhsa/findtreatment
  verified:
    'on': '2026-07-19'
    method: api
