- id: fl/lockhart/christ-sanctified-church
  name: Christ Sanctified Church
  org: fl/second-harvest-food-bank-of-central-florida-inc
  categories:
  - food-pantry
  place: '1241025'
  geo: {lat: 28.62143, lng: -81.45034}
  phone: 407-758-8684
  external_ids: {fl-second-harvest-food-bank-of-central-florida-inc: '496620961'}
  sources:
  - foodbank/fl-second-harvest-food-bank-of-central-florida-inc
  verified: {'on': '2026-07-21', method: api}
- id: fl/lockhart/community-services-of-genesis-sda
  name: Community Services of Genesis SDA
  org: fl/second-harvest-food-bank-of-central-florida-inc
  categories:
  - food-pantry
  place: '1241025'
  geo: {lat: 28.61928, lng: -81.42161}
  phone: 321-356-0536
  external_ids: {fl-second-harvest-food-bank-of-central-florida-inc: '496620986'}
  sources:
  - foodbank/fl-second-harvest-food-bank-of-central-florida-inc
  verified: {'on': '2026-07-21', method: api}
- id: fl/lockhart/guilgal-sda
  name: Guilgal SDA
  org: fl/second-harvest-food-bank-of-central-florida-inc
  categories:
  - food-pantry
  place: '1241025'
  geo: {lat: 28.61904, lng: -81.45289}
  phone: 407-692-8145
  external_ids: {fl-second-harvest-food-bank-of-central-florida-inc: '496621063'}
  sources:
  - foodbank/fl-second-harvest-food-bank-of-central-florida-inc
  verified: {'on': '2026-07-21', method: api}
- id: fl/lockhart/iglesia-episcopal-san-cristobal
  name: Iglesia Episcopal San Cristobal
  org: fl/second-harvest-food-bank-of-central-florida-inc
  categories:
  - food-pantry
  place: '1241025'
  geo: {lat: 28.62466, lng: -81.41546}
  phone: 407-293-5653
  external_ids: {fl-second-harvest-food-bank-of-central-florida-inc: '496621104'}
  sources:
  - foodbank/fl-second-harvest-food-bank-of-central-florida-inc
  verified: {'on': '2026-07-21', method: api}
- id: fl/lockhart/orlando-christian-church
  name: Orlando Christian Church
  org: fl/second-harvest-food-bank-of-central-florida-inc
  categories:
  - food-pantry
  place: '1241025'
  geo: {lat: 28.6111, lng: -81.45865}
  phone: 407-292-5906
  external_ids: {fl-second-harvest-food-bank-of-central-florida-inc: '496621184'}
  sources:
  - foodbank/fl-second-harvest-food-bank-of-central-florida-inc
  verified: {'on': '2026-07-21', method: api}
- id: fl/lockhart/riverside-baptist-church
  name: Riverside Baptist Church
  org: fl/second-harvest-food-bank-of-central-florida-inc
  categories:
  - food-pantry
  place: '1241025'
  geo: {lat: 28.62778, lng: -81.41455}
  phone: 407-295-3850
  external_ids: {fl-second-harvest-food-bank-of-central-florida-inc: '496621220'}
  sources:
  - foodbank/fl-second-harvest-food-bank-of-central-florida-inc
  verified: {'on': '2026-07-21', method: api}
