- id: fl/miami-gardens/andover-middle-school
  name: Andover Middle School
  categories:
  - community-health-center
  address:
    street: 121 NE 207th St
    city: Miami Gardens
    state: fl
    zip: '33179'
  place: '1245060'
  geo:
    lat: 25.96563
    lng: -80.19952
  phone: 305-654-2727
  website: https://www.jtchs.org
  external_ids:
    bphc: BPS-H80-016928
  sources:
  - hrsa/health-center-sites
  verified:
    'on': '2026-07-19'
    method: api
- id: fl/miami-gardens/bethany-academy-of-arts
  name: Bethany Academy of Arts
  categories:
  - child-care
  address:
    street: 4400 NW 183rd St
    city: Miami Gardens
    state: fl
    zip: '33055'
  place: '1245060'
  geo:
    lat: 25.93931
    lng: -80.27417
  phone: 305-625-6806
  sources:
  - acf/head-start-locations
  verified:
    'on': '2026-07-19'
    method: api
- id: fl/miami-gardens/brentwood-elementary-school
  name: Brentwood Elementary School
  categories:
  - community-health-center
  address:
    street: 3101 NW 191st St
    city: Miami Gardens
    state: fl
    zip: '33056'
  place: '1245060'
  geo:
    lat: 25.94906
    lng: -80.25262
  phone: 305-624-2657
  website: https://www.jtchs.org
  external_ids:
    bphc: BPS-H80-040779
  sources:
  - hrsa/health-center-sites
  verified:
    'on': '2026-07-19'
    method: api
- id: fl/miami-gardens/cambridge-academy-and-camp-learning-center-inc
  name: Cambridge Academy and Camp Learning Center, Inc.
  categories:
  - child-care
  address:
    street: 2750 NW 167th St
    city: Miami Gardens
    state: fl
    zip: '33054'
  place: '1245060'
  geo:
    lat: 25.92687
    lng: -80.24614
  phone: 305-625-5437
  sources:
  - acf/head-start-locations
  verified:
    'on': '2026-07-19'
    method: api
- id: fl/miami-gardens/carol-city-elementary
  name: Carol City Elementary
  categories:
  - child-care
  address:
    street: 4375 NW 173rd Dr
    city: Miami Gardens
    state: fl
    zip: '33055'
  place: '1245060'
  geo:
    lat: 25.93324
    lng: -80.27151
  phone: 305-646-7273
  sources:
  - acf/head-start-locations
  verified:
    'on': '2026-07-19'
    method: api
- id: fl/miami-gardens/carol-city-elementary-school
  name: Carol City Elementary School
  categories:
  - community-health-center
  address:
    street: 4375 NW 173rd Dr
    city: Miami Gardens
    state: fl
    zip: '33055'
  place: '1245060'
  geo:
    lat: 25.93285
    lng: -80.2711
  phone: 305-621-0509
  website: https://www.jtchs.org
  external_ids:
    bphc: BPS-H80-040748
  sources:
  - hrsa/health-center-sites
  verified:
    'on': '2026-07-19'
    method: api
- id: fl/miami-gardens/carol-city-middle-school
  name: Carol City Middle School
  categories:
  - community-health-center
  address:
    street: 3737 NW 188th St
    city: Miami Gardens
    state: fl
    zip: '33055'
  place: '1245060'
  geo:
    lat: 25.9453
    lng: -80.26236
  phone: 305-624-2652
  website: https://www.jtchs.org
  external_ids:
    bphc: BPS-H80-040764
  sources:
  - hrsa/health-center-sites
  verified:
    'on': '2026-07-19'
    method: api
- id: fl/miami-gardens/center-for-family-and-child-enrichment
  name: Center for Family and Child Enrichment
  categories:
  - su-treatment
  - mh-treatment
  address:
    street: 1825 NW 167th Street
    city: Miami Gardens
    state: fl
    zip: '33056'
  place: '1245060'
  geo:
    lat: 25.92764
    lng: -80.23109
  phone: 305-624-7450 x1684
  website: https://www.cfcecares.org/
  sources:
  - samhsa/findtreatment
  verified:
    'on': '2026-07-19'
    method: api
- id: fl/miami-gardens/center-for-family-and-child-enrichment-2
  name: Center for Family and Child Enrichment
  categories:
  - community-health-center
  address:
    street: 1825 NW 167th St
    city: Miami Gardens
    state: fl
    zip: '33056'
  place: '1245060'
  geo:
    lat: 25.92764
    lng: -80.23109
  phone: 305-474-1803
  website: https://www.cfceinc.org
  external_ids:
    bphc: BPS-H80-013145
  sources:
  - hrsa/health-center-sites
  verified:
    'on': '2026-07-19'
    method: api
- id: fl/miami-gardens/charles-david-wyche-jr-elementary-school
  name: Charles David Wyche Jr. Elementary School
  categories:
  - community-health-center
  address:
    street: 5241 NW 195th Dr
    city: Miami Gardens
    state: fl
    zip: '33055'
  place: '1245060'
  geo:
    lat: 25.94916
    lng: -80.2877
  phone: 305-628-5776
  website: https://www.jtchs.org
  external_ids:
    bphc: BPS-H80-016964
  sources:
  - hrsa/health-center-sites
  verified:
    'on': '2026-07-19'
    method: api
- id: fl/miami-gardens/crestview-elementary-school
  name: Crestview Elementary School
  categories:
  - community-health-center
  address:
    street: 2201 NW 187th St
    city: Miami Gardens
    state: fl
    zip: '33056'
  place: '1245060'
  geo:
    lat: 25.94612
    lng: -80.23862
  phone: 305-624-1495
  external_ids:
    bphc: BPS-H80-040755
  sources:
  - hrsa/health-center-sites
  verified:
    'on': '2026-07-19'
    method: api
- id: fl/miami-gardens/dr-frederica-s-wilson-skyway-elementary-school
  name: Dr. Frederica S. Wilson / Skyway Elementary School
  categories:
  - community-health-center
  address:
    street: 4555 NW 206th Ter
    city: Miami Gardens
    state: fl
    zip: '33055'
  place: '1245060'
  geo:
    lat: 25.96241
    lng: -80.27727
  phone: 305-621-5838
  website: https://www.jtchs.org
  external_ids:
    bphc: BPS-H80-040778
  sources:
  - hrsa/health-center-sites
  verified:
    'on': '2026-07-19'
    method: api
- id: fl/miami-gardens/easter-seals-ophelia-brown
  name: Easter Seals Ophelia Brown
  categories:
  - child-care
  address:
    street: 16425 NW 25th Ave
    city: Miami Gardens
    state: fl
    zip: '33054'
  place: '1245060'
  geo:
    lat: 25.92369
    lng: -80.24254
  phone: 305-623-3135
  sources:
  - acf/head-start-locations
  verified:
    'on': '2026-07-19'
    method: api
- id: fl/miami-gardens/easter-seals-ophelia-e-brown-lawson-center-hs
  name: Easter Seals Ophelia E Brown Lawson Center HS
  categories:
  - child-care
  address:
    street: 16425 NW 25th Ave
    city: Miami Gardens
    state: fl
    zip: '33054'
  place: '1245060'
  geo:
    lat: 25.92369
    lng: -80.24255
  phone: 305-623-3309
  sources:
  - acf/head-start-locations
  verified:
    'on': '2026-07-19'
    method: api
- id: fl/miami-gardens/es-north-county-ehs-exp
  name: ES-North County EHS EXP
  categories:
  - child-care
  address:
    street: 3201 NW 207th St
    city: Miami Gardens
    state: fl
    zip: '33056'
  place: '1245060'
  geo:
    lat: 25.96469
    lng: -80.25475
  phone: 305-621-6226
  sources:
  - acf/head-start-locations
  verified:
    'on': '2026-07-19'
    method: api
- id: fl/miami-gardens/greater-love-full-gospel-baptist-church
  name: Greater Love Full Gospel Baptist Church
  categories:
  - child-care
  address:
    street: 18200 NW 22nd Ave
    city: Miami Gardens
    state: fl
    zip: '33056'
  place: '1245060'
  geo:
    lat: 25.94031
    lng: -80.23768
  phone: 305-621-1355
  sources:
  - acf/head-start-locations
  verified:
    'on': '2026-07-19'
    method: api
- id: fl/miami-gardens/jtchs-barbara-j-jordan-community-health-and-well
  name: JTCHS Barbara J. Jordan Community Health and Wellness Center
  categories:
  - community-health-center
  address:
    street: 20612 NW 27th Ave
    city: Miami Gardens
    state: fl
    zip: '33056'
  place: '1245060'
  geo:
    lat: 25.96291
    lng: -80.24787
  phone: 305-637-6400
  website: https://www.jtchs.org
  external_ids:
    bphc: BPS-H80-032027
  sources:
  - hrsa/health-center-sites
  verified:
    'on': '2026-07-19'
    method: api
- id: fl/miami-gardens/lake-stevens-elementary-school
  name: Lake Stevens Elementary School
  categories:
  - community-health-center
  address:
    street: 5101 NW 183rd St
    city: Miami Gardens
    state: fl
    zip: '33055'
  place: '1245060'
  geo:
    lat: 25.94017
    lng: -80.28516
  phone: 305-625-6536
  website: https://www.jtchs.org
  external_ids:
    bphc: BPS-H80-040767
  sources:
  - hrsa/health-center-sites
  verified:
    'on': '2026-07-19'
    method: api
- id: fl/miami-gardens/lake-stevens-middle-school
  name: Lake Stevens Middle School
  categories:
  - community-health-center
  address:
    street: 18484 NW 48th Pl
    city: Miami Gardens
    state: fl
    zip: '33055'
  place: '1245060'
  geo:
    lat: 25.94116
    lng: -80.28224
  phone: 305-620-1294
  website: https://www.jtchs.org
  external_ids:
    bphc: BPS-H80-017018
  sources:
  - hrsa/health-center-sites
  verified:
    'on': '2026-07-19'
    method: api
- id: fl/miami-gardens/landow-yeshiva-ehs
  name: Landow Yeshiva EHS
  categories:
  - child-care
  address:
    street: 17330 NW 7th Ave
    city: Miami Gardens
    state: fl
    zip: '33169'
  place: '1245060'
  geo:
    lat: 25.93213
    lng: -80.21052
  phone: 305-653-8770
  sources:
  - acf/head-start-locations
  verified:
    'on': '2026-07-19'
    method: api
- id: fl/miami-gardens/memorial-temple-missionary-baptist-church-inc-db
  name: Memorial Temple Missionary Baptist Church Inc. DBA Memorial Temple Baptist Church Early Childhood
    Education Center
  categories:
  - child-care
  address:
    street: 16600 NW 44th Ct
    city: Miami Gardens
    state: fl
    zip: '33054'
  place: '1245060'
  geo:
    lat: 25.92357
    lng: -80.27361
  phone: 305-628-0700
  sources:
  - acf/head-start-locations
  verified:
    'on': '2026-07-19'
    method: api
- id: fl/miami-gardens/miami-carol-city-senior-high-school
  name: Miami Carol City Senior High School
  categories:
  - community-health-center
  address:
    street: 3301 Miami Gardens Dr
    city: Miami Gardens
    state: fl
    zip: '33056'
  place: '1245060'
  geo:
    lat: 25.94164
    lng: -80.25751
  phone: 305-621-5681
  website: https://www.jtchs.org
  external_ids:
    bphc: BPS-H80-041306
  sources:
  - hrsa/health-center-sites
  verified:
    'on': '2026-07-19'
    method: api
- id: fl/miami-gardens/miami-gardens-elementary-school
  name: Miami Gardens Elementary School
  categories:
  - community-health-center
  address:
    street: 4444 NW 195th St
    city: Miami Gardens
    state: fl
    zip: '33055'
  place: '1245060'
  geo:
    lat: 25.94996
    lng: -80.27518
  phone: 305-625-5321
  website: https://www.jtchs.org
  external_ids:
    bphc: BPS-H80-040754
  sources:
  - hrsa/health-center-sites
  verified:
    'on': '2026-07-19'
    method: api
- id: fl/miami-gardens/miami-gardens-learning-center
  name: Miami Gardens Learning Center
  categories:
  - child-care
  address:
    street: 16600 NW 25th Ave
    city: Miami Gardens
    state: fl
    zip: '33054'
  place: '1245060'
  geo:
    lat: 25.92589
    lng: -80.24287
  sources:
  - acf/head-start-locations
  verified:
    'on': '2026-07-19'
    method: api
- id: fl/miami-gardens/mobile-medical-van
  name: Mobile Medical Van
  categories:
  - community-health-center
  address:
    street: '1825 NW 167th St, #102'
    city: Miami Gardens
    state: fl
    zip: '33056'
  place: '1245060'
  geo:
    lat: 25.92764
    lng: -80.23109
  phone: 305-474-1803
  external_ids:
    bphc: BPS-H80-037066
  sources:
  - hrsa/health-center-sites
  verified:
    'on': '2026-07-19'
    method: api
- id: fl/miami-gardens/north-county-k-8-center
  name: North County K-8 Center
  categories:
  - community-health-center
  address:
    street: 3250 NW 207th St
    city: Miami Gardens
    state: fl
    zip: '33056'
  place: '1245060'
  geo:
    lat: 25.96401
    lng: -80.25479
  phone: 305-624-9648
  website: https://www.jtchs.org
  external_ids:
    bphc: BPS-H80-040773
  sources:
  - hrsa/health-center-sites
  verified:
    'on': '2026-07-19'
    method: api
- id: fl/miami-gardens/north-glade-elementary-school
  name: North Glade Elementary School
  categories:
  - community-health-center
  address:
    street: 5000 NW 177th St
    city: Miami Gardens
    state: fl
    zip: '33055'
  place: '1245060'
  geo:
    lat: 25.93362
    lng: -80.2827
  phone: 305-624-3608
  website: https://www.jtchs.org
  external_ids:
    bphc: BPS-H80-040770
  sources:
  - hrsa/health-center-sites
  verified:
    'on': '2026-07-19'
    method: api
