- id: fl/mulberry/cfhc-mulberry-primary-and-specialty-care
  name: CFHC Mulberry Primary and Specialty Care
  categories:
  - community-health-center
  address:
    street: 1010 N Church Ave
    city: Mulberry
    state: fl
    zip: '33860'
  place: '1247200'
  geo:
    lat: 27.90376
    lng: -81.97422
  phone: 863-291-5115
  external_ids:
    bphc: BPS-H80-041105
  sources:
  - hrsa/health-center-sites
  verified:
    'on': '2026-07-19'
    method: api
- id: fl/mulberry/cfhc-mulberry-women-children-and-dental
  name: CFHC Mulberry Women / Children and Dental
  categories:
  - community-health-center
  address:
    street: 106 NW 9th Ave
    city: Mulberry
    state: fl
    zip: '33860'
  place: '1247200'
  geo:
    lat: 27.89551
    lng: -81.98148
  phone: 863-425-6200
  website: https://www.cfhconline.org/
  external_ids:
    bphc: BPS-H80-013190
  sources:
  - hrsa/health-center-sites
  verified:
    'on': '2026-07-19'
    method: api
- id: fl/mulberry/housing-authority-of-the-city-of-mulberry
  name: Housing Authority Of The City Of Mulberry
  categories:
  - housing-assistance
  address: {street: 200 NW 3rd Ave, city: Mulberry, state: fl, zip: '33860'}
  description: Public housing (Low-Rent) agency
  place: '1247200'
  geo: {lat: 27.89555, lng: -81.97587}
  phone: 813-752-0569
  sources:
  - hud/resource-locator
  verified: {'on': '2026-07-19', method: api}
- id: fl/mulberry/rcma-mulberry-child-development-center
  name: RCMA Mulberry Child Development Center
  categories:
  - child-care
  address:
    street: 4441 Academy Dr
    city: Mulberry
    state: fl
    zip: '33860'
  place: '1247200'
  geo:
    lat: 27.92601
    lng: -82.03678
  phone: 863-425-9246
  sources:
  - acf/head-start-locations
  verified:
    'on': '2026-07-19'
    method: api
- id: fl/mulberry/willow-oak-elementary-school
  name: Willow Oak Elementary School
  categories:
  - child-care
  address:
    street: 4815 Bailey Road
    city: Mulberry
    state: fl
    zip: '33860'
  place: '1247200'
  geo:
    lat: 27.93016
    lng: -82.01207
  phone: 863-417-6670
  sources:
  - acf/head-start-locations
  verified:
    'on': '2026-07-19'
    method: api
