- id: fl/new-port-richey/anclote-elementary-school
  name: Anclote Elementary School
  categories:
  - child-care
  address:
    street: 3610 Madison St
    city: New Port Richey
    state: fl
    zip: '34652'
  place: '1248500'
  geo:
    lat: 28.21154
    lng: -82.71533
  phone: 727-774-3200
  sources:
  - acf/head-start-locations
  verified:
    'on': '2026-07-19'
    method: api
- id: fl/new-port-richey/baycare-behavioral-health-adult-treatment-center
  name: BayCare Behavioral Health Adult Treatment Center
  categories:
  - su-treatment
  - mh-treatment
  address:
    street: 8002 King Helie Boulevard
    city: New Port Richey
    state: fl
    zip: '34653'
  place: '1248500'
  geo:
    lat: 28.27431
    lng: -82.67735
  phone: 727-841-4200
  website: https://www.baycare.org/
  sources:
  - samhsa/findtreatment
  verified:
    'on': '2026-07-19'
    method: api
- id: fl/new-port-richey/childrens-treatment-center-harbor-behavioral-hea
  name: Childrens Treatment Center Harbor Behavioral Healthcare Institute
  categories:
  - su-treatment
  - mh-treatment
  address:
    street: P.O. Box 428
    city: New Port Richey
    state: fl
    zip: '34656'
  place: '1248500'
  phone: 727-841-4200
  website: https://www.baycare.org/services/behavioral-health
  sources:
  - samhsa/findtreatment
  verified:
    'on': '2026-07-19'
    method: api
- id: fl/new-port-richey/clean-recovery-centers
  name: Clean Recovery Centers
  categories:
  - su-treatment
  address:
    street: 9270 Royal Palm Avenue
    city: New Port Richey
    state: fl
    zip: '34654'
  place: '1248500'
  geo:
    lat: 28.28549
    lng: -82.66092
  phone: 813-669-7010
  website: https://www.cleanrecoverycenters.com
  sources:
  - samhsa/findtreatment
  verified:
    'on': '2026-07-19'
    method: api
- id: fl/new-port-richey/clean-recovery-centers-dba-clean-recovery-center
  name: Clean Recovery Centers DBA Clean Recovery Centers
  categories:
  - su-treatment
  - mh-treatment
  address:
    street: 9270 Royal Palm Avenue
    city: New Port Richey
    state: fl
    zip: '34654'
  place: '1248500'
  geo:
    lat: 28.28549
    lng: -82.66092
  phone: 813-669-7010
  website: https://www.cleanrecoverycenters.com
  sources:
  - samhsa/findtreatment
  verified:
    'on': '2026-07-19'
    method: api
- id: fl/new-port-richey/florida-treatment-services-llc
  name: Florida Treatment Services LLC
  categories:
  - su-treatment
  address:
    street: 4041 Rowan Road
    city: New Port Richey
    state: fl
    zip: '34653'
  place: '1248500'
  geo:
    lat: 28.21857
    lng: -82.69319
  phone: 727-284-1980
  website: https://www.floridatreatmentservices.com
  sources:
  - samhsa/findtreatment
  verified:
    'on': '2026-07-19'
    method: api
- id: fl/new-port-richey/growth-and-recovery-counseling
  name: Growth and Recovery Counseling
  categories:
  - su-treatment
  - mh-treatment
  address:
    street: 8225 State Road 54
    city: New Port Richey
    state: fl
    zip: '34655'
  place: '1248500'
  geo:
    lat: 28.20761
    lng: -82.67789
  phone: 813-575-0570
  website: https://www.growrecover.com
  sources:
  - samhsa/findtreatment
  verified:
    'on': '2026-07-19'
    method: api
- id: fl/new-port-richey/gulf-health-center
  name: Gulf Health Center
  categories:
  - community-health-center
  address:
    street: 5375 School Rd
    city: New Port Richey
    state: fl
    zip: '34652'
  place: '1248500'
  geo:
    lat: 28.23498
    lng: -82.71765
  phone: 352-565-7342
  external_ids:
    bphc: BPS-LAL-041402
  sources:
  - hrsa/health-center-sites
  verified:
    'on': '2026-07-19'
    method: api
- id: fl/new-port-richey/james-m-marlowe-elementary
  name: James M. Marlowe Elementary
  categories:
  - child-care
  address:
    street: 5642 Cecelia Dr
    city: New Port Richey
    state: fl
    zip: '34652'
  place: '1248500'
  geo:
    lat: 28.23161
    lng: -82.72164
  phone: 727-774-8600
  sources:
  - acf/head-start-locations
  verified:
    'on': '2026-07-19'
    method: api
- id: fl/new-port-richey/learning-to-achieve-wellness
  name: Learning to Achieve Wellness
  categories:
  - su-treatment
  - mh-treatment
  address:
    street: 8300 Massachusetts Avenue
    city: New Port Richey
    state: fl
    zip: '34653'
  place: '1248500'
  geo:
    lat: 28.2585
    lng: -82.67768
  phone: 813-999-1516
  website: https://learningtoachievewellness.com/
  sources:
  - samhsa/findtreatment
  verified:
    'on': '2026-07-19'
    method: api
- id: fl/new-port-richey/longleaf-health-center
  name: Longleaf Health Center
  categories:
  - community-health-center
  address:
    street: 3381 Town Ave
    city: New Port Richey
    state: fl
    zip: '34655'
  place: '1248500'
  geo:
    lat: 28.20842
    lng: -82.64727
  phone: 352-565-7342
  external_ids:
    bphc: BPS-LAL-041399
  sources:
  - hrsa/health-center-sites
  verified:
    'on': '2026-07-19'
    method: api
- id: fl/new-port-richey/metro-new-port-richey
  name: METRO New Port Richey
  categories:
  - community-health-center
  address:
    street: 4747 US Highway 19
    city: New Port Richey
    state: fl
    zip: '34652'
  place: '1248500'
  geo:
    lat: 28.22844
    lng: -82.73258
  phone: 727-494-7625
  website: https://www.metrotampabay.org
  external_ids:
    bphc: BPS-LAL-030538
  sources:
  - hrsa/health-center-sites
  verified:
    'on': '2026-07-19'
    method: api
- id: fl/new-port-richey/mittye-p-locke-early-learning-academy
  name: MITTYE P. LOCKE EARLY LEARNING ACADEMY
  categories:
  - child-care
  address:
    street: 4339 Evans Ave
    city: New Port Richey
    state: fl
    zip: '34652'
  place: '1248500'
  geo:
    lat: 28.22234
    lng: -82.72714
  phone: 727-774-3100
  sources:
  - acf/head-start-locations
  verified:
    'on': '2026-07-19'
    method: api
- id: fl/new-port-richey/moon-lake-elementary-school
  name: MOON LAKE ELEMENTARY SCHOOL
  categories:
  - child-care
  address:
    street: 12019 Tree Breeze Dr
    city: New Port Richey
    state: fl
    zip: '34654'
  place: '1248500'
  geo:
    lat: 28.33265
    lng: -82.61294
  phone: 727-774-4600
  sources:
  - acf/head-start-locations
  verified:
    'on': '2026-07-19'
    method: api
- id: fl/new-port-richey/premier-community-healthcare-group-inc
  name: Premier Community HealthCare Group, Inc.
  categories:
  - community-health-center
  address:
    street: 5957 Rowan Rd
    city: New Port Richey
    state: fl
    zip: '34653'
  place: '1248500'
  geo:
    lat: 28.24574
    lng: -82.69755
  phone: 352-518-2000
  website: https://www.premierhc.org
  external_ids:
    bphc: BPS-H80-031585
  sources:
  - hrsa/health-center-sites
  verified:
    'on': '2026-07-19'
    method: api
- id: fl/new-port-richey/richey-elementary-school
  name: RICHEY ELEMENTARY SCHOOL
  categories:
  - child-care
  address:
    street: 6850 Adams St
    city: New Port Richey
    state: fl
    zip: '34652'
  place: '1248500'
  geo:
    lat: 28.25593
    lng: -82.71823
  phone: 727-774-3500
  sources:
  - acf/head-start-locations
  verified:
    'on': '2026-07-19'
    method: api
- id: fl/new-port-richey/rockland-treatment-center-blessings-treatment-an
  name: Rockland Treatment Center Blessings Treatment and Recovery Ctr
  categories:
  - su-treatment
  - mh-treatment
  address:
    street: 5319 Grand Boulevard
    city: New Port Richey
    state: fl
    zip: '34652'
  place: '1248500'
  geo:
    lat: 28.23671
    lng: -82.72304
  phone: 727-220-2422
  website: https://rocklandtreatmentcenter.com
  sources:
  - samhsa/findtreatment
  verified:
    'on': '2026-07-19'
    method: api
