- id: fl/north-fort-myers/groups-recover-together
  name: Groups Recover Together
  categories:
  - su-treatment
  address:
    street: 1357 North Tamiami Trail
    city: North Fort Myers
    state: fl
    zip: '33903'
  place: '1249350'
  geo:
    lat: 26.67011
    lng: -81.88254
  phone: 812-382-5089
  website: https://www.joingroups.com
  sources:
  - samhsa/findtreatment
  verified:
    'on': '2026-07-19'
    method: api
- id: fl/north-fort-myers/j-colin-english
  name: J. Colin English
  categories:
  - child-care
  address:
    street: 120 Pine Island Rd
    city: North Fort Myers
    state: fl
    zip: '33903'
  place: '1249350'
  geo:
    lat: 26.68285
    lng: -81.88794
  phone: 239-332-2512
  sources:
  - acf/head-start-locations
  verified:
    'on': '2026-07-19'
    method: api
- id: fl/north-fort-myers/lee-county-housing-authority
  name: Lee County Housing Authority
  categories:
  - housing-assistance
  address: {street: 14170 Warner Cir, city: North Fort Myers, state: fl, zip: '33903'}
  description: Public housing and Housing Choice Voucher agency
  place: '1249350'
  geo: {lat: 26.67064, lng: -81.91691}
  phone: 239-360-8038
  sources:
  - hud/resource-locator
  verified: {'on': '2026-07-19', method: api}
- id: fl/north-fort-myers/operation-par-inc-medication-assisted-patient-se
  name: Operation PAR Inc Medication Assisted Patient Services
  categories:
  - su-treatment
  address:
    street: 535 Pine Island Road
    city: North Fort Myers
    state: fl
    zip: '33903'
  place: '1249350'
  geo:
    lat: 26.67979
    lng: -81.89682
  phone: 239-656-7700
  website: https://www.operationpar.org
  sources:
  - samhsa/findtreatment
  verified:
    'on': '2026-07-19'
    method: api
- id: fl/north-fort-myers/tropic-isles-elementary
  name: Tropic Isles Elementary
  categories:
  - child-care
  address:
    street: 5145 Orange Grove Blvd
    city: North Fort Myers
    state: fl
    zip: '33903'
  place: '1249350'
  geo:
    lat: 26.66481
    lng: -81.91651
  phone: 239-332-2512
  sources:
  - acf/head-start-locations
  verified:
    'on': '2026-07-19'
    method: api
