- id: fl/orlando/academic-center-for-excellence-wellness-center
  name: Academic Center for Excellence Wellness Center
  categories:
  - community-health-center
  address:
    street: 701 W Livingston St
    city: Orlando
    state: fl
    zip: '32805'
  place: '1253000'
  geo:
    lat: 28.548
    lng: -81.39035
  phone: 407-428-5751
  external_ids:
    bphc: BPS-H80-020812
  sources:
  - hrsa/health-center-sites
  verified:
    'on': '2026-07-19'
    method: api
- id: fl/orlando/alafaya-health-center
  name: Alafaya Health Center
  categories:
  - community-health-center
  address:
    street: 11881 E Colonial Dr STE A
    city: Orlando
    state: fl
    zip: '32826'
  place: '1253000'
  geo:
    lat: 28.56674
    lng: -81.20576
  phone: 407-322-8645
  website: https://www.mytruehealth.org
  external_ids:
    bphc: BPS-H80-002172
  sources:
  - hrsa/health-center-sites
  verified:
    'on': '2026-07-19'
    method: api
- id: fl/orlando/allpure-behavioral-health-orlando
  name: Allpure Behavioral Health Orlando
  categories:
  - su-treatment
  - mh-treatment
  address:
    street: 2212 South Chickasaw Trail
    city: Orlando
    state: fl
    zip: '32825'
  place: '1253000'
  geo:
    lat: 28.51153
    lng: -81.27052
  phone: 407-205-8664
  website: https://allpurebh.com
  sources:
  - samhsa/findtreatment
  verified:
    'on': '2026-07-19'
    method: api
- id: fl/orlando/aspire-health-partners
  name: Aspire Health Partners
  categories:
  - su-treatment
  - mh-treatment
  address:
    street: 100 West Columbia Street
    city: Orlando
    state: fl
    zip: '32806'
  place: '1253000'
  geo:
    lat: 28.52761
    lng: -81.38077
  phone: 407-875-3700 x1195
  website: https://aspirehealthpartners.com
  sources:
  - samhsa/findtreatment
  verified:
    'on': '2026-07-19'
    method: api
- id: fl/orlando/aspire-health-partners-addiction-receiving-facil
  name: Aspire Health Partners Addiction Receiving Facility
  categories:
  - su-treatment
  - mh-treatment
  address:
    city: Orlando
    state: fl
    zip: '32810'
  place: '1253000'
  phone: 407-875-3700 x4356
  website: https://aspirehealthpartners.com/
  sources:
  - samhsa/findtreatment
  verified:
    'on': '2026-07-19'
    method: api
- id: fl/orlando/aspire-health-partners-college-place
  name: Aspire Health Partners  College Place
  categories:
  - mh-treatment
  address:
    street: 4524 Thisledown Drive
    city: Orlando
    state: fl
    zip: '32804'
  place: '1253000'
  geo:
    lat: 28.59919
    lng: -81.39941
  phone: 407-875-3700
  website: https://www.aspirehealthpartners.com
  sources:
  - samhsa/findtreatment
  verified:
    'on': '2026-07-19'
    method: api
- id: fl/orlando/aspire-health-partners-mens-program
  name: Aspire Health Partners Mens Program
  categories:
  - su-treatment
  address:
    street: 1405 West Michigan Street
    city: Orlando
    state: fl
    zip: '32805'
  place: '1253000'
  geo:
    lat: 28.51475
    lng: -81.39971
  phone: 407-875-3700
  website: https://www.aspirehealthpartners.com
  sources:
  - samhsa/findtreatment
  verified:
    'on': '2026-07-19'
    method: api
- id: fl/orlando/aspire-health-partners-oasis
  name: Aspire Health Partners Oasis
  categories:
  - su-treatment
  address:
    street: 5600 Clarcona Ocoee Road
    city: Orlando
    state: fl
    zip: '32810'
  place: '1253000'
  geo:
    lat: 28.61006
    lng: -81.45391
  phone: 407-875-3700 x4251
  website: https://www.aspirehealthpartners.org
  sources:
  - samhsa/findtreatment
  verified:
    'on': '2026-07-19'
    method: api
- id: fl/orlando/aspire-health-partners-princeton-plaza
  name: Aspire Health Partners Princeton Plaza
  categories:
  - su-treatment
  - mh-treatment
  address:
    street: 1800 Mercy Drive
    city: Orlando
    state: fl
    zip: '32808'
  place: '1253000'
  geo:
    lat: 28.5673
    lng: -81.435
  phone: 407-875-3700 x6241
  website: https://www.aspirehealthpartners.com
  sources:
  - samhsa/findtreatment
  verified:
    'on': '2026-07-19'
    method: api
- id: fl/orlando/bithlo-community-center
  name: BITHLO COMMUNITY CENTER
  categories:
  - child-care
  address:
    street: 18501 Washington Ave
    city: Orlando
    state: fl
    zip: '32820'
  place: '1253000'
  geo:
    lat: 28.55948
    lng: -81.10264
  phone: 407-254-1928
  sources:
  - acf/head-start-locations
  verified:
    'on': '2026-07-19'
    method: api
- id: fl/orlando/callahan-community-center
  name: CALLAHAN COMMUNITY CENTER
  categories:
  - child-care
  address:
    street: 101 N Parramore Ave
    city: Orlando
    state: fl
    zip: '32801'
  place: '1253000'
  geo:
    lat: 28.54432
    lng: -81.38804
  phone: 407-836-6700
  sources:
  - acf/head-start-locations
  verified:
    'on': '2026-07-19'
    method: api
- id: fl/orlando/care-clinic
  name: Care Clinic
  categories:
  - su-treatment
  - mh-treatment
  address:
    street: 255 South Orange Avenue
    city: Orlando
    state: fl
    zip: '32801'
  place: '1253000'
  geo:
    lat: 28.53943
    lng: -81.37855
  phone: 844-782-6963
  website: https://www.careclinicmd.com
  sources:
  - samhsa/findtreatment
  verified:
    'on': '2026-07-19'
    method: api
- id: fl/orlando/central-florida-recovery-centers
  name: Central Florida Recovery Centers
  categories:
  - su-treatment
  - mh-treatment
  address:
    street: 6900 Turkey Lake Road
    city: Orlando
    state: fl
    zip: '32819'
  place: '1253000'
  geo:
    lat: 28.4617
    lng: -81.47536
  phone: 321-251-2255
  website: https://www.centralflrecovery.com
  sources:
  - samhsa/findtreatment
  verified:
    'on': '2026-07-19'
    method: api
- id: fl/orlando/central-florida-treatment-center-orlando-op-mat
  name: Central Florida Treatment Center Orlando OP MAT
  categories:
  - su-treatment
  address:
    street: 1800 West Colonial Drive
    city: Orlando
    state: fl
    zip: '32804'
  place: '1253000'
  geo:
    lat: 28.55262
    lng: -81.40388
  phone: 407-843-0041
  website: https://www.cfltreatmentcenters.org
  sources:
  - samhsa/findtreatment
  verified:
    'on': '2026-07-19'
    method: api
- id: fl/orlando/children-s-home-society-of-fl-orange-county-soci
  name: Children's Home Society of FL Orange County Socialization Site
  categories:
  - child-care
  address:
    street: 5768 S Semoran Blvd
    city: Orlando
    state: fl
    zip: '32822'
  place: '1253000'
  geo:
    lat: 28.47977
    lng: -81.31145
  phone: 689-246-9732
  sources:
  - acf/head-start-locations
  verified:
    'on': '2026-07-19'
    method: api
- id: fl/orlando/childrens-home-society-of-florida
  name: Childrens Home Society of Florida
  categories:
  - su-treatment
  - mh-treatment
  address:
    street: 5768 South Semoran Boulevard
    city: Orlando
    state: fl
    zip: '32822'
  place: '1253000'
  geo:
    lat: 28.4798
    lng: -81.31144
  phone: 407-896-2323
  website: https://www.chsfl.org
  sources:
  - samhsa/findtreatment
  verified:
    'on': '2026-07-19'
    method: api
- id: fl/orlando/christian-service-center
  name: Christian Service Center
  categories:
  - community-health-center
  address:
    street: 808 W Central Blvd
    city: Orlando
    state: fl
    zip: '32805'
  place: '1253000'
  geo:
    lat: 28.54176
    lng: -81.39098
  phone: 407-428-5751
  website: https://www.obfh.org
  external_ids:
    bphc: BPS-H80-040073
  sources:
  - hrsa/health-center-sites
  verified:
    'on': '2026-07-19'
    method: api
- id: fl/orlando/christian-service-center-800-w-central
  name: Christian Service Center 800 W Central
  categories:
  - community-health-center
  address:
    street: 800 W Central Blvd
    city: Orlando
    state: fl
    zip: '32805'
  place: '1253000'
  geo:
    lat: 28.54173
    lng: -81.39064
  phone: 407-367-8376
  website: https://www.obfh.org
  external_ids:
    bphc: BPS-H80-041298
  sources:
  - hrsa/health-center-sites
  verified:
    'on': '2026-07-19'
    method: api
- id: fl/orlando/community-health-center-bithlo-family-care
  name: COMMUNITY HEALTH CENTER - BITHLO FAMILY CARE
  categories:
  - community-health-center
  address:
    street: 19108 E Colonial Dr
    city: Orlando
    state: fl
    zip: '32820'
  place: '1253000'
  geo:
    lat: 28.54614
    lng: -81.09224
  phone: 407-905-8827
  website: https://www.chcfl.org
  external_ids:
    bphc: BPS-H80-011182
  sources:
  - hrsa/health-center-sites
  verified:
    'on': '2026-07-19'
    method: api
- id: fl/orlando/community-health-center-forest-city-family-denta
  name: Community Health Center - Forest City Family & Dental Care
  categories:
  - community-health-center
  address:
    street: 7900 Forest City Rd
    city: Orlando
    state: fl
    zip: '32810'
  place: '1253000'
  geo:
    lat: 28.62859
    lng: -81.4157
  phone: 407-905-8827
  external_ids:
    bphc: BPS-H80-017623
  sources:
  - hrsa/health-center-sites
  verified:
    'on': '2026-07-19'
    method: api
- id: fl/orlando/community-health-center-lake-ellenor-pediatric-d
  name: COMMUNITY HEALTH CENTER - LAKE ELLENOR PEDIATRIC DENTAL & ADULT EMERGENCY DENTAL CARE
  categories:
  - community-health-center
  address:
    street: 6101 Lake Ellenor Dr
    city: Orlando
    state: fl
    zip: '32809'
  place: '1253000'
  geo:
    lat: 28.46976
    lng: -81.40171
  phone: 407-905-8827
  website: https://WWW.CHCFL.ORG
  external_ids:
    bphc: BPS-H80-003452
  sources:
  - hrsa/health-center-sites
  verified:
    'on': '2026-07-19'
    method: api
- id: fl/orlando/community-health-center-meadow-woods-family-heal
  name: COMMUNITY HEALTH CENTER - MEADOW WOODS FAMILY HEALTH CENTER
  categories:
  - community-health-center
  address:
    street: 849 Greenway Professional Ct
    city: Orlando
    state: fl
    zip: '32824'
  place: '1253000'
  geo:
    lat: 28.37107
    lng: -81.36434
  phone: 407-905-8827
  website: https://www.chcfl.org
  external_ids:
    bphc: BPS-H80-011900
  sources:
  - hrsa/health-center-sites
  verified:
    'on': '2026-07-19'
    method: api
- id: fl/orlando/community-health-center-pine-hills
  name: Community Health Center - Pine Hills
  categories:
  - community-health-center
  address:
    street: 840 Mercy Dr
    city: Orlando
    state: fl
    zip: '32808'
  place: '1253000'
  geo:
    lat: 28.55406
    lng: -81.43122
  phone: 407-905-8827
  external_ids:
    bphc: BPS-H80-018524
  sources:
  - hrsa/health-center-sites
  verified:
    'on': '2026-07-19'
    method: api
- id: fl/orlando/community-health-centers-inc-forest-city-optomet
  name: Community Health Centers, Inc. Forest City - Optometry and Behavioral Health
  categories:
  - community-health-center
  address:
    street: 7912 Forest City Rd
    city: Orlando
    state: fl
    zip: '32810'
  place: '1253000'
  geo:
    lat: 28.62863
    lng: -81.41614
  phone: 407-905-8827
  external_ids:
    bphc: BPS-H80-017804
  sources:
  - hrsa/health-center-sites
  verified:
    'on': '2026-07-19'
    method: api
- id: fl/orlando/community-health-centers-west-lakes
  name: Community Health Centers - West Lakes
  categories:
  - community-health-center
  address:
    street: 710 S Tampa Ave
    city: Orlando
    state: fl
    zip: '32805'
  place: '1253000'
  geo:
    lat: 28.53421
    lng: -81.40565
  phone: 407-905-8827
  website: https://www.chcfl.org
  external_ids:
    bphc: BPS-H80-036142
  sources:
  - hrsa/health-center-sites
  verified:
    'on': '2026-07-19'
    method: api
- id: fl/orlando/devereux-advanced-behavioral-health-fl-devereux
  name: Devereux Advanced Behavioral Health FL Devereux Florida Orlando Campus
  categories:
  - su-treatment
  - mh-treatment
  address:
    street: 6147 Christian Way
    city: Orlando
    state: fl
    zip: '32808'
  place: '1253000'
  geo:
    lat: 28.60509
    lng: -81.46512
  phone: 800-338-3738
  website: https://www.devereuxFL.org
  sources:
  - samhsa/findtreatment
  verified:
    'on': '2026-07-19'
    method: api
- id: fl/orlando/dover-shores-elementary
  name: DOVER SHORES ELEMENTARY
  categories:
  - child-care
  address:
    street: 1200 Gaston Foster Rd
    city: Orlando
    state: fl
    zip: '32812'
  place: '1253000'
  geo:
    lat: 28.52704
    lng: -81.32598
  phone: 407-249-6330
  sources:
  - acf/head-start-locations
  verified:
    'on': '2026-07-19'
    method: api
- id: fl/orlando/east-orange-community-center
  name: EAST ORANGE COMMUNITY CENTER
  categories:
  - child-care
  address:
    street: 12050 E Colonial Dr
    city: Orlando
    state: fl
    zip: '32826'
  place: '1253000'
  geo:
    lat: 28.56266
    lng: -81.20204
  phone: 407-254-9713
  sources:
  - acf/head-start-locations
  verified:
    'on': '2026-07-19'
    method: api
- id: fl/orlando/eccleston-elementary
  name: Eccleston Elementary
  categories:
  - community-health-center
  address:
    street: 1500 Aaron Ave
    city: Orlando
    state: fl
    zip: '32811'
  place: '1253000'
  geo:
    lat: 28.52485
    lng: -81.43329
  phone: 407-428-5751
  website: https://www.obfh.org
  external_ids:
    bphc: BPS-H80-037535
  sources:
  - hrsa/health-center-sites
  verified:
    'on': '2026-07-19'
    method: api
- id: fl/orlando/engelwood-elementary
  name: ENGELWOOD ELEMENTARY
  categories:
  - child-care
  address:
    street: 5985 La Costa Dr
    city: Orlando
    state: fl
    zip: '32807'
  place: '1253000'
  geo:
    lat: 28.52815
    lng: -81.30337
  phone: 407-249-6340
  sources:
  - acf/head-start-locations
  verified:
    'on': '2026-07-19'
    method: api
- id: fl/orlando/evans-high-school-wellness-center
  name: Evans High School Wellness Center
  categories:
  - community-health-center
  address:
    street: 3100 Evans Trojans Way
    city: Orlando
    state: fl
    zip: '32808'
  place: '1253000'
  geo:
    lat: 28.58276
    lng: -81.4492
  phone: 407-428-5751
  external_ids:
    bphc: BPS-H80-019177
  sources:
  - hrsa/health-center-sites
  verified:
    'on': '2026-07-19'
    method: api
- id: fl/orlando/families-first-of-florida
  name: Families First of Florida
  categories:
  - mh-treatment
  address:
    street: 7984 Forest City Road
    city: Orlando
    state: fl
    zip: '32810'
  place: '1253000'
  geo:
    lat: 28.62913
    lng: -81.41544
  phone: 813-290-8560
  website: https://www.familiesfirstfl.com
  sources:
  - samhsa/findtreatment
  verified:
    'on': '2026-07-19'
    method: api
- id: fl/orlando/ferguson-center-ehs-3502
  name: Ferguson Center (EHS) 3502
  categories:
  - child-care
  address:
    street: 644 Ferguson Dr
    city: Orlando
    state: fl
    zip: '32805'
  place: '1253000'
  geo:
    lat: 28.55113
    lng: -81.42142
  phone: 407-490-6820
  sources:
  - acf/head-start-locations
  verified:
    'on': '2026-07-19'
    method: api
- id: fl/orlando/first-step-k-a-ccp-3440
  name: First Step K.A. (CCP) 3440
  categories:
  - child-care
  address:
    street: 2876 S Alafaya Trl
    city: Orlando
    state: fl
    zip: '32828'
  place: '1253000'
  geo:
    lat: 28.51089
    lng: -81.18489
  phone: 407-730-8984
  sources:
  - acf/head-start-locations
  verified:
    'on': '2026-07-19'
    method: api
- id: fl/orlando/florida-treatment-services-llc
  name: Florida Treatment Services LLC
  categories:
  - su-treatment
  address:
    street: 733 South Goldenrod Road
    city: Orlando
    state: fl
    zip: '32822'
  place: '1253000'
  geo:
    lat: 28.53422
    lng: -81.28507
  phone: 407-783-6273
  website: https://floridatreatmentservices.com
  sources:
  - samhsa/findtreatment
  verified:
    'on': '2026-07-19'
    method: api
- id: fl/orlando/fresh-start-ministries-of-central-fl
  name: Fresh Start Ministries of Central FL
  categories:
  - su-treatment
  address:
    street: 4436 Edgewater Drive
    city: Orlando
    state: fl
    zip: '32804'
  place: '1253000'
  geo:
    lat: 28.59704
    lng: -81.40064
  phone: 407-293-3822
  website: https://www.freshstartministries.com
  sources:
  - samhsa/findtreatment
  verified:
    'on': '2026-07-19'
    method: api
- id: fl/orlando/golden-bear-academy-ccp-3408
  name: Golden Bear Academy (CCP) 3408
  categories:
  - child-care
  address:
    street: 421 S Goldenrod Rd
    city: Orlando
    state: fl
    zip: '32822'
  place: '1253000'
  geo:
    lat: 28.53801
    lng: -81.28437
  phone: 407-381-4888
  sources:
  - acf/head-start-locations
  verified:
    'on': '2026-07-19'
    method: api
- id: fl/orlando/good-friend-counseling-services
  name: Good Friend Counseling Services
  categories:
  - su-treatment
  - mh-treatment
  address:
    street: 6925 Lake Ellenor Drive
    city: Orlando
    state: fl
    zip: '32809'
  place: '1253000'
  geo:
    lat: 28.46588
    lng: -81.39956
  phone: 407-250-2020
  website: https://www.gfcounselingservices.com
  sources:
  - samhsa/findtreatment
  verified:
    'on': '2026-07-19'
    method: api
- id: fl/orlando/hal-p-marston-community-center
  name: HAL P MARSTON COMMUNITY CENTER
  categories:
  - child-care
  address:
    street: 3933 Wd Judge Dr
    city: Orlando
    state: fl
    zip: '32808'
  place: '1253000'
  geo:
    lat: 28.56111
    lng: -81.42786
  phone: 407-836-8455
  sources:
  - acf/head-start-locations
  verified:
    'on': '2026-07-19'
    method: api
- id: fl/orlando/hand-on-academy-ccp-3460
  name: Hand On Academy (CCP) 3460
  categories:
  - child-care
  address:
    street: 3850 Winter Rose Dr
    city: Orlando
    state: fl
    zip: '32808'
  place: '1253000'
  geo:
    lat: 28.60704
    lng: -81.42691
  phone: 407-293-4366
  sources:
  - acf/head-start-locations
  verified:
    'on': '2026-07-19'
    method: api
- id: fl/orlando/health-care-center-for-the-homeless
  name: HEALTH CARE CENTER FOR THE HOMELESS
  categories:
  - community-health-center
  address:
    street: 232 N Orange Blossom Trl
    city: Orlando
    state: fl
    zip: '32805'
  place: '1253000'
  geo:
    lat: 28.54538
    lng: -81.3977
  phone: 407-428-5751
  website: https://hcch.org
  external_ids:
    bphc: BPS-H80-002168
  sources:
  - hrsa/health-center-sites
  verified:
    'on': '2026-07-19'
    method: api
- id: fl/orlando/hoffner-health-center
  name: Hoffner Health Center
  categories:
  - community-health-center
  address:
    street: 5449 S Semoran Blvd, Suite 14
    city: Orlando
    state: fl
    zip: '32822'
  place: '1253000'
  geo:
    lat: 28.48352
    lng: -81.30868
  phone: 407-322-8645
  website: https://www.mytruehealth.org
  external_ids:
    bphc: BPS-H80-002909
  sources:
  - hrsa/health-center-sites
  verified:
    'on': '2026-07-19'
    method: api
- id: fl/orlando/ivey-lane-health-center
  name: Ivey Lane Health Center
  categories:
  - community-health-center
  address:
    street: 4426 Old Winter Garden Rd
    city: Orlando
    state: fl
    zip: '32811'
  place: '1253000'
  geo:
    lat: 28.5467
    lng: -81.4353
  phone: 407-428-5751
  external_ids:
    bphc: BPS-H80-027504
  sources:
  - hrsa/health-center-sites
  verified:
    'on': '2026-07-19'
    method: api
- id: fl/orlando/kids-village-pine-hills-ccp-3494
  name: Kids Village Pine Hills (CCP) 3494
  categories:
  - child-care
  address:
    street: 627 N Pine Hills Rd
    city: Orlando
    state: fl
    zip: '32808'
  place: '1253000'
  geo:
    lat: 28.55013
    lng: -81.44717
  phone: 407-295-4180
  sources:
  - acf/head-start-locations
  verified:
    'on': '2026-07-19'
    method: api
- id: fl/orlando/lake-baldwin-va-clinic-mental-health
  name: Lake Baldwin VA Clinic Mental Health
  categories:
  - su-treatment
  - mh-treatment
  address:
    street: 5201 Raymond Street
    city: Orlando
    state: fl
    zip: '32803'
  place: '1253000'
  geo:
    lat: 28.58042
    lng: -81.32169
  phone: 407-646-5500
  website: https://www.va.gov/orlando-health-care/locations/lake-baldwin-va-clinic
  sources:
  - samhsa/findtreatment
  verified:
    'on': '2026-07-19'
    method: api
- id: fl/orlando/lake-underhill-health-center
  name: Lake Underhill Health Center
  categories:
  - community-health-center
  address:
    street: 5730 Lake Underhill Rd
    city: Orlando
    state: fl
    zip: '32807'
  place: '1253000'
  geo:
    lat: 28.53858
    lng: -81.30933
  phone: 407-956-4320
  website: https://www.mytruehealth.org
  external_ids:
    bphc: BPS-H80-003444
  sources:
  - hrsa/health-center-sites
  verified:
    'on': '2026-07-19'
    method: api
- id: fl/orlando/lifeskills-orlando-lifeskills-orlando
  name: Lifeskills Orlando Lifeskills Orlando
  categories:
  - su-treatment
  - mh-treatment
  address:
    street: 119 Pasadena Place
    city: Orlando
    state: fl
    zip: '32803'
  place: '1253000'
  geo:
    lat: 28.5578
    lng: -81.37629
  phone: 954-834-5099
  website: https://lifeskillsbehavioralhealth.com/
  sources:
  - samhsa/findtreatment
  verified:
    'on': '2026-07-19'
    method: api
- id: fl/orlando/lila-mitchell-center
  name: Lila Mitchell Center
  categories:
  - child-care
  address:
    street: 5151 Raleigh St
    city: Orlando
    state: fl
    zip: '32811'
  place: '1253000'
  geo:
    lat: 28.52843
    lng: -81.44824
  phone: 407-245-9484
  sources:
  - acf/head-start-locations
  verified:
    'on': '2026-07-19'
    method: api
- id: fl/orlando/mccoy-elementary
  name: MCCOY ELEMENTARY
  categories:
  - child-care
  address:
    street: 5225 S Semoran Blvd
    city: Orlando
    state: fl
    zip: '32822'
  place: '1253000'
  geo:
    lat: 28.4866
    lng: -81.30851
  phone: 407-249-6370
  sources:
  - acf/head-start-locations
  verified:
    'on': '2026-07-19'
    method: api
- id: fl/orlando/metro-treatment-of-florida-lp-new-season-treatme
  name: Metro Treatment of Florida LP New Season Treatment Center 10
  categories:
  - su-treatment
  address:
    street: 1002 North Semoran Boulevard
    city: Orlando
    state: fl
    zip: '32807'
  place: '1253000'
  geo:
    lat: 28.56044
    lng: -81.31144
  phone: 689-710-6413
  website: https://www.newseason.com/
  sources:
  - samhsa/findtreatment
  verified:
    'on': '2026-07-19'
    method: api
- id: fl/orlando/millennia-elementary-head-start
  name: Millennia Elementary Head Start
  categories:
  - child-care
  address:
    street: 5301 Cypress Creek Dr
    city: Orlando
    state: fl
    zip: '32811'
  place: '1253000'
  geo:
    lat: 28.4859
    lng: -81.44462
  phone: 407-355-5730
  sources:
  - acf/head-start-locations
  verified:
    'on': '2026-07-19'
    method: api
- id: fl/orlando/mindful-care
  name: Mindful Care
  categories:
  - su-treatment
  - mh-treatment
  address:
    street: 450 South Orange Avenue
    city: Orlando
    state: fl
    zip: '32801'
  place: '1253000'
  geo:
    lat: 28.53706
    lng: -81.37934
  phone: 516-505-7200
  website: https://www.mindful.care
  sources:
  - samhsa/findtreatment
  verified:
    'on': '2026-07-19'
    method: api
- id: fl/orlando/mobile-dental-unit
  name: Mobile Dental Unit
  categories:
  - community-health-center
  address:
    street: Mobile Dental Unit
    city: Orlando
    state: fl
    zip: '32805'
  place: '1253000'
  geo:
    lat: 28.52915
    lng: -81.40435
  phone: 407-428-5751
  website: https://hcch.org
  external_ids:
    bphc: BPS-H80-008944
  sources:
  - hrsa/health-center-sites
  verified:
    'on': '2026-07-19'
    method: api
- id: fl/orlando/mobile-medical-units
  name: MOBILE MEDICAL UNITS
  categories:
  - community-health-center
  address:
    street: 232 N Orange Blossom Trl
    city: Orlando
    state: fl
    zip: '32805'
  place: '1253000'
  geo:
    lat: 28.54538
    lng: -81.3977
  phone: 407-428-5751
  website: https://hcch.org
  external_ids:
    bphc: BPS-H80-003969
  sources:
  - hrsa/health-center-sites
  verified:
    'on': '2026-07-19'
    method: api
- id: fl/orlando/npe-ferguson-center-3501
  name: NPE- Ferguson Center (3501)
  categories:
  - child-care
  address:
    street: 644 Ferguson Dr
    street2: '# 1'
    city: Orlando
    state: fl
    zip: '32805'
  place: '1253000'
  geo:
    lat: 28.55113
    lng: -81.42142
  phone: 407-377-0846
  sources:
  - acf/head-start-locations
  verified:
    'on': '2026-07-19'
    method: api
- id: fl/orlando/orange-county-housing-community-development
  name: Orange County Housing & Community Development
  categories:
  - housing-assistance
  address: {street: 525 E South St, city: Orlando, state: fl, zip: '32801'}
  description: Housing Choice Voucher (Section 8) agency
  place: '1253000'
  geo: {lat: 28.53862, lng: -81.37098}
  phone: 407-836-5150
  sources:
  - hud/resource-locator
  verified: {'on': '2026-07-19', method: api}
- id: fl/orlando/orlando-day-nursery-ehs-3493
  name: Orlando Day Nursery (EHS) 3493
  categories:
  - child-care
  address:
    street: 626 Lake Dot Cir
    city: Orlando
    state: fl
    zip: '32801'
  place: '1253000'
  geo:
    lat: 28.55205
    lng: -81.38768
  phone: 407-422-5291
  sources:
  - acf/head-start-locations
  verified:
    'on': '2026-07-19'
    method: api
- id: fl/orlando/orlando-day-nursery-npe-3499
  name: Orlando Day Nursery (NPE) 3499
  categories:
  - child-care
  address:
    street: 626 Lake Dot Cir
    city: Orlando
    state: fl
    zip: '32801'
  place: '1253000'
  geo:
    lat: 28.55213
    lng: -81.38797
  phone: 407-422-5291
  sources:
  - acf/head-start-locations
  verified:
    'on': '2026-07-19'
    method: api
- id: fl/orlando/orlando-health-the-healing-tree
  name: Orlando Health The Healing Tree
  categories:
  - su-treatment
  - mh-treatment
  address:
    street: 601 West Michigan Street
    city: Orlando
    state: fl
    zip: '32805'
  place: '1253000'
  geo:
    lat: 28.51501
    lng: -81.38699
  phone: 407-317-7430
  website: https://www.caccentral.com
  sources:
  - samhsa/findtreatment
  verified:
    'on': '2026-07-19'
    method: api
- id: fl/orlando/orlando-housing-authority
  name: Orlando Housing Authority
  categories:
  - housing-assistance
  address: {street: 390 N Bumby Ave, city: Orlando, state: fl, zip: '32803'}
  description: Public housing and Housing Choice Voucher agency
  place: '1253000'
  geo: {lat: 28.54663, lng: -81.35214}
  phone: 407-895-3300
  sources:
  - hud/resource-locator
  verified: {'on': '2026-07-19', method: api}
- id: fl/orlando/orlando-recovery-center-drug-and-alcohol-rehab
  name: Orlando Recovery Center Drug and Alcohol Rehab
  categories:
  - su-treatment
  - mh-treatment
  address:
    street: 6000 Lake Ellenor Drive
    city: Orlando
    state: fl
    zip: '32809'
  place: '1253000'
  geo:
    lat: 28.46949
    lng: -81.40296
  phone: 407-613-5555 x1449
  website: https://www.orlandorecovery.com
  sources:
  - samhsa/findtreatment
  verified:
    'on': '2026-07-19'
    method: api
- id: fl/orlando/orlando-steam-ccp-3489
  name: Orlando Steam (CCP) 3489
  categories:
  - child-care
  address:
    street: 5301 Goddard Ave
    city: Orlando
    state: fl
    zip: '32810'
  place: '1253000'
  geo:
    lat: 28.60788
    lng: -81.40015
  phone: 407-967-4774
  sources:
  - acf/head-start-locations
  verified:
    'on': '2026-07-19'
    method: api
- id: fl/orlando/orlando-steam-npe-3489
  name: Orlando Steam (NPE) 3489
  categories:
  - child-care
  address:
    street: 5301 Goddard Ave
    city: Orlando
    state: fl
    zip: '32810'
  place: '1253000'
  geo:
    lat: 28.60785
    lng: -81.40016
  phone: 407-967-4774
  sources:
  - acf/head-start-locations
  verified:
    'on': '2026-07-19'
    method: api
- id: fl/orlando/orlando-vamc-mental-health-116a
  name: Orlando VAMC Mental Health 116A
  categories:
  - su-treatment
  - mh-treatment
  address:
    street: 13800 Veterans Way
    city: Orlando
    state: fl
    zip: '32827'
  place: '1253000'
  geo:
    lat: 28.365
    lng: -81.2746
  phone: 407-631-1000
  website: https://www.va.gov/orlando-health-care/
  sources:
  - samhsa/findtreatment
  verified:
    'on': '2026-07-19'
    method: api
- id: fl/orlando/outlook-clinic
  name: Outlook Clinic
  categories:
  - su-treatment
  - mh-treatment
  address:
    street: 901 West Church Street
    city: Orlando
    state: fl
    zip: '32805'
  place: '1253000'
  geo:
    lat: 28.54036
    lng: -81.39225
  phone: 407-836-2542 x101
  website: https://www.mhacf.org
  sources:
  - samhsa/findtreatment
  verified:
    'on': '2026-07-19'
    method: api
- id: fl/orlando/pine-hills-community-center
  name: PINE HILLS COMMUNITY CENTER
  categories:
  - child-care
  address:
    street: 6408 Jennings Rd
    city: Orlando
    state: fl
    zip: '32818'
  place: '1253000'
  geo:
    lat: 28.5664
    lng: -81.46981
  phone: 407-254-9112
  sources:
  - acf/head-start-locations
  verified:
    'on': '2026-07-19'
    method: api
- id: fl/orlando/pine-hills-intensive-outpatient-specialized-trea
  name: Pine Hills Intensive Outpatient Specialized Treatment Educ/Prev Servs
  categories:
  - su-treatment
  - mh-treatment
  address:
    street: 1033 North Pine Hills Road
    city: Orlando
    state: fl
    zip: '32808'
  place: '1253000'
  geo:
    lat: 28.56033
    lng: -81.44943
  phone: 407-522-2144
  website: https://www.flsteps.org
  sources:
  - samhsa/findtreatment
  verified:
    'on': '2026-07-19'
    method: api
- id: fl/orlando/pregnant-women-ehs-3533
  name: Pregnant Women (EHS) 3533
  categories:
  - child-care
  address:
    street: 644 Ferguson Dr
    city: Orlando
    state: fl
    zip: '32805'
  place: '1253000'
  geo:
    lat: 28.55111
    lng: -81.42145
  phone: 407-257-4608
  sources:
  - acf/head-start-locations
  verified:
    'on': '2026-07-19'
    method: api
- id: fl/orlando/pregnant-women-npe-3501
  name: Pregnant Women (NPE) 3501
  categories:
  - child-care
  address:
    street: 644 Ferguson Dr
    city: Orlando
    state: fl
    zip: '32805'
  place: '1253000'
  geo:
    lat: 28.55111
    lng: -81.42145
  phone: 407-490-6820
  sources:
  - acf/head-start-locations
  verified:
    'on': '2026-07-19'
    method: api
- id: fl/orlando/riverside-head-start
  name: Riverside Head Start
  categories:
  - child-care
  address:
    street: 3125 Pembrook Dr
    city: Orlando
    state: fl
    zip: '32810'
  place: '1253000'
  geo:
    lat: 28.63391
    lng: -81.42069
  phone: 407-296-6520
  sources:
  - acf/head-start-locations
  verified:
    'on': '2026-07-19'
    method: api
- id: fl/orlando/south-orlando-ymca-head-start
  name: SOUTH ORLANDO YMCA HEAD START
  categories:
  - child-care
  address:
    street: 810 W Oak Ridge Rd
    city: Orlando
    state: fl
    zip: '32809'
  place: '1253000'
  geo:
    lat: 28.47195
    lng: -81.38912
  phone: 407-254-1017
  sources:
  - acf/head-start-locations
  verified:
    'on': '2026-07-19'
    method: api
- id: fl/orlando/southside-health-center
  name: Southside Health Center
  categories:
  - community-health-center
  address:
    street: 6101 Lake Ellenor Dr
    city: Orlando
    state: fl
    zip: '32809'
  place: '1253000'
  geo:
    lat: 28.46976
    lng: -81.40171
  phone: 407-322-8645
  website: https://www.mytruehealth.org
  external_ids:
    bphc: BPS-H80-003779
  sources:
  - hrsa/health-center-sites
  verified:
    'on': '2026-07-19'
    method: api
- id: fl/orlando/southwood-community-center
  name: SOUTHWOOD COMMUNITY CENTER
  categories:
  - child-care
  address:
    street: 6225 Brookgreen Ave
    city: Orlando
    state: fl
    zip: '32809'
  place: '1253000'
  geo:
    lat: 28.46747
    lng: -81.42925
  phone: 407-254-6768
  sources:
  - acf/head-start-locations
  verified:
    'on': '2026-07-19'
    method: api
- id: fl/orlando/steps-inc-prevention-services-inc
  name: STEPS Inc Prevention Services Inc
  categories:
  - su-treatment
  address:
    street: 1033 North Pine Hills Road
    city: Orlando
    state: fl
    zip: '32808'
  place: '1253000'
  geo:
    lat: 28.5603
    lng: -81.44942
  phone: 407-522-2144
  website: https://www.flsteps.org
  sources:
  - samhsa/findtreatment
  verified:
    'on': '2026-07-19'
    method: api
- id: fl/orlando/sunrise-detox-orlando
  name: Sunrise Detox Orlando
  categories:
  - su-treatment
  address:
    street: 2431 West Sand Lake Road
    city: Orlando
    state: fl
    zip: '32809'
  place: '1253000'
  geo:
    lat: 28.45182
    lng: -81.41566
  phone: 407-857-6117
  website: https://www.sunrisedetoxorlando.com
  sources:
  - samhsa/findtreatment
  verified:
    'on': '2026-07-19'
    method: api
- id: fl/orlando/taft-community-center
  name: TAFT COMMUNITY CENTER
  categories:
  - child-care
  address:
    street: 9450 S Orange Ave
    city: Orlando
    state: fl
    zip: '32824'
  place: '1253000'
  geo:
    lat: 28.42823
    lng: -81.37014
  phone: 407-254-9274
  sources:
  - acf/head-start-locations
  verified:
    'on': '2026-07-19'
    method: api
- id: fl/orlando/three-points-elementary
  name: THREE POINTS ELEMENTARY
  categories:
  - child-care
  address:
    street: 4001 S Goldenrod Rd
    city: Orlando
    state: fl
    zip: '32822'
  place: '1253000'
  geo:
    lat: 28.49103
    lng: -81.2827
  phone: 407-207-3800
  sources:
  - acf/head-start-locations
  verified:
    'on': '2026-07-19'
    method: api
- id: fl/orlando/total-health-guidance-llc
  name: Total Health Guidance LLC
  categories:
  - su-treatment
  - mh-treatment
  address:
    street: 5401 South Kirkman Road
    city: Orlando
    state: fl
    zip: '32819'
  place: '1253000'
  geo:
    lat: 28.48426
    lng: -81.45755
  phone: 321-332-6984
  website: https://www.totalhealthguidance.com
  sources:
  - samhsa/findtreatment
  verified:
    'on': '2026-07-19'
    method: api
- id: fl/orlando/true-health-hoffner
  name: True Health Hoffner
  categories:
  - su-treatment
  - mh-treatment
  address:
    street: 5449 South Semoran Boulevard
    city: Orlando
    state: fl
    zip: '32822'
  place: '1253000'
  geo:
    lat: 28.48379
    lng: -81.30816
  phone: 407-322-8645
  website: https://www.mytruehealth.org
  sources:
  - samhsa/findtreatment
  verified:
    'on': '2026-07-19'
    method: api
- id: fl/orlando/true-health-lake-underhill
  name: True Health Lake Underhill
  categories:
  - su-treatment
  - mh-treatment
  address:
    street: 5730 Lake Underhill Road
    city: Orlando
    state: fl
    zip: '32807'
  place: '1253000'
  geo:
    lat: 28.53842
    lng: -81.30925
  phone: 407-322-8645
  website: https://www.mytruehealth.org
  sources:
  - samhsa/findtreatment
  verified:
    'on': '2026-07-19'
    method: api
- id: fl/orlando/true-health-southside
  name: True Health Southside
  categories:
  - su-treatment
  - mh-treatment
  address:
    street: 6101 Lake Ellenor Drive
    city: Orlando
    state: fl
    zip: '32809'
  place: '1253000'
  geo:
    lat: 28.46988
    lng: -81.40189
  phone: 407-322-8645
  website: https://www.mytruehealth.org
  sources:
  - samhsa/findtreatment
  verified:
    'on': '2026-07-19'
    method: api
- id: fl/orlando/university-behavioral-center
  name: University Behavioral Center
  categories:
  - su-treatment
  - mh-treatment
  address:
    street: 2500 Discovery Drive
    city: Orlando
    state: fl
    zip: '32826'
  place: '1253000'
  geo:
    lat: 28.58183
    lng: -81.19301
  phone: 407-281-7000
  website: https://www.universitybehavioral.com
  sources:
  - samhsa/findtreatment
  verified:
    'on': '2026-07-19'
    method: api
- id: fl/orlando/ventura-elementary
  name: VENTURA ELEMENTARY
  categories:
  - child-care
  address:
    street: 4400 Woodgate Blvd
    city: Orlando
    state: fl
    zip: '32822'
  place: '1253000'
  geo:
    lat: 28.5005
    lng: -81.2975
  phone: 407-249-6400
  sources:
  - acf/head-start-locations
  verified:
    'on': '2026-07-19'
    method: api
- id: fl/orlando/washington-shores-early-learning-center-annex
  name: WASHINGTON SHORES EARLY LEARNING CENTER ANNEX
  categories:
  - child-care
  address:
    street: 2500 Bruton Blvd
    city: Orlando
    state: fl
    zip: '32805'
  place: '1253000'
  geo:
    lat: 28.51518
    lng: -81.42813
  phone: 407-250-6260
  sources:
  - acf/head-start-locations
  verified:
    'on': '2026-07-19'
    method: api
- id: fl/orlando/washington-shores-elementary
  name: WASHINGTON SHORES ELEMENTARY
  categories:
  - child-care
  address:
    street: 944 W Lake Mann Dr
    city: Orlando
    state: fl
    zip: '32805'
  place: '1253000'
  geo:
    lat: 28.529
    lng: -81.42291
  phone: 407-296-6540
  sources:
  - acf/head-start-locations
  verified:
    'on': '2026-07-19'
    method: api
- id: fl/orlando/west-oaks-elementary-head-start
  name: West Oaks Elementary Head Start
  categories:
  - child-care
  address:
    street: 905 Dorscher Rd
    city: Orlando
    state: fl
    zip: '32818'
  place: '1253000'
  geo:
    lat: 28.55681
    lng: -81.48339
  phone: 407-532-3875
  sources:
  - acf/head-start-locations
  verified:
    'on': '2026-07-19'
    method: api
- id: fl/orlando/whitesands-alcohol-and-drug-rehab-orlando
  name: WhiteSands Alcohol and Drug Rehab Orlando
  categories:
  - su-treatment
  - mh-treatment
  address:
    street: 56 East Pine Street
    city: Orlando
    state: fl
    zip: '32801'
  place: '1253000'
  geo:
    lat: 28.54116
    lng: -81.3778
  phone: 407-255-2351
  website: https://www.whitesandstreatment.com
  sources:
  - samhsa/findtreatment
  verified:
    'on': '2026-07-19'
    method: api
