- id: fl/palatka/aza-health
  name: AZA HEALTH
  categories:
  - community-health-center
  address:
    street: 1302 River St
    city: Palatka
    state: fl
    zip: '32177'
  place: '1253875'
  geo:
    lat: 29.63916
    lng: -81.64372
  phone: 386-328-8371
  website: https://www.azahealth.org
  external_ids:
    bphc: BPS-H80-000254
  sources:
  - hrsa/health-center-sites
  verified:
    'on': '2026-07-19'
    method: api
- id: fl/palatka/aza-health-2
  name: AZA HEALTH
  categories:
  - community-health-center
  address:
    street: 2503 President St
    city: Palatka
    state: fl
    zip: '32177'
  place: '1253875'
  geo:
    lat: 29.64155
    lng: -81.65507
  phone: 386-328-7638
  website: https://www.azahealth.org
  external_ids:
    bphc: BPS-H80-004953
  sources:
  - hrsa/health-center-sites
  verified:
    'on': '2026-07-19'
    method: api
- id: fl/palatka/aza-health-3
  name: AZA HEALTH
  categories:
  - community-health-center
  address:
    street: 146 Comfort Rd
    city: Palatka
    state: fl
    zip: '32177'
  place: '1253875'
  geo:
    lat: 29.67656
    lng: -81.65663
  phone: 386-328-0108
  website: https://www.azahealth.org
  external_ids:
    bphc: BPS-H80-031995
  sources:
  - hrsa/health-center-sites
  verified:
    'on': '2026-07-19'
    method: api
- id: fl/palatka/aza-health-mobile-medical
  name: Aza Health Mobile Medical
  categories:
  - community-health-center
  address:
    street: 146 Comfort Rd
    city: Palatka
    state: fl
    zip: '32177'
  place: '1253875'
  geo:
    lat: 29.67656
    lng: -81.65663
  phone: 386-328-0108
  website: https://www.azahealth.org
  external_ids:
    bphc: BPS-H80-037611
  sources:
  - hrsa/health-center-sites
  verified:
    'on': '2026-07-19'
    method: api
- id: fl/palatka/meridian-behavioral-healthcare-putnam-county-cli
  name: Meridian Behavioral Healthcare Putnam County Clinic
  categories:
  - su-treatment
  - mh-treatment
  address:
    street: 3314 Crill Avenue
    city: Palatka
    state: fl
    zip: '32177'
  place: '1253875'
  geo:
    lat: 29.64212
    lng: -81.66656
  phone: 352-374-5600
  website: https://www.mbhci.org
  sources:
  - samhsa/findtreatment
  verified:
    'on': '2026-07-19'
    method: api
- id: fl/palatka/palatka-housing-authority
  name: Palatka Housing Authority
  categories:
  - housing-assistance
  address: {street: 400 N 15th St, city: Palatka, state: fl, zip: '32177'}
  description: Public housing and Housing Choice Voucher agency
  place: '1253875'
  geo: {lat: 29.65185, lng: -81.64399}
  phone: 386-329-0132
  sources:
  - hud/resource-locator
  verified: {'on': '2026-07-19', method: api}
- id: fl/palatka/rcma-palatka-cdc
  name: RCMA Palatka CDC
  categories:
  - child-care
  address:
    street: 1200 Old Jacksonville Rd
    city: Palatka
    state: fl
    zip: '32177'
  place: '1253875'
  geo:
    lat: 29.6629
    lng: -81.65257
  phone: 386-312-2240
  sources:
  - acf/head-start-locations
  verified:
    'on': '2026-07-19'
    method: api
- id: fl/palatka/sma-outpatient-palatka
  name: SMA Outpatient Palatka
  categories:
  - su-treatment
  - mh-treatment
  address:
    street: 330 Kay Larkin Drive
    city: Palatka
    state: fl
    zip: '32177'
  place: '1253875'
  geo:
    lat: 29.65082
    lng: -81.6934
  phone: 800-539-4228
  website: https://www.smahealthcare.org
  sources:
  - samhsa/findtreatment
  verified:
    'on': '2026-07-19'
    method: api
