- id: fl/palm-springs/blessing-box
  name: Blessing Box
  categories:
  - food-pantry
  place: '1254450'
  geo:
    lat: 26.6397
    lng: -80.0983
  external_ids:
    lfp: '3602'
  sources:
  - littlefreepantry/map
  verified:
    'on': '2026-07-19'
    method: scrape
- id: fl/palm-springs/c-o-taylor-kirkland-elementary-school
  name: C.O. Taylor/Kirkland Elementary School
  categories:
  - meal-program
  address: {street: 4200 Purdy Ln, city: Palm Springs, state: fl, zip: '33461'}
  description: Free summer meals for kids and teens (2026 season) — sponsored by The School District of
    Palm Beach County.
  place: '1254450'
  geo: {lat: 26.64408, lng: -80.10723}
  phone: (561) 383-2000
  external_ids: {usda_master: Cycle 03_FL_SFSP_1731}
  sources:
  - usda/summer-meal-sites
  verified: {'on': '2026-07-19', method: api}
- id: fl/palm-springs/health-care-district-community-health-center-atl
  name: Health Care District Community Health Center - Atlantis
  categories:
  - community-health-center
  address:
    street: 4801 S Congress Ave, Suite 101
    city: Palm Springs
    state: fl
    zip: '33461'
  place: '1254450'
  geo:
    lat: 26.60488
    lng: -80.0901
  phone: 561-642-1000
  external_ids:
    bphc: BPS-H80-039137
  sources:
  - hrsa/health-center-sites
  verified:
    'on': '2026-07-19'
    method: api
- id: fl/palm-springs/palm-beach-preparatory-charter-academy
  name: Palm Beach Preparatory Charter Academy
  categories:
  - meal-program
  address: {street: 3525 S Congress Ave, city: Palm Springs, state: fl, zip: '33461'}
  description: Free summer meals for kids and teens (2026 season) — sponsored by The School District of
    Palm Beach County.
  place: '1254450'
  geo: {lat: 26.6244, lng: -80.08897}
  phone: (561) 383-2000
  external_ids: {usda_master: Cycle 05_FL_SFSP_2221}
  sources:
  - usda/summer-meal-sites
  verified: {'on': '2026-07-19', method: api}
- id: fl/palm-springs/palm-springs-elementary-school
  name: Palm Springs Elementary School
  categories:
  - meal-program
  address: {street: 101 Davis Rd, city: Palm Springs, state: fl, zip: '33461'}
  description: Free summer meals for kids and teens (2026 season) — sponsored by The School District of
    Palm Beach County.
  place: '1254450'
  geo: {lat: 26.62983, lng: -80.09685}
  phone: (561) 383-2000
  external_ids: {usda_master: Cycle 03_FL_SFSP_1702}
  sources:
  - usda/summer-meal-sites
  verified: {'on': '2026-07-19', method: api}
- id: fl/palm-springs/village-of-palm-spring
  name: Village Of Palm Spring
  categories:
  - meal-program
  address: {street: 226 Cypress Ln, city: Palm Springs, state: fl, zip: '33461'}
  description: Free summer meals for kids and teens (2026 season) — sponsored by Feeding South Florida.
  place: '1254450'
  geo: {lat: 26.64054, lng: -80.09562}
  phone: (561) 584-8452
  external_ids: {usda_master: Cycle 03_FL_SFSP_1119}
  sources:
  - usda/summer-meal-sites
  verified: {'on': '2026-07-19', method: api}
