- id: fl/palmetto/fldswr-palmetto-mshs
  name: FLDSWR Palmetto MSHS
  categories:
  - child-care
  address:
    street: 906 17th St W
    city: Palmetto
    state: fl
    zip: '34221'
  place: '1254250'
  geo:
    lat: 27.52984
    lng: -82.57411
  phone: 941-803-7910
  sources:
  - acf/head-start-locations
  verified:
    'on': '2026-07-19'
    method: api
- id: fl/palmetto/north-manatee-healthcare-center
  name: NORTH MANATEE HEALTHCARE CENTER
  categories:
  - community-health-center
  address:
    street: 5600 Bayshore Rd
    city: Palmetto
    state: fl
    zip: '34221'
  place: '1254250'
  geo:
    lat: 27.56422
    lng: -82.55559
  phone: 941-721-2020
  website: https://WWW.MCRHS.ORG
  external_ids:
    bphc: BPS-H80-001908
  sources:
  - hrsa/health-center-sites
  verified:
    'on': '2026-07-19'
    method: api
- id: fl/palmetto/palmetto-administrative-offices
  name: Palmetto Administrative Offices
  categories:
  - community-health-center
  address:
    street: 700 8th Ave W
    city: Palmetto
    state: fl
    zip: '34221'
  place: '1254250'
  geo:
    lat: 27.51791
    lng: -82.57292
  phone: 941-776-4000
  website: https://www.mcrhs.org
  external_ids:
    bphc: BPS-H80-012795
  sources:
  - hrsa/health-center-sites
  verified:
    'on': '2026-07-19'
    method: api
- id: fl/palmetto/palmetto-family-healthcare-ctr
  name: PALMETTO FAMILY HEALTHCARE CTR
  categories:
  - community-health-center
  address:
    street: 404 7th St W
    city: Palmetto
    state: fl
    zip: '34221'
  place: '1254250'
  geo:
    lat: 27.51773
    lng: -82.56777
  phone: 941-729-3856
  website: https://WWW.MCRHS.ORG
  external_ids:
    bphc: BPS-H80-000352
  sources:
  - hrsa/health-center-sites
  verified:
    'on': '2026-07-19'
    method: api
- id: fl/palmetto/rcma-palmetto-child-development-center
  name: RCMA Palmetto Child Development Center
  categories:
  - child-care
  address:
    street: 2725 16th Ave E
    city: Palmetto
    state: fl
    zip: '34221'
  place: '1254250'
  geo:
    lat: 27.53871
    lng: -82.55051
  phone: 941-723-4563
  sources:
  - acf/head-start-locations
  verified:
    'on': '2026-07-19'
    method: api
- id: fl/palmetto/rise-and-shine-early-learning-palmetto
  name: Rise and Shine Early Learning Palmetto
  categories:
  - child-care
  address:
    street: 1315 2nd Ave W
    city: Palmetto
    state: fl
    zip: '34221'
  place: '1254250'
  geo:
    lat: 27.52535
    lng: -82.56512
  phone: 941-750-6667
  sources:
  - acf/head-start-locations
  verified:
    'on': '2026-07-19'
    method: api
- id: fl/palmetto/rise-and-shine-palmetto
  name: Rise and Shine Palmetto
  categories:
  - child-care
  address:
    street: 1315 2nd Ave W
    city: Palmetto
    state: fl
    zip: '34221'
  place: '1254250'
  geo:
    lat: 27.52532
    lng: -82.56516
  phone: 941-750-6667
  sources:
  - acf/head-start-locations
  verified:
    'on': '2026-07-19'
    method: api
