- id: fl/port-richey/chasco-elementary-school
  name: CHASCO ELEMENTARY SCHOOL
  categories:
  - child-care
  address:
    street: 7906 Ridge Rd
    city: Port Richey
    state: fl
    zip: '34668'
  place: '1258600'
  geo:
    lat: 28.27905
    lng: -82.68546
  phone: 727-774-1200
  sources:
  - acf/head-start-locations
  verified:
    'on': '2026-07-19'
    method: api
- id: fl/port-richey/chasco-k-8
  name: Chasco K-8
  categories:
  - meal-program
  address: {street: 7702 Ridge Rd, city: Port Richey, state: fl, zip: '34668'}
  description: Free summer meals for kids and teens (2026 season) — sponsored by Pasco County School Board.
  place: '1258600'
  geo: {lat: 28.28036, lng: -82.68653}
  phone: (813) 794-1278
  external_ids: {usda_master: Cycle 03_FL_SFSP_0063}
  sources:
  - usda/summer-meal-sites
  verified: {'on': '2026-07-19', method: api}
- id: fl/port-richey/fox-hollow-elementary-school
  name: FOX HOLLOW ELEMENTARY SCHOOL
  categories:
  - child-care
  address:
    street: 8309 Fox Hollow Dr
    city: Port Richey
    state: fl
    zip: '34668'
  place: '1258600'
  geo:
    lat: 28.3022
    lng: -82.67751
  phone: 813-794-7600
  sources:
  - acf/head-start-locations
  verified:
    'on': '2026-07-19'
    method: api
- id: fl/port-richey/groups-recover-together
  name: Groups Recover Together
  categories:
  - su-treatment
  address:
    street: 8224 Washington Street
    city: Port Richey
    state: fl
    zip: '34668'
  place: '1258600'
  geo:
    lat: 28.27647
    lng: -82.71965
  phone: 727-335-1290
  website: https://www.joingroups.com
  sources:
  - samhsa/findtreatment
  verified:
    'on': '2026-07-19'
    method: api
- id: fl/port-richey/gulf-highlands-elementary
  name: Gulf Highlands Elementary
  categories:
  - child-care
  address:
    street: 8019 Gulf Highlands Dr
    city: Port Richey
    state: fl
    zip: '34668'
  place: '1258600'
  geo:
    lat: 28.32625
    lng: -82.68
  phone: 727-774-7700
  sources:
  - acf/head-start-locations
  verified:
    'on': '2026-07-19'
    method: api
- id: fl/port-richey/gulf-highlands-elementary-school
  name: Gulf Highlands Elementary School
  categories:
  - meal-program
  address: {street: 8019 Gulf Highlands Dr, city: Port Richey, state: fl, zip: '34668'}
  description: Free summer meals for kids and teens (2026 season) — sponsored by Pasco County School Board.
  place: '1258600'
  geo: {lat: 28.32563, lng: -82.68278}
  phone: (813) 974-7778
  external_ids: {usda_master: Cycle 03_FL_SFSP_0066}
  sources:
  - usda/summer-meal-sites
  verified: {'on': '2026-07-19', method: api}
- id: fl/port-richey/learning-lodge
  name: Learning Lodge
  categories:
  - meal-program
  address: {street: 5844 Pine Hill Rd, city: Port Richey, state: fl, zip: '34668'}
  description: Free summer meals for kids and teens (2026 season) — sponsored by Pasco County School Board.
  place: '1258600'
  geo: {lat: 28.27218, lng: -82.71748}
  phone: (813) 794-2281
  external_ids: {usda_master: Cycle 03_FL_SFSP_0090}
  sources:
  - usda/summer-meal-sites
  verified: {'on': '2026-07-19', method: api}
- id: fl/port-richey/operation-par-inc-medication-assisted-patient-se
  name: Operation PAR Inc Medication Assisted Patient Services
  categories:
  - su-treatment
  - mh-treatment
  address:
    street: 7720 Washington Street
    city: Port Richey
    state: fl
    zip: '34668'
  place: '1258600'
  geo:
    lat: 28.26923
    lng: -82.71918
  phone: 727-816-1200
  website: https://www.operationpar.org
  sources:
  - samhsa/findtreatment
  verified:
    'on': '2026-07-19'
    method: api
- id: fl/port-richey/premier-community-healthcare-group-inc-chasco-sc
  name: Premier Community HealthCare Group Inc. - Chasco School
  categories:
  - community-health-center
  address:
    street: 7702 Ridge Rd
    city: Port Richey
    state: fl
    zip: '34668'
  place: '1258600'
  geo:
    lat: 28.2793
    lng: -82.68652
  phone: 352-518-2000
  website: https://www.premierhc.org
  external_ids:
    bphc: BPS-H80-041045
  sources:
  - hrsa/health-center-sites
  verified:
    'on': '2026-07-19'
    method: api
