- id: fl/south-apopka/apopka-spanish-sda
  name: Apopka Spanish SDA
  org: fl/second-harvest-food-bank-of-central-florida-inc
  categories:
  - food-pantry
  place: '1267163'
  geo: {lat: 28.67844, lng: -81.51777}
  phone: 407-920-1783
  external_ids: {fl-second-harvest-food-bank-of-central-florida-inc: '496620926'}
  sources:
  - foodbank/fl-second-harvest-food-bank-of-central-florida-inc
  verified: {'on': '2026-07-21', method: api}
- id: fl/south-apopka/loaves-and-fishes
  name: Loaves and Fishes
  org: fl/second-harvest-food-bank-of-central-florida-inc
  categories:
  - food-pantry
  place: '1267163'
  geo: {lat: 28.668, lng: -81.50714}
  phone: 407-886-6005
  external_ids: {fl-second-harvest-food-bank-of-central-florida-inc: '496621143'}
  sources:
  - foodbank/fl-second-harvest-food-bank-of-central-florida-inc
  verified: {'on': '2026-07-21', method: api}
- id: fl/south-apopka/patmos-chapel-community-service-center
  name: Patmos Chapel Community Service Center
  org: fl/second-harvest-food-bank-of-central-florida-inc
  categories:
  - food-pantry
  place: '1267163'
  geo: {lat: 28.67593, lng: -81.52118}
  phone: 321-370-8583
  external_ids: {fl-second-harvest-food-bank-of-central-florida-inc: '496621191'}
  sources:
  - foodbank/fl-second-harvest-food-bank-of-central-florida-inc
  verified: {'on': '2026-07-21', method: api}
- id: fl/south-apopka/perfecting-community-development-corporation
  name: Perfecting Community Development Corporation
  org: fl/second-harvest-food-bank-of-central-florida-inc
  categories:
  - food-pantry
  place: '1267163'
  geo: {lat: 28.66107, lng: -81.49379}
  phone: 407-461-7432
  external_ids: {fl-second-harvest-food-bank-of-central-florida-inc: '496621196'}
  sources:
  - foodbank/fl-second-harvest-food-bank-of-central-florida-inc
  verified: {'on': '2026-07-21', method: api}
- id: fl/south-apopka/sheeler-oaks-sda-church
  name: Sheeler Oaks SDA Church
  org: fl/second-harvest-food-bank-of-central-florida-inc
  categories:
  - food-pantry
  place: '1267163'
  geo: {lat: 28.65087, lng: -81.49351}
  phone: 305-283-0068
  external_ids: {fl-second-harvest-food-bank-of-central-florida-inc: '496621239'}
  sources:
  - foodbank/fl-second-harvest-food-bank-of-central-florida-inc
  verified: {'on': '2026-07-21', method: api}
- id: fl/south-apopka/the-pantry-at-st-francis
  name: The Pantry at St. Francis
  org: fl/second-harvest-food-bank-of-central-florida-inc
  categories:
  - food-pantry
  place: '1267163'
  geo: {lat: 28.66586, lng: -81.48975}
  phone: 321-229-6888
  external_ids: {fl-second-harvest-food-bank-of-central-florida-inc: '496621293'}
  sources:
  - foodbank/fl-second-harvest-food-bank-of-central-florida-inc
  verified: {'on': '2026-07-21', method: api}
