- id: fl/titusville/bha-titusville-clinic
  name: BHA TITUSVILLE CLINIC
  categories:
  - community-health-center
  address:
    street: 1537 N Singleton Ave
    city: Titusville
    state: fl
    zip: '32796'
  place: '1271900'
  geo:
    lat: 28.63792
    lng: -80.84465
  phone: 321-268-0267
  website: https://www.brevardhealth.org
  external_ids:
    bphc: BPS-H80-031149
  sources:
  - hrsa/health-center-sites
  verified:
    'on': '2026-07-19'
    method: api
- id: fl/titusville/bha-titusville-dental-clinic
  name: BHA Titusville Dental Clinic
  categories:
  - community-health-center
  address:
    street: 611 N Singleton Ave
    city: Titusville
    state: fl
    zip: '32796'
  place: '1271900'
  geo:
    lat: 28.6218
    lng: -80.83863
  phone: 321-241-6800
  website: https://www.brevardhealth.org
  external_ids:
    bphc: BPS-H80-037810
  sources:
  - hrsa/health-center-sites
  verified:
    'on': '2026-07-19'
    method: api
- id: fl/titusville/central-florida-treatment-center-titusville-op-m
  name: Central Florida Treatment Center Titusville OP MAT
  categories:
  - su-treatment
  address:
    street: 1825 Jess Parrish Court
    city: Titusville
    state: fl
    zip: '32796'
  place: '1271900'
  geo:
    lat: 28.6273
    lng: -80.82224
  phone: 321-567-4460
  website: https://www.cfltreatmentcenters.org
  sources:
  - samhsa/findtreatment
  verified:
    'on': '2026-07-19'
    method: api
- id: fl/titusville/circles-of-care-inc-north-area-outpatient-clinic
  name: Circles of Care Inc North Area Outpatient Clinic
  categories:
  - su-treatment
  - mh-treatment
  address:
    street: 6700 South Washington Avenue
    city: Titusville
    state: fl
    zip: '32780'
  place: '1271900'
  geo:
    lat: 28.51568
    lng: -80.7864
  phone: 321-269-4590
  website: https://www.circlesofcare.org
  sources:
  - samhsa/findtreatment
  verified:
    'on': '2026-07-19'
    method: api
- id: fl/titusville/coquina-elementary
  name: Coquina Elementary
  categories:
  - child-care
  address:
    street: 850 Knox McRae Dr
    city: Titusville
    state: fl
    zip: '32780'
  place: '1271900'
  geo:
    lat: 28.56555
    lng: -80.81121
  phone: 321-264-3060
  sources:
  - acf/head-start-locations
  verified:
    'on': '2026-07-19'
    method: api
- id: fl/titusville/groups-recover-together
  name: Groups Recover Together
  categories:
  - su-treatment
  address:
    street: 4320 South Hopkins Avenue
    city: Titusville
    state: fl
    zip: '32780'
  place: '1271900'
  geo:
    lat: 28.56193
    lng: -80.80208
  phone: 321-250-3455
  website: https://www.joingroups.com
  sources:
  - samhsa/findtreatment
  verified:
    'on': '2026-07-19'
    method: api
- id: fl/titusville/housing-authority-of-the-city-of-titusville
  name: Housing Authority Of The City Of Titusville
  categories:
  - housing-assistance
  address: {street: 524 S Hopkins Ave, city: Titusville, state: fl, zip: '32796'}
  description: Public housing and Housing Choice Voucher agency
  place: '1271900'
  geo: {lat: 28.60974, lng: -80.80852}
  phone: 321-267-4204
  sources:
  - hud/resource-locator
  verified: {'on': '2026-07-19', method: api}
- id: fl/titusville/space-coast-health-centers-inc
  name: Space Coast Health Centers Inc
  categories:
  - su-treatment
  - mh-treatment
  address:
    street: 951 North Washington Avenue
    city: Titusville
    state: fl
    zip: '32796'
  place: '1271900'
  geo:
    lat: 28.63009
    lng: -80.82395
  phone: 321-268-6836
  website: https://
  sources:
  - samhsa/findtreatment
  verified:
    'on': '2026-07-19'
    method: api
- id: fl/titusville/space-coast-health-centers-titusville-main
  name: Space Coast Health Centers Titusville Main
  categories:
  - community-health-center
  address:
    street: 951 N Washington Ave STE 100
    city: Titusville
    state: fl
    zip: '32796'
  place: '1271900'
  geo:
    lat: 28.63092
    lng: -80.82409
  phone: 321-268-6836
  external_ids:
    bphc: BPS-LAL-036668
  sources:
  - hrsa/health-center-sites
  verified:
    'on': '2026-07-19'
    method: api
