- id: fl/union-park/4c-union-park
  name: 4C Union Park
  org: fl/second-harvest-food-bank-of-central-florida-inc
  categories:
  - food-pantry
  place: '1273075'
  geo: {lat: 28.56947, lng: -81.25001}
  phone: 407-207-1684
  external_ids: {fl-second-harvest-food-bank-of-central-florida-inc: '496620912'}
  sources:
  - foodbank/fl-second-harvest-food-bank-of-central-florida-inc
  verified: {'on': '2026-07-21', method: api}
- id: fl/union-park/hope-and-inspiration-center-inc
  name: Hope and Inspiration Center, Inc.
  org: fl/second-harvest-food-bank-of-central-florida-inc
  categories:
  - food-pantry
  place: '1273075'
  geo: {lat: 28.56763, lng: -81.26309}
  phone: 407-701-0042
  external_ids: {fl-second-harvest-food-bank-of-central-florida-inc: '496621075'}
  sources:
  - foodbank/fl-second-harvest-food-bank-of-central-florida-inc
  verified: {'on': '2026-07-21', method: api}
- id: fl/union-park/iglesia-canaan
  name: Iglesia Canaan
  org: fl/second-harvest-food-bank-of-central-florida-inc
  categories:
  - food-pantry
  place: '1273075'
  geo: {lat: 28.57217, lng: -81.24726}
  phone: 407-318-0401
  external_ids: {fl-second-harvest-food-bank-of-central-florida-inc: '496621095'}
  sources:
  - foodbank/fl-second-harvest-food-bank-of-central-florida-inc
  verified: {'on': '2026-07-21', method: api}
- id: fl/union-park/matthew-25-project-inc
  name: Matthew 25 Project Inc.
  org: fl/second-harvest-food-bank-of-central-florida-inc
  categories:
  - food-pantry
  place: '1273075'
  geo: {lat: 28.56402, lng: -81.24432}
  phone: 407-275-1771
  external_ids: {fl-second-harvest-food-bank-of-central-florida-inc: '496621152'}
  sources:
  - foodbank/fl-second-harvest-food-bank-of-central-florida-inc
  verified: {'on': '2026-07-21', method: api}
- id: fl/union-park/samaritan-resource-center
  name: Samaritan Resource Center
  org: fl/second-harvest-food-bank-of-central-florida-inc
  categories:
  - food-pantry
  place: '1273075'
  geo: {lat: 28.56956, lng: -81.24655}
  phone: 407-482-0600
  external_ids: {fl-second-harvest-food-bank-of-central-florida-inc: '496621232'}
  sources:
  - foodbank/fl-second-harvest-food-bank-of-central-florida-inc
  verified: {'on': '2026-07-21', method: api}
- id: fl/union-park/spirit-of-joy-ministries-inc
  name: Spirit of Joy Ministries, Inc.
  org: fl/second-harvest-food-bank-of-central-florida-inc
  categories:
  - food-pantry
  place: '1273075'
  geo: {lat: 28.56968, lng: -81.22343}
  phone: 407-930-8148
  external_ids: {fl-second-harvest-food-bank-of-central-florida-inc: '496621254'}
  sources:
  - foodbank/fl-second-harvest-food-bank-of-central-florida-inc
  verified: {'on': '2026-07-21', method: api}
