- id: ks/fort-scott/bourbon-county-0-3
  name: Bourbon County 0-3
  categories:
  - child-care
  address:
    street: 735 Scott Ave
    city: Fort Scott
    state: ks
    zip: '66701'
  place: '2024000'
  geo:
    lat: 37.83359
    lng: -94.70458
  sources:
  - acf/head-start-locations
  verified:
    'on': '2026-07-19'
    method: api
- id: ks/fort-scott/bourbon-county-3-5
  name: Bourbon County 3-5
  categories:
  - child-care
  address:
    street: 1919 Horton St
    city: Fort Scott
    state: ks
    zip: '66701'
  place: '2024000'
  geo:
    lat: 37.81745
    lng: -94.71356
  phone: 620-724-3046
  sources:
  - acf/head-start-locations
  verified:
    'on': '2026-07-19'
    method: api
- id: ks/fort-scott/community-health-center-of-se-ks-fort-scott
  name: Community Health Center of SE KS Fort Scott
  categories:
  - su-treatment
  - mh-treatment
  address:
    street: 2322 South Main Street
    city: Fort Scott
    state: ks
    zip: '66701'
  place: '2024000'
  geo:
    lat: 37.81188
    lng: -94.70698
  phone: 620-231-9873
  website: https://chcsek.org
  sources:
  - samhsa/findtreatment
  verified:
    'on': '2026-07-19'
    method: api
- id: ks/fort-scott/community-health-center-of-southeast-kansas-fort
  name: Community Health Center of Southeast Kansas/Fort Scott
  categories:
  - community-health-center
  address:
    street: 2322 S Main St
    city: Fort Scott
    state: ks
    zip: '66701'
  place: '2024000'
  geo:
    lat: 37.81188
    lng: -94.70696
  phone: 620-231-9873
  external_ids:
    bphc: BPS-H80-035204
  sources:
  - hrsa/health-center-sites
  verified:
    'on': '2026-07-19'
    method: api
- id: ks/fort-scott/fort-scott-housing-authority
  name: Fort Scott Housing Authority
  categories:
  - housing-assistance
  address: {street: 315 Scott Ave, city: Fort Scott, state: ks, zip: '66701'}
  description: Public housing (Low-Rent) agency
  place: '2024000'
  geo: {lat: 37.83865, lng: -94.70478}
  phone: 620-223-4570
  sources:
  - hud/resource-locator
  verified: {'on': '2026-07-19', method: api}
- id: ks/fort-scott/fort-scott-preschool-center
  name: Fort Scott Preschool Center
  categories:
  - child-care
  address:
    street: 10 W 4th St
    city: Fort Scott
    state: ks
    zip: '66701'
  place: '2024000'
  geo:
    lat: 37.83752
    lng: -94.70826
  phone: 620-223-4440
  sources:
  - acf/head-start-locations
  verified:
    'on': '2026-07-19'
    method: api
- id: ks/fort-scott/southeast-kansas-mental-health-center
  name: Southeast Kansas Mental Health Center
  categories:
  - su-treatment
  - mh-treatment
  address:
    street: 401 Woodland Hills Boulevard
    city: Fort Scott
    state: ks
    zip: '66701'
  place: '2024000'
  geo:
    lat: 37.80636
    lng: -94.71005
  phone: 620-365-5717
  website: https://sekmhc.org
  sources:
  - samhsa/findtreatment
  verified:
    'on': '2026-07-19'
    method: api
