- id: ks/garden-city/cedar-site
  name: Cedar Site
  categories:
  - child-care
  address:
    street: 603 E Cedar St
    city: Garden City
    state: ks
    zip: '67846'
  place: '2025325'
  geo:
    lat: 37.96952
    lng: -100.86622
  phone: 620-272-9611
  sources:
  - acf/head-start-locations
  verified:
    'on': '2026-07-19'
    method: api
- id: ks/garden-city/city-on-a-hill-inc
  name: City on a Hill Inc
  categories:
  - su-treatment
  address:
    street: 116 1/2 Chestnut Street
    city: Garden City
    state: ks
    zip: '67846'
  place: '2025325'
  geo:
    lat: 37.96623
    lng: -100.87324
  phone: 620-276-0840
  website: https://www.cityonahillinc.com
  sources:
  - samhsa/findtreatment
  verified:
    'on': '2026-07-19'
    method: api
- id: ks/garden-city/compass-behavioral-health
  name: Compass Behavioral Health
  categories:
  - su-treatment
  - mh-treatment
  address:
    street: 1111 East Spruce Street
    city: Garden City
    state: ks
    zip: '67846'
  place: '2025325'
  geo:
    lat: 37.96843
    lng: -100.86018
  phone: 620-276-7689
  website: https://compassbh.org
  sources:
  - samhsa/findtreatment
  verified:
    'on': '2026-07-19'
    method: api
- id: ks/garden-city/east-2-3
  name: East 2 & 3
  categories:
  - child-care
  address:
    street: 4101 E US Highway 50
    street2: Lot 620
    city: Garden City
    state: ks
    zip: '67846'
  place: '2025325'
  geo:
    lat: 37.96071
    lng: -100.82273
  phone: 620-277-7148
  sources:
  - acf/head-start-locations
  verified:
    'on': '2026-07-19'
    method: api
- id: ks/garden-city/garden-city-administration-office
  name: Garden City Administration Office
  categories:
  - community-health-center
  address:
    street: 1607 Buffalo Jones Ave
    city: Garden City
    state: ks
    zip: '67846'
  place: '2025325'
  geo:
    lat: 37.97695
    lng: -100.88866
  phone: 620-271-7400
  external_ids:
    bphc: BPS-H80-032714
  sources:
  - hrsa/health-center-sites
  verified:
    'on': '2026-07-19'
    method: api
- id: ks/garden-city/garden-city-community-college
  name: Garden City Community College
  categories:
  - community-health-center
  address:
    street: 801 N Campus Dr
    city: Garden City
    state: ks
    zip: '67846'
  place: '2025325'
  geo:
    lat: 37.97022
    lng: -100.84818
  phone: 620-276-7611
  external_ids:
    bphc: BPS-H80-030092
  sources:
  - hrsa/health-center-sites
  verified:
    'on': '2026-07-19'
    method: api
- id: ks/garden-city/garden-city-dental-clinic
  name: Garden City Dental Clinic
  categories:
  - community-health-center
  address:
    street: 2510 N Henderson Dr
    city: Garden City
    state: ks
    zip: '67846'
  place: '2025325'
  geo:
    lat: 37.98911
    lng: -100.85031
  phone: 620-055-2677
  website: https://www.genesisfamilyhealth.org
  external_ids:
    bphc: BPS-H80-031282
  sources:
  - hrsa/health-center-sites
  verified:
    'on': '2026-07-19'
    method: api
- id: ks/garden-city/garden-city-housing-authority
  name: Garden City Housing Authority
  categories:
  - housing-assistance
  address: {street: 606 Pershing Ave, city: Garden City, state: ks, zip: '67846'}
  description: Public housing (Low-Rent) agency
  place: '2025325'
  geo: {lat: 37.97589, lng: -100.86457}
  phone: 620-276-1240
  sources:
  - hud/resource-locator
  verified: {'on': '2026-07-19', method: api}
- id: ks/garden-city/garfield
  name: Garfield
  categories:
  - child-care
  address:
    street: 121 W Walnut St
    city: Garden City
    state: ks
    zip: '67846'
  place: '2025325'
  geo:
    lat: 37.97318
    lng: -100.87446
  phone: 620-276-3232
  sources:
  - acf/head-start-locations
  verified:
    'on': '2026-07-19'
    method: api
- id: ks/garden-city/gc-high-school-school-based-site
  name: GC High School School Based Site
  categories:
  - community-health-center
  address:
    street: 2720 Buffalo Way Blvd
    city: Garden City
    state: ks
    zip: '67846'
  place: '2025325'
  geo:
    lat: 37.99267
    lng: -100.84103
  phone: 620-271-7400
  external_ids:
    bphc: BPS-H80-035205
  sources:
  - hrsa/health-center-sites
  verified:
    'on': '2026-07-19'
    method: api
- id: ks/garden-city/genesis-family-health-care-center-medical-clinic
  name: Genesis Family Health Care Center & Medical Clinic
  categories:
  - community-health-center
  address:
    street: 712A Saint John St
    city: Garden City
    state: ks
    zip: '67846'
  place: '2025325'
  geo:
    lat: 37.96887
    lng: -100.88254
  phone: 620-275-1766
  website: https://www.genesisfamilyhealth.org
  external_ids:
    bphc: BPS-H80-004374
  sources:
  - hrsa/health-center-sites
  verified:
    'on': '2026-07-19'
    method: api
- id: ks/garden-city/horace-good-middle-school-school-based-site
  name: Horace Good Middle School School Based Site
  categories:
  - community-health-center
  address:
    street: 1412 N Main St
    city: Garden City
    state: ks
    zip: '67846'
  place: '2025325'
  geo:
    lat: 37.97822
    lng: -100.86858
  phone: 620-271-7400
  external_ids:
    bphc: BPS-H80-035389
  sources:
  - hrsa/health-center-sites
  verified:
    'on': '2026-07-19'
    method: api
- id: ks/garden-city/kenneth-henderson-middle-school-school-based-sit
  name: Kenneth Henderson Middle School School Based Site
  categories:
  - community-health-center
  address:
    street: 2406 Fleming St
    city: Garden City
    state: ks
    zip: '67846'
  place: '2025325'
  geo:
    lat: 37.98762
    lng: -100.85311
  phone: 620-271-7400
  external_ids:
    bphc: BPS-H80-035850
  sources:
  - hrsa/health-center-sites
  verified:
    'on': '2026-07-19'
    method: api
