- id: ks/larned/center-for-csl-and-consultation
  name: Center for Csl and Consultation
  categories:
  - su-treatment
  - mh-treatment
  address:
    street: 606 Topeka Street
    city: Larned
    state: ks
    zip: '67550'
  place: '2038700'
  geo:
    lat: 38.17985
    lng: -99.09673
  phone: 620-792-2544
  website: https://www.thecentergb.org
  sources:
  - samhsa/findtreatment
  verified:
    'on': '2026-07-19'
    method: api
- id: ks/larned/larned-clinic-site
  name: Larned Clinic Site
  categories:
  - community-health-center
  address:
    street: 522 Broadway St
    city: Larned
    state: ks
    zip: '67550'
  place: '2038700'
  geo:
    lat: 38.1794
    lng: -99.09808
  phone: 620-804-6100
  external_ids:
    bphc: BPS-H80-021346
  sources:
  - hrsa/health-center-sites
  verified:
    'on': '2026-07-19'
    method: api
- id: ks/larned/larned-state-hospital
  name: Larned State Hospital
  categories:
  - su-treatment
  - mh-treatment
  address:
    street: 1301 Kansas Highway 264
    city: Larned
    state: ks
    zip: '67550'
  place: '2038700'
  geo:
    lat: 38.18733
    lng: -99.10271
  phone: 620-285-2131
  website: https://www.larnedcares.com/
  sources:
  - samhsa/findtreatment
  verified:
    'on': '2026-07-19'
    method: api
- id: ks/larned/larned-summer-school
  name: Larned Summer School
  categories:
  - meal-program
  address: {street: 2104 Broadway, city: Larned, state: ks, zip: '67550'}
  description: Free summer meals for kids and teens (2026 season) — sponsored by X0403 - Larned UMC.
  place: '2038700'
  geo: {lat: 38.19664, lng: -99.09839}
  phone: (620) 804-0673
  external_ids: {usda_master: Cycle 11_KS_SFSP_0360}
  sources:
  - usda/summer-meal-sites
  verified: {'on': '2026-07-19', method: api}
- id: ks/larned/larned-umc
  name: Larned Umc
  categories:
  - meal-program
  address: {street: 701 Main Street, city: Larned, state: ks, zip: '67550'}
  description: Free summer meals for kids and teens (2026 season) — sponsored by X0403 - Larned UMC.
  place: '2038700'
  geo: {lat: 38.18111, lng: -99.09972}
  phone: (571) 344-5187
  external_ids: {usda_master: Cycle 01_KS_SFSP_0229}
  sources:
  - usda/summer-meal-sites
  verified: {'on': '2026-07-19', method: api}
