- id: ks/lawrence/avalon-wellness-and-recovery
  name: Avalon Wellness and Recovery
  categories:
  - su-treatment
  address:
    street: 801 Iowa Street
    city: Lawrence
    state: ks
    zip: '66049'
  place: '2038900'
  geo:
    lat: 38.96904
    lng: -95.26111
  phone: 785-340-0300
  website: https://www.avalonwrc.com
  sources:
  - samhsa/findtreatment
  verified:
    'on': '2026-07-19'
    method: api
- id: ks/lawrence/bert-nash-comm-mental-health-ctr
  name: Bert Nash Comm Mental Health Ctr
  categories:
  - su-treatment
  - mh-treatment
  address:
    street: 200 Maine Street
    city: Lawrence
    state: ks
    zip: '66044'
  place: '2038900'
  geo:
    lat: 38.9795
    lng: -95.24683
  phone: 785-843-9192
  website: https://www.bertnash.org
  sources:
  - samhsa/findtreatment
  verified:
    'on': '2026-07-19'
    method: api
- id: ks/lawrence/bhg-lawrence-treatment-center
  name: BHG Lawrence Treatment Center
  categories:
  - su-treatment
  address:
    street: 1910 Haskell Avenue
    city: Lawrence
    state: ks
    zip: '66046'
  place: '2038900'
  geo:
    lat: 38.94878
    lng: -95.22233
  phone: 785-856-4357
  website: https://www.bhgrecovery.com/locations/lawrence
  sources:
  - samhsa/findtreatment
  verified:
    'on': '2026-07-19'
    method: api
- id: ks/lawrence/children-s-learning-center
  name: Children's Learning Center
  categories:
  - child-care
  address:
    street: 205 N Michigan St
    city: Lawrence
    state: ks
    zip: '66044'
  place: '2038900'
  geo:
    lat: 38.98481
    lng: -95.25204
  phone: 784-785-5867
  sources:
  - acf/head-start-locations
  verified:
    'on': '2026-07-19'
    method: api
- id: ks/lawrence/dccca-inc-first-step-at-lake-view
  name: DCCCA Inc First Step at Lake View
  categories:
  - su-treatment
  address:
    street: 3015 West 31st Street
    city: Lawrence
    state: ks
    zip: '66047'
  place: '2038900'
  geo:
    lat: 38.92599
    lng: -95.2739
  phone: 785-843-9262
  website: https://www.dccca.org
  sources:
  - samhsa/findtreatment
  verified:
    'on': '2026-07-19'
    method: api
- id: ks/lawrence/dccca-inc-lawrence-outpatient-treatment-services
  name: DCCCA Inc Lawrence Outpatient Treatment Services
  categories:
  - su-treatment
  address:
    street: 1739 East 23rd Street
    city: Lawrence
    state: ks
    zip: '66046'
  place: '2038900'
  geo:
    lat: 38.94147
    lng: -95.21262
  phone: 785-830-8238
  website: https://www.dccca.org
  sources:
  - samhsa/findtreatment
  verified:
    'on': '2026-07-19'
    method: api
- id: ks/lawrence/douglas-co-head-start
  name: Douglas Co. Head Start
  categories:
  - child-care
  address:
    street: 925 Vermont St
    city: Lawrence
    state: ks
    zip: '66044'
  place: '2038900'
  geo:
    lat: 38.9666
    lng: -95.23735
  phone: 785-842-2515
  sources:
  - acf/head-start-locations
  verified:
    'on': '2026-07-19'
    method: api
- id: ks/lawrence/douglas-co-head-start-2-kennedy-elementary
  name: 'Douglas Co. Head Start #2 - Kennedy Elementary'
  categories:
  - child-care
  address:
    street: 1605 Davis Rd
    city: Lawrence
    state: ks
    zip: '66046'
  place: '2038900'
  geo:
    lat: 38.94722
    lng: -95.21598
  phone: 785-842-2515
  sources:
  - acf/head-start-locations
  verified:
    'on': '2026-07-19'
    method: api
- id: ks/lawrence/douglas-co-home-based
  name: Douglas Co. Home Based
  categories:
  - child-care
  address:
    street: 2518 Ridge Ct
    city: Lawrence
    state: ks
    zip: '66046'
  place: '2038900'
  geo:
    lat: 38.93783
    lng: -95.25771
  phone: 785-727-8352
  sources:
  - acf/head-start-locations
  verified:
    'on': '2026-07-19'
    method: api
- id: ks/lawrence/douglas-county-fairgrounds
  name: Douglas County Fairgrounds
  categories:
  - meal-program
  address:
    street: 2110 Harper St.
    city: Lawrence
    state: ks
    zip: '66046'
  description: Free summer meals for kids and teens (2026 season) — sponsored by D0497 - Lawrence.
  place: '2038900'
  geo:
    lat: 38.94704
    lng: -95.21415
  phone: (785) 832-5000
  external_ids:
    usda_master: Cycle 02_KS_SFSP_0229
  sources:
  - usda/summer-meal-sites
  verified:
    'on': '2026-07-19'
    method: api
- id: ks/lawrence/heartland-at-534-michigan
  name: Heartland at 534 Michigan
  categories:
  - community-health-center
  address:
    street: 534 Michigan St
    city: Lawrence
    state: ks
    zip: '66044'
  place: '2038900'
  geo:
    lat: 38.97438
    lng: -95.25103
  phone: 785-841-7297
  external_ids:
    bphc: BPS-H80-036870
  sources:
  - hrsa/health-center-sites
  verified:
    'on': '2026-07-19'
    method: api
- id: ks/lawrence/heartland-at-panda-pediatrics
  name: Heartland at Panda Pediatrics
  categories:
  - community-health-center
  address:
    street: 1803 W 6th St
    city: Lawrence
    state: ks
    zip: '66044'
  place: '2038900'
  geo:
    lat: 38.97206
    lng: -95.25626
  phone: 785-841-7297
  external_ids:
    bphc: BPS-H80-031625
  sources:
  - hrsa/health-center-sites
  verified:
    'on': '2026-07-19'
    method: api
- id: ks/lawrence/heartland-community-health-center-6th-street
  name: Heartland Community Health Center - 6th Street
  categories:
  - community-health-center
  address:
    street: 1312 W 6th St
    city: Lawrence
    state: ks
    zip: '66044'
  place: '2038900'
  geo:
    lat: 38.97378
    lng: -95.25063
  phone: 785-841-7297
  external_ids:
    bphc: BPS-H80-033123
  sources:
  - hrsa/health-center-sites
  verified:
    'on': '2026-07-19'
    method: api
- id: ks/lawrence/lawrence-douglas-county-housing-authority
  name: Lawrence/Douglas County Housing Authority
  categories:
  - housing-assistance
  address:
    street: 1600 Haskell Ave
    city: Lawrence
    state: ks
    zip: '66044'
  description: Public housing and Housing Choice Voucher agency
  place: '2038900'
  geo:
    lat: 38.95497
    lng: -95.22331
  phone: 785-842-8110
  sources:
  - hud/resource-locator
  verified:
    'on': '2026-07-19'
    method: api
- id: ks/lawrence/lawrence-va-clinic
  name: Lawrence VA Clinic
  categories:
  - va-facility
  - health
  description: Multi-Specialty CBOC
  address: {street: 4821 Quail Crest Place, city: Lawrence, state: ks, zip: '66049'}
  place: '2038900'
  geo: {lat: 38.96013, lng: -95.30544}
  phone: 800-574-8387
  website: https://www.va.gov/eastern-kansas-health-care/locations/lawrence-va-clinic/
  hours:
  - {days: [mon, tue, wed, thu, fri], open: '08:00', close: '16:30'}
  services:
  - Audiology and speech
  - Cardiology
  - Chiropractic
  - Complementary and integrative health
  - Dermatology
  - Laboratory and pathology
  - Mental health care
  - My HealtheVet coordinator
  - Pharmacy
  - Primary care
  - Social work
  - Telehealth
  - Women Veteran care
  external_ids: {va: vha_589GU}
  sources:
  - va/facilities-api
  verified: {'on': '2026-07-19', method: api}
- id: ks/lawrence/sunset-hill-elementary
  name: Sunset Hill Elementary
  categories:
  - meal-program
  address:
    street: 901 Schwarz Rd
    city: Lawrence
    state: ks
    zip: '66049'
  description: Free summer meals for kids and teens (2026 season) — sponsored by D0497 - Lawrence.
  place: '2038900'
  geo:
    lat: 38.96725
    lng: -95.2697
  phone: (785) 832-5000
  external_ids:
    usda_master: Cycle 02_KS_SFSP_0228
  sources:
  - usda/summer-meal-sites
  verified:
    'on': '2026-07-19'
    method: api
- id: ks/lawrence/vetsuccess-on-campus-at-university-of-kansas
  name: VetSuccess on Campus at University of Kansas
  categories:
  - va-facility
  description: VetSuccess On Campus
  address: {street: '1300 Sunnyside Ave., KU Military-Affiliated Student Center', city: Lawrence, state: ks,
    zip: '66045'}
  place: '2038900'
  geo: {lat: 38.95563, lng: -95.24981}
  phone: 785-864-0903
  services:
  - ApplyingForBenefits
  - EducationAndCareerCounseling
  - EducationClaimAssistance
  - VocationalRehabilitationAndEmploymentAssistance
  external_ids: {va: vba_452c}
  sources:
  - va/facilities-api
  verified: {'on': '2026-07-19', method: api}
