- id: ks/shawnee/johnson-county-mental-health-center
  name: Johnson County Mental Health Center
  categories:
  - su-treatment
  - mh-treatment
  address:
    street: 6440 Nieman Road
    city: Shawnee
    state: ks
    zip: '66203'
  place: '2064500'
  geo:
    lat: 39.01155
    lng: -94.71543
  phone: 913-826-4200
  website: https://www.jocogov.org/dept/mental-health/home
  sources:
  - samhsa/findtreatment
  verified:
    'on': '2026-07-19'
    method: api
- id: ks/shawnee/johnson-county-mental-health-center-adult-detox
  name: Johnson County Mental Health Center Adult Detox Unit
  categories:
  - su-treatment
  - mh-treatment
  address:
    street: 11120 West 65th Street
    city: Shawnee
    state: ks
    zip: '66203'
  place: '2064500'
  geo:
    lat: 39.01156
    lng: -94.71704
  phone: 913-826-4100
  website: https://www.jocogov.org
  sources:
  - samhsa/findtreatment
  verified:
    'on': '2026-07-19'
    method: api
- id: ks/shawnee/mirror-inc-shawnee-residential
  name: Mirror Inc Shawnee Residential
  categories:
  - su-treatment
  address:
    street: 6221 Richards Drive
    city: Shawnee
    state: ks
    zip: '66216'
  place: '2064500'
  geo:
    lat: 39.0158
    lng: -94.73677
  phone: 913-248-1943
  website: https://www.mirrorinc.org
  sources:
  - samhsa/findtreatment
  verified:
    'on': '2026-07-19'
    method: api
- id: ks/shawnee/shawanoe-elementary-school
  name: Shawanoe Elementary School
  categories:
  - meal-program
  address:
    street: 11230 W 75Th
    city: Shawnee
    state: ks
    zip: '66214'
  description: Free summer meals for kids and teens (2026 season) — sponsored by D0512 - Shawnee Mission.
  place: '2064500'
  geo:
    lat: 38.99289
    lng: -94.71756
  phone: (913) 993-5104
  external_ids:
    usda_master: Cycle 01_KS_SFSP_0212
  sources:
  - usda/summer-meal-sites
  verified:
    'on': '2026-07-19'
    method: api
- id: ks/shawnee/shawnee-va-clinic
  name: Shawnee VA Clinic
  categories:
  - va-facility
  - health
  description: Other Outpatient Services (OOS)
  address: {street: 6830 Anderson Street, city: Shawnee, state: ks, zip: '66226'}
  place: '2064500'
  geo: {lat: 39.00596, lng: -94.84783}
  phone: 816-922-2750
  website: https://www.va.gov/kansas-city-health-care/locations/shawnee-va-clinic/
  hours:
  - {days: [mon, tue, wed, thu, fri], open: '08:00', close: '16:30'}
  external_ids: {va: vha_589JC}
  sources:
  - va/facilities-api
  verified: {'on': '2026-07-19', method: api}
