- id: ak/anchorage/alphabet-mafia-and-allies
  name: Alphabet Mafia and Allies
  program: na
  categories:
  - recovery-meeting
  schedule:
  - {day: sat, time: '18:00', duration_min: 60}
  format: in-person
  types:
  - o
  - cl
  - lgbt
  - wc
  venue_name: St. Mary's Episcopal Church
  venue: {street: 2222 E Tudor Rd, city: Anchorage, state: ak, zip: '99507'}
  place: '0203000'
  geo: {lat: 61.1799, lng: -149.83917}
  external_ids: {bmlt: '38:18674'}
  sources:
  - bmlt/aggregator
  verified: {'on': '2026-07-19', method: api}
- id: ak/anchorage/clean-and-serene
  name: Clean and Serene
  program: na
  categories:
  - recovery-meeting
  schedule:
  - {day: sun, time: '20:00', duration_min: 60}
  format: in-person
  types:
  - o
  - wc
  venue_name: Now meeting in the Education Center
  venue: {street: 818 West 5th Avenue, city: Anchorage, state: ak, zip: '99501'}
  place: '0203000'
  geo: {lat: 61.21752, lng: -149.89834}
  external_ids: {bmlt: '38:18307'}
  sources:
  - bmlt/aggregator
  verified: {'on': '2026-07-19', method: api}
- id: ak/anchorage/eagle-river-group
  name: Eagle River Group
  program: na
  categories:
  - recovery-meeting
  schedule:
  - {day: mon, time: '18:30', duration_min: 60}
  format: in-person
  types:
  - o
  - wc
  venue: {street: 10111 East Eagle River Loop Road, city: Anchorage, state: ak, zip: '99577'}
  place: '0203000'
  geo: {lat: 61.31167, lng: -149.53874}
  external_ids: {bmlt: '38:18314'}
  sources:
  - bmlt/aggregator
  verified: {'on': '2026-07-19', method: api}
- id: ak/anchorage/eagle-river-group-2
  name: Eagle River Group
  program: na
  categories:
  - recovery-meeting
  schedule:
  - {day: wed, time: '18:30', duration_min: 60}
  format: in-person
  types:
  - o
  - wc
  venue: {street: 10111 East Eagle River Loop Road, city: Anchorage, state: ak, zip: '99577'}
  place: '0203000'
  geo: {lat: 61.31167, lng: -149.53874}
  external_ids: {bmlt: '38:18342'}
  sources:
  - bmlt/aggregator
  verified: {'on': '2026-07-19', method: api}
- id: ak/anchorage/eagle-river-group-3
  name: Eagle River Group
  program: na
  categories:
  - recovery-meeting
  schedule:
  - {day: fri, time: '18:30', duration_min: 60}
  format: in-person
  types:
  - o
  - wc
  venue: {street: 10111 East Eagle River Loop Road, city: Anchorage, state: ak, zip: '99577'}
  place: '0203000'
  geo: {lat: 61.31167, lng: -149.53874}
  external_ids: {bmlt: '38:18380'}
  sources:
  - bmlt/aggregator
  verified: {'on': '2026-07-19', method: api}
- id: ak/anchorage/frozen-chozen
  name: Frozen Chozen
  program: na
  categories:
  - recovery-meeting
  schedule:
  - {day: mon, time: '19:30', duration_min: 60}
  format: in-person
  types:
  - o
  - wc
  venue: {street: 8141 Briarwood Street, city: Anchorage, state: ak, zip: '99518'}
  place: '0203000'
  geo: {lat: 61.14673, lng: -149.86007}
  external_ids: {bmlt: '38:18319'}
  sources:
  - bmlt/aggregator
  verified: {'on': '2026-07-19', method: api}
- id: ak/anchorage/frozen-chozen-2
  name: Frozen Chozen
  program: na
  categories:
  - recovery-meeting
  schedule:
  - {day: tue, time: '19:30', duration_min: 60}
  format: in-person
  types:
  - o
  - wc
  venue: {street: 8141 Briarwood Street, city: Anchorage, state: ak, zip: '99518'}
  place: '0203000'
  geo: {lat: 61.14673, lng: -149.86007}
  external_ids: {bmlt: '38:18334'}
  sources:
  - bmlt/aggregator
  verified: {'on': '2026-07-19', method: api}
- id: ak/anchorage/frozen-chozen-3
  name: Frozen Chozen
  program: na
  categories:
  - recovery-meeting
  schedule:
  - {day: wed, time: '19:30', duration_min: 60}
  format: in-person
  types:
  - o
  - st
  - wc
  venue: {street: 8141 Briarwood Street, city: Anchorage, state: ak, zip: '99518'}
  place: '0203000'
  geo: {lat: 61.14673, lng: -149.86007}
  external_ids: {bmlt: '38:18349'}
  sources:
  - bmlt/aggregator
  verified: {'on': '2026-07-19', method: api}
- id: ak/anchorage/frozen-chozen-4
  name: Frozen Chozen
  program: na
  categories:
  - recovery-meeting
  schedule:
  - {day: thu, time: '19:30', duration_min: 60}
  format: in-person
  types:
  - o
  - wc
  venue: {street: 8141 Briarwood Street, city: Anchorage, state: ak, zip: '99518'}
  place: '0203000'
  geo: {lat: 61.14673, lng: -149.86007}
  external_ids: {bmlt: '38:18371'}
  sources:
  - bmlt/aggregator
  verified: {'on': '2026-07-19', method: api}
- id: ak/anchorage/let-this-circle-represent
  name: Let This Circle Represent
  program: na
  categories:
  - recovery-meeting
  schedule:
  - {day: thu, time: '18:15', duration_min: 60}
  format: hybrid
  types:
  - o
  - bk
  - hy
  venue_name: St. Anthony's Church (admin building upstairs)
  venue: {street: 825 Klevin Street, city: Anchorage, state: ak, zip: '99508'}
  place: '0203000'
  geo: {lat: 61.21372, lng: -149.8035}
  conference_url: https://us02web.zoom.us/j/2649332160?pwd=VlBRSlkxVkc1cVIyc0JrMHJKb0tjUT09
  external_ids: {bmlt: '38:18359'}
  sources:
  - bmlt/aggregator
  verified: {'on': '2026-07-19', method: api}
- id: ak/anchorage/lifesavers
  name: Lifesavers
  program: na
  categories:
  - recovery-meeting
  schedule:
  - {day: mon, time: '15:00', duration_min: 60}
  format: in-person
  types:
  - o
  - wc
  venue: {street: 3900 Wisconsin Street, city: Anchorage, state: ak, zip: '99517'}
  place: '0203000'
  geo: {lat: 61.18507, lng: -149.94367}
  external_ids: {bmlt: '38:18310'}
  sources:
  - bmlt/aggregator
  verified: {'on': '2026-07-19', method: api}
- id: ak/anchorage/lifesavers-2
  name: Lifesavers
  program: na
  categories:
  - recovery-meeting
  schedule:
  - {day: wed, time: '15:00', duration_min: 60}
  format: in-person
  types:
  - o
  - wc
  venue: {street: 3900 Wisconsin Street, city: Anchorage, state: ak, zip: '99517'}
  place: '0203000'
  geo: {lat: 61.18507, lng: -149.94367}
  external_ids: {bmlt: '38:18339'}
  sources:
  - bmlt/aggregator
  verified: {'on': '2026-07-19', method: api}
- id: ak/anchorage/lifesavers-3
  name: Lifesavers
  program: na
  categories:
  - recovery-meeting
  schedule:
  - {day: fri, time: '15:00', duration_min: 60}
  format: in-person
  types:
  - o
  - wc
  venue: {street: 3900 Wisconsin Street, city: Anchorage, state: ak, zip: '99517'}
  place: '0203000'
  geo: {lat: 61.18507, lng: -149.94367}
  external_ids: {bmlt: '38:18376'}
  sources:
  - bmlt/aggregator
  verified: {'on': '2026-07-19', method: api}
- id: ak/anchorage/no-half-stepping
  name: No Half Stepping
  program: na
  categories:
  - recovery-meeting
  schedule:
  - {day: sun, time: '18:00', duration_min: 60}
  format: in-person
  types:
  - o
  - wc
  - bk
  venue_name: Alano Club
  venue: {street: 3103 Spenard Rd, city: Anchorage, state: ak, zip: '99503'}
  place: '0203000'
  geo: {lat: 61.1922, lng: -149.9051}
  external_ids: {bmlt: '38:18406'}
  sources:
  - bmlt/aggregator
  verified: {'on': '2026-07-19', method: api}
- id: ak/anchorage/out-and-about
  name: Out and About
  program: na
  categories:
  - recovery-meeting
  schedule:
  - {day: fri, time: '19:30', duration_min: 60}
  format: in-person
  types:
  - o
  - wc
  venue: {street: 3103 Spenard Road, city: Anchorage, state: ak, zip: '99503'}
  place: '0203000'
  geo: {lat: 61.19238, lng: -149.90545}
  external_ids: {bmlt: '38:18384'}
  sources:
  - bmlt/aggregator
  verified: {'on': '2026-07-19', method: api}
- id: ak/anchorage/roundabout
  name: Roundabout
  program: na
  categories:
  - recovery-meeting
  schedule:
  - {day: mon, time: '12:00', duration_min: 60}
  format: in-person
  types:
  - o
  - st
  - wc
  venue_name: St. Mary's
  venue: {street: 2222 E Tudor Rd, city: Anchorage, state: ak, zip: '99507'}
  place: '0203000'
  geo: {lat: 61.1799, lng: -149.83917}
  external_ids: {bmlt: '38:18311'}
  sources:
  - bmlt/aggregator
  verified: {'on': '2026-07-19', method: api}
- id: ak/anchorage/roundabout-2
  name: Roundabout
  program: na
  categories:
  - recovery-meeting
  schedule:
  - {day: wed, time: '12:00', duration_min: 60}
  format: in-person
  types:
  - o
  - wc
  venue_name: St Mary's
  venue: {street: 2222 E Tudor Rd, city: Anchorage, state: ak, zip: '99507'}
  place: '0203000'
  geo: {lat: 61.1799, lng: -149.83917}
  external_ids: {bmlt: '38:18340'}
  sources:
  - bmlt/aggregator
  verified: {'on': '2026-07-19', method: api}
- id: ak/anchorage/roundabout-3
  name: Roundabout
  program: na
  categories:
  - recovery-meeting
  schedule:
  - {day: fri, time: '12:00', duration_min: 60}
  format: in-person
  types:
  - o
  - wc
  venue_name: St. Mary's
  venue: {street: 2222 E Tudor Rd, city: Anchorage, state: ak, zip: '99507'}
  place: '0203000'
  geo: {lat: 61.1799, lng: -149.83917}
  external_ids: {bmlt: '38:18377'}
  sources:
  - bmlt/aggregator
  verified: {'on': '2026-07-19', method: api}
- id: ak/anchorage/roundabout-4
  name: Roundabout
  program: na
  categories:
  - recovery-meeting
  schedule:
  - {day: sat, time: '15:45', duration_min: 60}
  format: in-person
  types:
  - o
  - wc
  venue_name: St. Mary's
  venue: {street: 2222 E Tudor Rd, city: Anchorage, state: ak, zip: '99507'}
  place: '0203000'
  geo: {lat: 61.1799, lng: -149.83917}
  external_ids: {bmlt: '38:19305'}
  sources:
  - bmlt/aggregator
  verified: {'on': '2026-07-19', method: api}
- id: ak/anchorage/saturday-night-alive
  name: Saturday Night Alive
  program: na
  categories:
  - recovery-meeting
  schedule:
  - {day: sat, time: '19:30', duration_min: 60}
  format: in-person
  venue: {street: 3103 Spenard Road, city: Anchorage, state: ak, zip: '99503'}
  place: '0203000'
  geo: {lat: 61.19217, lng: -149.90507}
  external_ids: {bmlt: '38:18404'}
  sources:
  - bmlt/aggregator
  verified: {'on': '2026-07-19', method: api}
- id: ak/anchorage/the-morning-after
  name: The Morning After
  program: na
  categories:
  - recovery-meeting
  schedule:
  - {day: sun, time: '10:00', duration_min: 60}
  format: in-person
  types:
  - o
  venue_name: Golden Corral Party Room
  venue: {street: 4520 Union Square Dr, city: Anchorage, state: ak, zip: '99503'}
  place: '0203000'
  geo: {lat: 61.17867, lng: -149.88533}
  external_ids: {bmlt: '38:20913'}
  sources:
  - bmlt/aggregator
  verified: {'on': '2026-07-19', method: api}
- id: ak/anchorage/walk-your-talk
  name: Walk Your Talk
  program: na
  categories:
  - recovery-meeting
  schedule:
  - {day: tue, time: '12:00', duration_min: 60}
  format: in-person
  types:
  - o
  - wc
  venue: {street: 1200 East 27th Avenue, city: Anchorage, state: ak, zip: '99508'}
  place: '0203000'
  geo: {lat: 61.19623, lng: -149.85948}
  external_ids: {bmlt: '38:18323'}
  sources:
  - bmlt/aggregator
  verified: {'on': '2026-07-19', method: api}
- id: ak/anchorage/walk-your-talk-2
  name: Walk Your Talk
  program: na
  categories:
  - recovery-meeting
  schedule:
  - {day: thu, time: '12:00', duration_min: 60}
  format: in-person
  types:
  - o
  - wc
  venue: {street: 1200 East 27th Avenue, city: Anchorage, state: ak, zip: '99508'}
  place: '0203000'
  geo: {lat: 61.19623, lng: -149.85948}
  external_ids: {bmlt: '38:18354'}
  sources:
  - bmlt/aggregator
  verified: {'on': '2026-07-19', method: api}
- id: ak/anchorage/walk-your-talk-3
  name: Walk Your Talk
  program: na
  categories:
  - recovery-meeting
  schedule:
  - {day: sat, time: '12:00', duration_min: 60}
  format: in-person
  types:
  - o
  - wc
  venue: {street: 1200 East 27th Avenue, city: Anchorage, state: ak, zip: '99508'}
  place: '0203000'
  geo: {lat: 61.19623, lng: -149.85948}
  external_ids: {bmlt: '38:18393'}
  sources:
  - bmlt/aggregator
  verified: {'on': '2026-07-19', method: api}
