- id: ak/fairbanks/aboveground
  name: Aboveground
  program: na
  categories:
  - recovery-meeting
  schedule:
  - {day: sun, time: '16:00', duration_min: 60}
  format: in-person
  types:
  - o
  - wc
  - bk
  venue: {street: 1012 Cowles Street, city: Fairbanks, state: ak, zip: '99701'}
  place: '0224230'
  geo: {lat: 64.8393, lng: -147.73786}
  external_ids: {bmlt: '38:18301'}
  sources:
  - bmlt/aggregator
  verified: {'on': '2026-07-19', method: api}
- id: ak/fairbanks/keep-coming-back
  name: Keep Coming Back
  program: na
  categories:
  - recovery-meeting
  schedule:
  - {day: tue, time: '19:00', duration_min: 60}
  format: in-person
  types:
  - o
  venue_name: St. Matthews Church
  venue: {street: 1030 2nd Ave, city: Fairbanks, state: ak, zip: '99701'}
  place: '0224230'
  geo: {lat: 64.84573, lng: -147.73114}
  external_ids: {bmlt: '38:20837'}
  sources:
  - bmlt/aggregator
  verified: {'on': '2026-07-19', method: api}
- id: ak/fairbanks/na-service-meeting-s
  name: NA Service Meeting(s)
  program: na
  categories:
  - recovery-meeting
  schedule:
  - {day: thu, time: '19:00', duration_min: 60}
  format: in-person
  types:
  - o
  - wc
  - asm
  venue: {street: 1012 Cowles Street, city: Fairbanks, state: ak, zip: '99701'}
  place: '0224230'
  geo: {lat: 64.8393, lng: -147.73786}
  notes: 1st Thursday - Activities, 2nd Thursday - Area, 3rd Thursday - Blowout, 4th Thursday - PR
  external_ids: {bmlt: '38:18841'}
  sources:
  - bmlt/aggregator
  verified: {'on': '2026-07-19', method: api}
- id: ak/fairbanks/no-matter-what
  name: No Matter What
  program: na
  categories:
  - recovery-meeting
  schedule:
  - {day: wed, time: '19:00', duration_min: 60}
  format: in-person
  types:
  - m
  venue: {street: 2400 Rickert St, city: Fairbanks, state: ak, zip: '99701'}
  place: '0224230'
  geo: {lat: 64.82483, lng: -147.71938}
  external_ids: {bmlt: '38:20537'}
  sources:
  - bmlt/aggregator
  verified: {'on': '2026-07-19', method: api}
- id: ak/fairbanks/out-to-lunch-bunch
  name: Out to Lunch Bunch
  program: na
  categories:
  - recovery-meeting
  schedule:
  - {day: mon, time: '12:00', duration_min: 60}
  format: in-person
  types:
  - o
  - d
  - wc
  venue: {street: 1012 Cowles Street, city: Fairbanks, state: ak, zip: '99701'}
  place: '0224230'
  geo: {lat: 64.8393, lng: -147.73786}
  external_ids: {bmlt: '38:18308'}
  sources:
  - bmlt/aggregator
  verified: {'on': '2026-07-19', method: api}
- id: ak/fairbanks/out-to-lunch-bunch-2
  name: Out to Lunch Bunch
  program: na
  categories:
  - recovery-meeting
  schedule:
  - {day: tue, time: '12:00', duration_min: 60}
  format: in-person
  types:
  - o
  - d
  - wc
  venue: {street: 1012 Cowles Street, city: Fairbanks, state: ak, zip: '99701'}
  place: '0224230'
  geo: {lat: 64.8393, lng: -147.73786}
  external_ids: {bmlt: '38:18325'}
  sources:
  - bmlt/aggregator
  verified: {'on': '2026-07-19', method: api}
- id: ak/fairbanks/out-to-lunch-bunch-3
  name: Out to Lunch Bunch
  program: na
  categories:
  - recovery-meeting
  schedule:
  - {day: wed, time: '12:00', duration_min: 60}
  format: in-person
  types:
  - o
  - d
  - wc
  venue: {street: 1012 Cowles Street, city: Fairbanks, state: ak, zip: '99701'}
  place: '0224230'
  geo: {lat: 64.8393, lng: -147.73786}
  external_ids: {bmlt: '38:18338'}
  sources:
  - bmlt/aggregator
  verified: {'on': '2026-07-19', method: api}
- id: ak/fairbanks/out-to-lunch-bunch-4
  name: Out to Lunch Bunch
  program: na
  categories:
  - recovery-meeting
  schedule:
  - {day: thu, time: '12:00', duration_min: 60}
  format: in-person
  types:
  - o
  - d
  - wc
  venue: {street: 1012 Cowles Street, city: Fairbanks, state: ak, zip: '99701'}
  place: '0224230'
  geo: {lat: 64.8393, lng: -147.73786}
  external_ids: {bmlt: '38:18355'}
  sources:
  - bmlt/aggregator
  verified: {'on': '2026-07-19', method: api}
- id: ak/fairbanks/out-to-lunch-bunch-5
  name: Out to Lunch Bunch
  program: na
  categories:
  - recovery-meeting
  schedule:
  - {day: fri, time: '12:00', duration_min: 60}
  format: in-person
  types:
  - o
  - wc
  - bk
  venue: {street: 1012 Cowles Street, city: Fairbanks, state: ak, zip: '99701'}
  place: '0224230'
  geo: {lat: 64.8393, lng: -147.73786}
  external_ids: {bmlt: '38:18375'}
  sources:
  - bmlt/aggregator
  verified: {'on': '2026-07-19', method: api}
- id: ak/fairbanks/out-to-lunch-bunch-6
  name: Out to Lunch Bunch
  program: na
  categories:
  - recovery-meeting
  schedule:
  - {day: sat, time: '10:00', duration_min: 60}
  format: in-person
  types:
  - o
  - d
  - wc
  venue_name: Fairbanks Lutheran Church
  venue: {street: 1012 Cowles Avenue, city: Fairbanks, state: ak, zip: '99701'}
  place: '0224230'
  geo: {lat: 64.83947, lng: -147.73911}
  external_ids: {bmlt: '38:18392'}
  sources:
  - bmlt/aggregator
  verified: {'on': '2026-07-19', method: api}
- id: ak/fairbanks/saturday-night-live
  name: Saturday Night Live
  program: na
  categories:
  - recovery-meeting
  schedule:
  - {day: sat, time: '19:00', duration_min: 60}
  format: in-person
  types:
  - o
  - d
  - wc
  venue_name: Ralph Perdue
  venue: {street: 3100 South Cushman St, city: Fairbanks, state: ak, zip: '99701'}
  place: '0224230'
  geo: {lat: 64.81831, lng: -147.71195}
  external_ids: {bmlt: '38:18400'}
  sources:
  - bmlt/aggregator
  verified: {'on': '2026-07-19', method: api}
- id: ak/fairbanks/so-fresh-so-clean
  name: So Fresh & So Clean
  program: na
  categories:
  - recovery-meeting
  schedule:
  - {day: mon, time: '19:00', duration_min: 60}
  format: in-person
  types:
  - o
  - d
  - wc
  venue_name: Room 104
  venue: {street: 2400 Rickert St, city: Fairbanks, state: ak, zip: '99701'}
  place: '0224230'
  geo: {lat: 64.8248, lng: -147.71928}
  external_ids: {bmlt: '38:18315'}
  sources:
  - bmlt/aggregator
  verified: {'on': '2026-07-19', method: api}
- id: ak/fairbanks/the-executive-group
  name: The Executive Group
  program: na
  categories:
  - recovery-meeting
  schedule:
  - {day: fri, time: '20:00', duration_min: 60}
  format: in-person
  types:
  - o
  - d
  - wc
  venue_name: University Community Presbyterian Church
  venue: {street: 3510 College Road, city: Fairbanks, state: ak, zip: '99709'}
  place: '0224230'
  geo: {lat: 64.85639, lng: -147.80801}
  external_ids: {bmlt: '38:18388'}
  sources:
  - bmlt/aggregator
  verified: {'on': '2026-07-19', method: api}
