- id: ct/branford/harbor-house
  name: Harbor House
  categories:
  - su-treatment
  - mh-treatment
  address:
    street: 79 Cedar Street
    city: Branford
    state: ct
    zip: '06405'
  geo:
    lat: 41.28342
    lng: -72.81611
  phone: 203-483-2662
  website: https://www.bhcare.org
  sources:
  - samhsa/findtreatment
  verified:
    'on': '2026-07-19'
    method: api
- id: ct/branford/hartford-dispensary-root-center-for-advanced-rec
  name: Hartford Dispensary Root Center for Advanced Recovery/Br
  categories:
  - su-treatment
  - mh-treatment
  address:
    street: 6-12 Business Park Drive
    city: Branford
    state: ct
    zip: '06405'
  geo:
    lat: 41.29671
    lng: -72.76843
  phone: 475-290-0012
  website: https://www.rootcenter.org
  sources:
  - samhsa/findtreatment
  verified:
    'on': '2026-07-19'
    method: api
- id: ct/branford/john-b-sliney-elementary-school
  name: John B. Sliney Elementary School
  categories:
  - community-health-center
  address:
    street: 23 Eades St
    city: Branford
    state: ct
    zip: '06405'
  geo:
    lat: 41.27932
    lng: -72.81206
  phone: 203-481-5386
  external_ids:
    bphc: BPS-H80-034415
  sources:
  - hrsa/health-center-sites
  verified:
    'on': '2026-07-19'
    method: api
- id: ct/branford/mary-r-tisko-elementary-school
  name: Mary R. Tisko Elementary School
  categories:
  - community-health-center
  address:
    street: 118 Damascus Rd
    city: Branford
    state: ct
    zip: '06405'
  geo:
    lat: 41.28442
    lng: -72.78877
  phone: 203-483-1826
  external_ids:
    bphc: BPS-H80-034414
  sources:
  - hrsa/health-center-sites
  verified:
    'on': '2026-07-19'
    method: api
- id: ct/branford/shoreline-family-health-care
  name: Shoreline Family Health Care
  categories:
  - community-health-center
  address:
    street: 221 W Main St
    city: Branford
    state: ct
    zip: '06405'
  geo:
    lat: 41.27737
    lng: -72.85499
  phone: 203-777-7411
  external_ids:
    bphc: BPS-H80-024620
  sources:
  - hrsa/health-center-sites
  verified:
    'on': '2026-07-19'
    method: api
- id: ct/branford/shoreline-family-healthcare
  name: Shoreline Family Healthcare
  categories:
  - su-treatment
  - mh-treatment
  address:
    street: 221 West Main Street
    city: Branford
    state: ct
    zip: '06405'
  geo:
    lat: 41.27707
    lng: -72.85482
  phone: 203-752-5271
  website: https://fhchc.org
  sources:
  - samhsa/findtreatment
  verified:
    'on': '2026-07-19'
    method: api
- id: ct/branford/yale-new-haven-hospital-branford-adolescent-iop
  name: Yale New Haven Hospital Branford Adolescent IOP/Outpt Servs
  categories:
  - su-treatment
  - mh-treatment
  address:
    street: 21 Business Park Drive
    city: Branford
    state: ct
    zip: '06405'
  geo:
    lat: 41.29565
    lng: -72.77021
  phone: 203-488-0471
  website: https://www.ynhh.org/psychiatric
  sources:
  - samhsa/findtreatment
  verified:
    'on': '2026-07-19'
    method: api
