- id: ct/danielson/a-little-love-on-main
  name: A Little Love on Main
  categories:
  - food-pantry
  place: 0918780
  geo:
    lat: 41.8106
    lng: -71.87749
  external_ids:
    lfp: '2780'
  sources:
  - littlefreepantry/map
  verified:
    'on': '2026-07-19'
    method: scrape
- id: ct/danielson/community-health-resources-danielson-clinic
  name: Community Health Resources Danielson Clinic
  categories:
  - su-treatment
  - mh-treatment
  address:
    street: 71 Westcott Road
    city: Danielson
    state: ct
    zip: 06239
  place: 0918780
  geo:
    lat: 41.80895
    lng: -71.87557
  phone: 860-731-5522
  website: https://www.chrhealth.org
  sources:
  - samhsa/findtreatment
  verified:
    'on': '2026-07-19'
    method: api
- id: ct/danielson/generations-family-health-center-inc-danielson
  name: GENERATIONS FAMILY HEALTH CENTER, INC. - Danielson
  categories:
  - community-health-center
  address:
    street: 42 Reynolds St
    city: Danielson
    state: ct
    zip: 06239
  place: 0918780
  geo:
    lat: 41.80737
    lng: -71.8794
  phone: 860-774-7501
  website: https://WWW.GENHEALTH.ORG
  external_ids:
    bphc: BPS-H80-002845
  sources:
  - hrsa/health-center-sites
  verified:
    'on': '2026-07-19'
    method: api
- id: ct/danielson/killingly-head-start
  name: Killingly Head Start
  categories:
  - child-care
  address:
    street: 562 Westcott Rd
    city: Danielson
    state: ct
    zip: 06239
  place: 0918780
  geo:
    lat: 41.79471
    lng: -71.84836
  phone: 860-779-0410
  sources:
  - acf/head-start-locations
  verified:
    'on': '2026-07-19'
    method: api
- id: ct/danielson/killingly-housing-authority
  name: Killingly Housing Authority
  categories:
  - housing-assistance
  address: {street: 41 Birchwood Ter, city: Danielson, state: ct, zip: 06239}
  description: Housing Choice Voucher (Section 8) agency
  place: 0918780
  geo: {lat: 41.82129, lng: -71.88382}
  phone: 860-774-3905
  sources:
  - hud/resource-locator
  verified: {'on': '2026-07-19', method: api}
- id: ct/danielson/natchaug-hospital-inc-joshua-center-northeast
  name: Natchaug Hospital Inc Joshua Center Northeast
  categories:
  - su-treatment
  - mh-treatment
  address:
    street: 934 North Main Street
    city: Danielson
    state: ct
    zip: 06239
  place: 0918780
  geo:
    lat: 41.82879
    lng: -71.8771
  phone: 860-779-2101
  website: https://www.natchaug.org
  sources:
  - samhsa/findtreatment
  verified:
    'on': '2026-07-19'
    method: api
