- id: ct/manchester/444-center-street-3rd-fl-manchester-chr
  name: 444 Center Street, 3rd fl, Manchester CHR
  categories:
  - community-health-center
  cost: sliding-scale
  address: {street: 444 Center St, city: Manchester, state: ct, zip: '06040'}
  place: 0944690
  geo: {lat: 41.77286, lng: -72.53898}
  phone: 860-528-1359
  website: https://www.firstchc.org
  external_ids: {bphc: BPS-H80-018818}
  sources:
  - hrsa/health-center-sites
  verified: {'on': '2026-07-19', method: api}
- id: ct/manchester/avery-street-church
  name: Avery Street Church
  categories:
  - food-pantry
  place: 0944690
  geo: {lat: 41.83149, lng: -72.51714}
  website: https://mapping.littlefreepantry.org/pantry/1394
  external_ids: {lfp: '1394'}
  sources:
  - littlefreepantry/map
  verified: {'on': '2026-07-19', method: scrape}
- id: ct/manchester/bowers-elementary-school
  name: Bowers Elementary School
  categories:
  - meal-program
  address: {street: 141 Princeton Street, city: Manchester, state: ct, zip: '06042'}
  description: Free summer meals for kids and teens (2026 season) — sponsored by Manchester Board of Education
    - Summer Food Service Program.
  place: 0944690
  geo: {lat: 41.7885, lng: -72.5113}
  external_ids: {usda_master: Cycle 09_CT_SFSP_0185}
  sources:
  - usda/summer-meal-sites
  verified: {'on': '2026-07-19', method: api}
- id: ct/manchester/community-health-resources-manchester-clinic
  name: Community Health Resources Manchester Clinic
  categories:
  - su-treatment
  - mh-treatment
  address: {street: 444 Center Street, city: Manchester, state: ct, zip: '06040'}
  place: 0944690
  geo: {lat: 41.77283, lng: -72.53902}
  phone: 860-697-3460
  website: https://www.chrhealth.org
  services:
  - Outpatient
  - Veterans
  - Criminal justice (other than DUI/DWI)/Forensic clients
  - Clients with co-occurring mental and substance use disorders
  - Clients who have experienced trauma
  - Persons with post-traumatic stress disorder (PTSD)
  - Children/adolescents with serious emotional disturbance (SED)
  - Persons  18 and older with serious mental illness (SMI)
  languages:
  - en
  - es
  eligibility: Serves children/adolescents, young adults, adults, seniors.
  cost: sliding-scale
  sources:
  - samhsa/findtreatment
  verified: {'on': '2026-07-19', method: api}
- id: ct/manchester/eastern-connecticut-health-echn-behavioral-healt
  name: Eastern Connecticut Health (ECHN) Behavioral Health/STEP Addiction Servs
  categories:
  - su-treatment
  - mh-treatment
  address: {street: 150 North Main Street, city: Manchester, state: ct, zip: '06042'}
  place: 0944690
  geo: {lat: 41.79458, lng: -72.52453}
  phone: 860-533-3434 x3888
  website: https://echn.org
  services:
  - Hospital inpatient/24-hour hospital inpatient
  - Outpatient
  - Partial hospitalization/day treatment
  - Young adults
  - Seniors or older adults
  - Criminal justice (other than DUI/DWI)/Forensic clients
  - Clients with co-occurring mental and substance use disorders
  - Clients with HIV or AIDS
  - Clients who have experienced intimate partner violence, domestic violence
  - Clients who have experienced trauma
  - Persons with traumatic brain injury (TBI)
  - Persons with Alzheimer's or dementia
  - Persons experiencing first-episode psychosis
  - Persons with post-traumatic stress disorder (PTSD)
  eligibility: Serves young adults, adults, seniors.
  cost: varies
  sources:
  - samhsa/findtreatment
  verified: {'on': '2026-07-19', method: api}
- id: ct/manchester/family-development-center
  name: Family Development Center
  categories:
  - child-care
  address: {street: 26 Haynes St, city: Manchester, state: ct, zip: '06040'}
  description: Head Start early childhood program — 48 funded slots; operated by Manchester Memorial Hospital.
  place: 0944690
  geo: {lat: 41.781, lng: -72.52352}
  phone: 860-533-2990
  sources:
  - acf/head-start-locations
  verified: {'on': '2026-07-19', method: api}
- id: ct/manchester/first-choice-health-centers-suite-230
  name: First Choice Health Centers (Suite 230)
  categories:
  - community-health-center
  cost: sliding-scale
  address: {street: 150 N Main St, city: Manchester, state: ct, zip: '06042'}
  place: 0944690
  geo: {lat: 41.79459, lng: -72.52456}
  phone: 860-646-4678
  website: https://www.firstchc.org
  external_ids: {bphc: BPS-H80-001217}
  sources:
  - hrsa/health-center-sites
  verified: {'on': '2026-07-19', method: api}
- id: ct/manchester/first-choice-health-centers-suite-240
  name: First Choice Health Centers (Suite 240)
  categories:
  - community-health-center
  cost: sliding-scale
  address: {street: 150 N Main St, city: Manchester, state: ct, zip: '06042'}
  place: 0944690
  geo: {lat: 41.79459, lng: -72.52456}
  phone: 860-646-4678
  website: https://WWW.FIRSTCHC.ORG
  external_ids: {bphc: BPS-H80-000872}
  sources:
  - hrsa/health-center-sites
  verified: {'on': '2026-07-19', method: api}
- id: ct/manchester/first-choice-howell-cheney-technical-high-school
  name: First Choice @ Howell Cheney Technical High School
  categories:
  - community-health-center
  cost: sliding-scale
  address: {street: 791 Middle Tpke W, city: Manchester, state: ct, zip: '06040'}
  place: 0944690
  geo: {lat: 41.78164, lng: -72.56171}
  phone: 860-528-1359
  website: https://www.firstchc.org
  external_ids: {bphc: BPS-H80-010277}
  sources:
  - hrsa/health-center-sites
  verified: {'on': '2026-07-19', method: api}
- id: ct/manchester/hartford-dispensary-root-center-for-advanced-rec
  name: Hartford Dispensary Root Center for Advanced Recovery
  categories:
  - su-treatment
  - mh-treatment
  address: {street: 335 Broad Street, city: Manchester, state: ct, zip: '06040'}
  place: 0944690
  geo: {lat: 41.77689, lng: -72.53307}
  phone: 860-643-3210
  website: https://www.rootcenter.org
  services:
  - Outpatient
  - Outpatient day treatment or partial hospitalization
  - Intensive outpatient treatment
  - Outpatient methadone/buprenorphine or naltrexone treatment
  - Regular outpatient treatment
  - Adolescents
  - Young adults
  - Adult women
  - Pregnant/postpartum women
  - Adult men
  - Seniors or older adults
  - Veterans
  - Criminal justice (other than DUI/DWI)/Forensic clients
  - Clients with co-occurring mental and substance use disorders
  eligibility: Serves young adults, adults, seniors.
  cost: sliding-scale
  sources:
  - samhsa/findtreatment
  verified: {'on': '2026-07-19', method: api}
- id: ct/manchester/henry-st-free-pantry
  name: Henry st free pantry
  categories:
  - food-pantry
  place: 0944690
  geo: {lat: 41.78849, lng: -72.51608}
  website: https://mapping.littlefreepantry.org/pantry/5217
  external_ids: {lfp: '5217'}
  sources:
  - littlefreepantry/map
  verified: {'on': '2026-07-19', method: scrape}
- id: ct/manchester/intercommunity-sbhc-illing-middle-school
  name: InterCommunity SBHC Illing Middle School
  categories:
  - community-health-center
  cost: sliding-scale
  address: {street: 227 Middle Tpke W, city: Manchester, state: ct, zip: '06040'}
  place: 0944690
  geo: {lat: 41.78206, lng: -72.53375}
  phone: 860-569-5900
  website: https://www.intercommunityct.org/
  external_ids: {bphc: BPS-LAL-035118}
  sources:
  - hrsa/health-center-sites
  verified: {'on': '2026-07-19', method: api}
- id: ct/manchester/keeney-elementary-school
  name: Keeney Elementary School
  categories:
  - meal-program
  address: {street: 179 Keeney St, city: Manchester, state: ct, zip: '06040'}
  description: Free summer meals for kids and teens (2026 season) — sponsored by Manchester Board of Education
    - Summer Food Service Program.
  place: 0944690
  geo: {lat: 41.756, lng: -72.5414}
  external_ids: {usda_master: Cycle 09_CT_SFSP_0186}
  sources:
  - usda/summer-meal-sites
  verified: {'on': '2026-07-19', method: api}
- id: ct/manchester/king-residence
  name: King Residence
  categories:
  - food-pantry
  place: 0944690
  geo: {lat: 41.78865, lng: -72.51616}
  website: https://mapping.littlefreepantry.org/pantry/1409
  external_ids: {lfp: '1409'}
  sources:
  - littlefreepantry/map
  verified: {'on': '2026-07-19', method: scrape}
- id: ct/manchester/little-st-free-pantry
  name: Little St free pantry
  categories:
  - food-pantry
  place: 0944690
  geo: {lat: 41.77894, lng: -72.53208}
  website: https://mapping.littlefreepantry.org/pantry/5095
  external_ids: {lfp: '5095'}
  sources:
  - littlefreepantry/map
  verified: {'on': '2026-07-19', method: scrape}
- id: ct/manchester/manchester
  name: Manchester
  org: ct/connecticut-foodshare
  categories:
  - food-pantry
  address: {street: 400 Middle Turnpike E, city: Manchester, state: ct, zip: '06040'}
  place: 0944690
  geo: {lat: 41.78394, lng: -72.50416}
  external_ids: {ct-connecticut-foodshare: '1476'}
  sources:
  - foodbank/ct-connecticut-foodshare
  verified: {'on': '2026-07-21', method: api}
- id: ct/manchester/manchester-citadel
  name: Manchester Citadel
  categories:
  - family-support
  - seniors
  - family-youth
  description: Salvation Army community center
  address: {street: 661 Main Street, city: Manchester, state: ct, zip: '06040'}
  geo: {lat: 41.77338, lng: -72.52085}
  place: 0944690
  phone: 860-649-7787
  website: https://www.salvationarmyusa.org/ct/manchester/main-street-corps/
  services:
  - Family Services
  - Giving Back
  - Holiday Giving
  - Senior Services
  - Worship and Spiritual Programs
  - Adult Program Services
  - Youth Services
  external_ids: {gdos: 402818763d5b8722013d5b926efc0303}
  sources:
  - salvationarmy/location-finder
  verified: {'on': '2026-07-20', method: api}
- id: ct/manchester/manchester-faith-tabernacle-manchester
  name: MANCHESTER – Faith Tabernacle Manchester
  org: ct/connecticut-foodshare
  categories:
  - food-pantry
  address: {street: 110 Utopia Rd, city: Manchester, state: ct, zip: '06042'}
  place: 0944690
  geo: {lat: 41.80264, lng: -72.5117}
  external_ids: {ct-connecticut-foodshare: '495'}
  sources:
  - foodbank/ct-connecticut-foodshare
  verified: {'on': '2026-07-21', method: api}
- id: ct/manchester/manchester-high-school
  name: Manchester High School
  categories:
  - meal-program
  address: {street: 134 East Middle Turnpike, city: Manchester, state: ct, zip: '06040'}
  description: Free summer meals for kids and teens (2026 season) — sponsored by Manchester Board of Education
    - Summer Food Service Program.
  place: 0944690
  geo: {lat: 41.78389, lng: -72.51676}
  external_ids: {usda_master: Cycle 09_CT_SFSP_0187}
  sources:
  - usda/summer-meal-sites
  verified: {'on': '2026-07-19', method: api}
- id: ct/manchester/manchester-housing-authority
  name: Manchester Housing Authority
  categories:
  - housing-assistance
  address: {street: 24 Bluefield Dr, city: Manchester, state: ct, zip: '06040'}
  description: Public housing and Housing Choice Voucher agency
  place: 0944690
  geo: {lat: 41.76909, lng: -72.55049}
  phone: 860-643-2163
  sources:
  - hud/resource-locator
  verified: {'on': '2026-07-19', method: api}
- id: ct/manchester/manchester-new-river-community-church
  name: MANCHESTER – New River Community Church
  org: ct/connecticut-foodshare
  categories:
  - food-pantry
  address: {street: 314 Woodbridge St, city: Manchester, state: ct, zip: '06042'}
  place: 0944690
  geo: {lat: 41.7934, lng: -72.51034}
  external_ids: {ct-connecticut-foodshare: '149'}
  sources:
  - foodbank/ct-connecticut-foodshare
  verified: {'on': '2026-07-21', method: api}
- id: ct/manchester/manchester-preschool-center
  name: Manchester Preschool Center
  categories:
  - child-care
  address: {street: 60 Washington St, city: Manchester, state: ct, zip: '06042'}
  description: Head Start early childhood program — 153 funded slots; operated by Manchester Head Start.
  place: 0944690
  geo: {lat: 41.78687, lng: -72.52105}
  phone: 860-647-3502
  sources:
  - acf/head-start-locations
  verified: {'on': '2026-07-19', method: api}
- id: ct/manchester/manchester-preschool-center-martin-formerly-mart
  name: Manchester Preschool Center @Martin (Formerly Martin Elementary School)
  categories:
  - meal-program
  address: {street: 140 Dartmouth Road, city: Manchester, state: ct, zip: '06040'}
  description: Free summer meals for kids and teens (2026 season) — sponsored by Manchester Board of Education
    - Summer Food Service Program.
  place: 0944690
  geo: {lat: 41.75438, lng: -72.51144}
  external_ids: {usda_master: Cycle 09_CT_SFSP_0188}
  sources:
  - usda/summer-meal-sites
  verified: {'on': '2026-07-19', method: api}
- id: ct/manchester/manchester-squire-village
  name: MANCHESTER – Squire Village
  org: ct/connecticut-foodshare
  categories:
  - food-pantry
  address: {street: 48 Spencer St, city: Manchester, state: ct, zip: '06040'}
  place: 0944690
  geo: {lat: 41.76634, lng: -72.56262}
  external_ids: {ct-connecticut-foodshare: '335'}
  sources:
  - foodbank/ct-connecticut-foodshare
  verified: {'on': '2026-07-21', method: api}
- id: ct/manchester/north-main-street-pantry
  name: North Main Street Pantry
  categories:
  - food-pantry
  place: 0944690
  geo: {lat: 41.79527, lng: -72.54092}
  website: https://mapping.littlefreepantry.org/pantry/1806
  external_ids: {lfp: '1806'}
  sources:
  - littlefreepantry/map
  verified: {'on': '2026-07-19', method: scrape}
- id: ct/manchester/north-main-street-pantry-2
  name: North Main Street Pantry
  categories:
  - food-pantry
  place: 0944690
  geo: {lat: 41.79527, lng: -72.54089}
  website: https://mapping.littlefreepantry.org/pantry/1732
  external_ids: {lfp: '1732'}
  sources:
  - littlefreepantry/map
  verified: {'on': '2026-07-19', method: scrape}
- id: ct/manchester/odyssey-community-school-sbhc
  name: Odyssey Community School SBHC
  categories:
  - community-health-center
  cost: sliding-scale
  address: {street: 579 Middlesex Tnpk  RM 149, city: Manchester, state: ct, zip: '06040'}
  place: 0944690
  geo: {lat: 41.78109, lng: -72.55053}
  phone: 860-645-1234
  external_ids: {bphc: BPS-H80-031992}
  sources:
  - hrsa/health-center-sites
  verified: {'on': '2026-07-19', method: api}
- id: ct/manchester/pearl-street-pantry
  name: Pearl Street Pantry
  categories:
  - food-pantry
  place: 0944690
  geo: {lat: 41.77429, lng: -72.51792}
  website: https://mapping.littlefreepantry.org/pantry/3172
  external_ids: {lfp: '3172'}
  sources:
  - littlefreepantry/map
  verified: {'on': '2026-07-19', method: scrape}
- id: ct/manchester/porter-street-pantry
  name: Porter Street Pantry
  categories:
  - food-pantry
  place: 0944690
  geo: {lat: 41.77027, lng: -72.49176}
  website: https://mapping.littlefreepantry.org/pantry/3326
  external_ids: {lfp: '3326'}
  sources:
  - littlefreepantry/map
  verified: {'on': '2026-07-19', method: scrape}
- id: ct/manchester/south-windsor-wapping-community-church
  name: SOUTH WINDSOR – Wapping Community Church
  org: ct/connecticut-foodshare
  categories:
  - food-pantry
  address: {street: 1790 Ellington Rd, city: South Windsor, state: ct, zip: '06074'}
  place: 0944690
  geo: {lat: 41.82757, lng: -72.55325}
  external_ids: {ct-connecticut-foodshare: '485'}
  sources:
  - foodbank/ct-connecticut-foodshare
  verified: {'on': '2026-07-21', method: api}
- id: ct/manchester/summit-st-manchester
  name: Summit st,  Manchester
  categories:
  - food-pantry
  place: 0944690
  geo: {lat: 41.79268, lng: -72.52106}
  website: https://mapping.littlefreepantry.org/pantry/5023
  external_ids: {lfp: '5023'}
  sources:
  - littlefreepantry/map
  verified: {'on': '2026-07-19', method: scrape}
- id: ct/manchester/tri-county-alliance-of-realtors
  name: Tri County Alliance of Realtors
  categories:
  - food-pantry
  place: 0944690
  geo: {lat: 41.77679, lng: -72.51506}
  website: https://mapping.littlefreepantry.org/pantry/3507
  external_ids: {lfp: '3507'}
  sources:
  - littlefreepantry/map
  verified: {'on': '2026-07-19', method: scrape}
- id: ct/manchester/tri-county-alliance-of-realtors-little-free-pant
  name: Tri-County Alliance of Realtors' Little Free Pantry
  categories:
  - food-pantry
  place: 0944690
  geo: {lat: 41.77679, lng: -72.51506}
  website: https://mapping.littlefreepantry.org/pantry/3494
  external_ids: {lfp: '3494'}
  sources:
  - littlefreepantry/map
  verified: {'on': '2026-07-19', method: scrape}
- id: ct/manchester/verplanck-elementary-school
  name: Verplanck Elementary School
  categories:
  - meal-program
  address: {street: 126 Olcott Street, city: Manchester, state: ct, zip: '06040'}
  description: Free summer meals for kids and teens (2026 season) — sponsored by Manchester Board of Education
    - Summer Food Service Program.
  place: 0944690
  geo: {lat: 41.7736, lng: -72.55403}
  external_ids: {usda_master: Cycle 09_CT_SFSP_0189}
  sources:
  - usda/summer-meal-sites
  verified: {'on': '2026-07-19', method: api}
