- id: ct/manchester/444-center-street-3rd-fl-manchester-chr
  name: 444 Center Street, 3rd fl, Manchester CHR
  categories:
  - community-health-center
  address:
    street: 444 Center St
    city: Manchester
    state: ct
    zip: '06040'
  place: 0944690
  geo:
    lat: 41.77286
    lng: -72.53898
  phone: 860-528-1359
  website: https://www.firstchc.org
  external_ids:
    bphc: BPS-H80-018818
  sources:
  - hrsa/health-center-sites
  verified:
    'on': '2026-07-19'
    method: api
- id: ct/manchester/avery-street-church
  name: Avery Street Church
  categories:
  - food-pantry
  place: 0944690
  geo:
    lat: 41.83149
    lng: -72.51714
  external_ids:
    lfp: '1394'
  sources:
  - littlefreepantry/map
  verified:
    'on': '2026-07-19'
    method: scrape
- id: ct/manchester/community-health-resources-manchester-clinic
  name: Community Health Resources Manchester Clinic
  categories:
  - su-treatment
  - mh-treatment
  address:
    street: 444 Center Street
    city: Manchester
    state: ct
    zip: '06040'
  place: 0944690
  geo:
    lat: 41.77283
    lng: -72.53902
  phone: 860-697-3460
  website: https://www.chrhealth.org
  sources:
  - samhsa/findtreatment
  verified:
    'on': '2026-07-19'
    method: api
- id: ct/manchester/eastern-connecticut-health-echn-behavioral-healt
  name: Eastern Connecticut Health (ECHN) Behavioral Health/STEP Addiction Servs
  categories:
  - su-treatment
  - mh-treatment
  address:
    street: 150 North Main Street
    city: Manchester
    state: ct
    zip: '06042'
  place: 0944690
  geo:
    lat: 41.79458
    lng: -72.52453
  phone: 860-533-3434 x3888
  website: https://echn.org
  sources:
  - samhsa/findtreatment
  verified:
    'on': '2026-07-19'
    method: api
- id: ct/manchester/family-development-center
  name: Family Development Center
  categories:
  - child-care
  address:
    street: 26 Haynes St
    city: Manchester
    state: ct
    zip: '06040'
  place: 0944690
  geo:
    lat: 41.781
    lng: -72.52352
  phone: 860-533-2990
  sources:
  - acf/head-start-locations
  verified:
    'on': '2026-07-19'
    method: api
- id: ct/manchester/first-choice-health-centers-suite-230
  name: First Choice Health Centers (Suite 230)
  categories:
  - community-health-center
  address:
    street: 150 N Main St
    city: Manchester
    state: ct
    zip: '06042'
  place: 0944690
  geo:
    lat: 41.79459
    lng: -72.52456
  phone: 860-646-4678
  website: https://www.firstchc.org
  external_ids:
    bphc: BPS-H80-001217
  sources:
  - hrsa/health-center-sites
  verified:
    'on': '2026-07-19'
    method: api
- id: ct/manchester/first-choice-health-centers-suite-240
  name: First Choice Health Centers (Suite 240)
  categories:
  - community-health-center
  address:
    street: 150 N Main St
    city: Manchester
    state: ct
    zip: '06042'
  place: 0944690
  geo:
    lat: 41.79459
    lng: -72.52456
  phone: 860-646-4678
  website: https://WWW.FIRSTCHC.ORG
  external_ids:
    bphc: BPS-H80-000872
  sources:
  - hrsa/health-center-sites
  verified:
    'on': '2026-07-19'
    method: api
- id: ct/manchester/first-choice-howell-cheney-technical-high-school
  name: First Choice @ Howell Cheney Technical High School
  categories:
  - community-health-center
  address:
    street: 791 Middle Tpke W
    city: Manchester
    state: ct
    zip: '06040'
  place: 0944690
  geo:
    lat: 41.78164
    lng: -72.56171
  phone: 860-528-1359
  website: https://www.firstchc.org
  external_ids:
    bphc: BPS-H80-010277
  sources:
  - hrsa/health-center-sites
  verified:
    'on': '2026-07-19'
    method: api
- id: ct/manchester/hartford-dispensary-root-center-for-advanced-rec
  name: Hartford Dispensary Root Center for Advanced Recovery
  categories:
  - su-treatment
  - mh-treatment
  address:
    street: 335 Broad Street
    city: Manchester
    state: ct
    zip: '06040'
  place: 0944690
  geo:
    lat: 41.77689
    lng: -72.53307
  phone: 860-643-3210
  website: https://www.rootcenter.org
  sources:
  - samhsa/findtreatment
  verified:
    'on': '2026-07-19'
    method: api
- id: ct/manchester/henry-st-free-pantry
  name: Henry st free pantry
  categories:
  - food-pantry
  place: 0944690
  geo:
    lat: 41.78849
    lng: -72.51608
  external_ids:
    lfp: '5217'
  sources:
  - littlefreepantry/map
  verified:
    'on': '2026-07-19'
    method: scrape
- id: ct/manchester/intercommunity-sbhc-illing-middle-school
  name: InterCommunity SBHC Illing Middle School
  categories:
  - community-health-center
  address:
    street: 227 Middle Tpke W
    city: Manchester
    state: ct
    zip: '06040'
  place: 0944690
  geo:
    lat: 41.78206
    lng: -72.53375
  phone: 860-569-5900
  website: https://www.intercommunityct.org/
  external_ids:
    bphc: BPS-LAL-035118
  sources:
  - hrsa/health-center-sites
  verified:
    'on': '2026-07-19'
    method: api
- id: ct/manchester/king-residence
  name: King Residence
  categories:
  - food-pantry
  place: 0944690
  geo:
    lat: 41.78865
    lng: -72.51616
  external_ids:
    lfp: '1409'
  sources:
  - littlefreepantry/map
  verified:
    'on': '2026-07-19'
    method: scrape
- id: ct/manchester/little-st-free-pantry
  name: Little St free pantry
  categories:
  - food-pantry
  place: 0944690
  geo:
    lat: 41.77894
    lng: -72.53208
  external_ids:
    lfp: '5095'
  sources:
  - littlefreepantry/map
  verified:
    'on': '2026-07-19'
    method: scrape
- id: ct/manchester/manchester-housing-authority
  name: Manchester Housing Authority
  categories:
  - housing-assistance
  address: {street: 24 Bluefield Dr, city: Manchester, state: ct, zip: '06040'}
  description: Public housing and Housing Choice Voucher agency
  place: 0944690
  geo: {lat: 41.76909, lng: -72.55049}
  phone: 860-643-2163
  sources:
  - hud/resource-locator
  verified: {'on': '2026-07-19', method: api}
- id: ct/manchester/manchester-preschool-center
  name: Manchester Preschool Center
  categories:
  - child-care
  address:
    street: 60 Washington St
    city: Manchester
    state: ct
    zip: '06042'
  place: 0944690
  geo:
    lat: 41.78687
    lng: -72.52105
  phone: 860-647-3502
  sources:
  - acf/head-start-locations
  verified:
    'on': '2026-07-19'
    method: api
- id: ct/manchester/north-main-street-pantry
  name: North Main Street Pantry
  categories:
  - food-pantry
  place: 0944690
  geo:
    lat: 41.79527
    lng: -72.54092
  external_ids:
    lfp: '1806'
  sources:
  - littlefreepantry/map
  verified:
    'on': '2026-07-19'
    method: scrape
- id: ct/manchester/north-main-street-pantry-2
  name: North Main Street Pantry
  categories:
  - food-pantry
  place: 0944690
  geo:
    lat: 41.79527
    lng: -72.54089
  external_ids:
    lfp: '1732'
  sources:
  - littlefreepantry/map
  verified:
    'on': '2026-07-19'
    method: scrape
- id: ct/manchester/odyssey-community-school-sbhc
  name: Odyssey Community School SBHC
  categories:
  - community-health-center
  address:
    street: 579 Middlesex Tnpk  RM 149
    city: Manchester
    state: ct
    zip: '06040'
  place: 0944690
  geo:
    lat: 41.78109
    lng: -72.55053
  phone: 860-645-1234
  external_ids:
    bphc: BPS-H80-031992
  sources:
  - hrsa/health-center-sites
  verified:
    'on': '2026-07-19'
    method: api
- id: ct/manchester/pearl-street-pantry
  name: Pearl Street Pantry
  categories:
  - food-pantry
  place: 0944690
  geo:
    lat: 41.77429
    lng: -72.51792
  external_ids:
    lfp: '3172'
  sources:
  - littlefreepantry/map
  verified:
    'on': '2026-07-19'
    method: scrape
- id: ct/manchester/porter-street-pantry
  name: Porter Street Pantry
  categories:
  - food-pantry
  place: 0944690
  geo:
    lat: 41.77027
    lng: -72.49176
  external_ids:
    lfp: '3326'
  sources:
  - littlefreepantry/map
  verified:
    'on': '2026-07-19'
    method: scrape
- id: ct/manchester/summit-st-manchester
  name: Summit st,  Manchester
  categories:
  - food-pantry
  place: 0944690
  geo:
    lat: 41.79268
    lng: -72.52106
  external_ids:
    lfp: '5023'
  sources:
  - littlefreepantry/map
  verified:
    'on': '2026-07-19'
    method: scrape
- id: ct/manchester/tri-county-alliance-of-realtors
  name: Tri County Alliance of Realtors
  categories:
  - food-pantry
  place: 0944690
  geo:
    lat: 41.77679
    lng: -72.51506
  external_ids:
    lfp: '3507'
  sources:
  - littlefreepantry/map
  verified:
    'on': '2026-07-19'
    method: scrape
- id: ct/manchester/tri-county-alliance-of-realtors-little-free-pant
  name: Tri-County Alliance of Realtors' Little Free Pantry
  categories:
  - food-pantry
  place: 0944690
  geo:
    lat: 41.77679
    lng: -72.51506
  external_ids:
    lfp: '3494'
  sources:
  - littlefreepantry/map
  verified:
    'on': '2026-07-19'
    method: scrape
