- id: ct/norwalk/120-connecticut-avenue-norwalk-ct-06854
  name: 120 Connecticut Avenue, Norwalk, CT 06854
  categories:
  - community-health-center
  address:
    street: 120 Connecticut Ave
    city: Norwalk
    state: ct
    zip: 06854
  place: 0955990
  geo:
    lat: 41.10608
    lng: -73.42823
  phone: 203-899-1770
  external_ids:
    bphc: BPS-H80-009416
  sources:
  - hrsa/health-center-sites
  verified:
    'on': '2026-07-19'
    method: api
- id: ct/norwalk/brien-mcmahon-high-school-sbhc
  name: Brien McMahon High School SBHC
  categories:
  - community-health-center
  address:
    street: 300 Highland Ave
    city: Norwalk
    state: ct
    zip: 06854
  place: 0955990
  geo:
    lat: 41.08561
    lng: -73.43346
  phone: 203-851-1010
  website: https://www.norwalkchc.org
  external_ids:
    bphc: BPS-H80-038156
  sources:
  - hrsa/health-center-sites
  verified:
    'on': '2026-07-19'
    method: api
- id: ct/norwalk/catholic-charities-of-fairfield-county-catholic
  name: Catholic Charities of Fairfield County Catholic Charities Norwalk
  categories:
  - su-treatment
  - mh-treatment
  address:
    street: 120 East Avenue
    city: Norwalk
    state: ct
    zip: 06851
  place: 0955990
  geo:
    lat: 41.11408
    lng: -73.40803
  phone: 203-743-4412
  website: https://www.ccfairfield.org
  sources:
  - samhsa/findtreatment
  verified:
    'on': '2026-07-19'
    method: api
- id: ct/norwalk/child-and-family-services-norwalk-office
  name: Child And Family Services Norwalk Office
  categories:
  - su-treatment
  address:
    street: 259 Westport Avenue
    city: Norwalk
    state: ct
    zip: 06851
  place: 0955990
  geo:
    lat: 41.12493
    lng: -73.39647
  phone: 203-394-6529
  website: https://www.CFGuidance.org
  sources:
  - samhsa/findtreatment
  verified:
    'on': '2026-07-19'
    method: api
- id: ct/norwalk/cifc-greater-norwalk-head-start-ely
  name: CIFC - Greater Norwalk Head Start - Ely
  categories:
  - child-care
  address:
    street: 11 Ingalls Ave
    city: Norwalk
    state: ct
    zip: 06854
  place: 0955990
  geo:
    lat: 41.08272
    lng: -73.42495
  phone: 203-791-5090
  sources:
  - acf/head-start-locations
  verified:
    'on': '2026-07-19'
    method: api
- id: ct/norwalk/cifc-greater-norwalk-head-start-franklin
  name: CIFC - Greater Norwalk Head Start Franklin
  categories:
  - child-care
  address:
    street: 165 Flax Hill Rd
    city: Norwalk
    state: ct
    zip: 06854
  place: 0955990
  geo:
    lat: 41.09823
    lng: -73.42493
  phone: 203-791-5095
  sources:
  - acf/head-start-locations
  verified:
    'on': '2026-07-19'
    method: api
- id: ct/norwalk/city-of-norwalk-ct-public-schools-family-center
  name: City of Norwalk CT. Public Schools Family Center
  categories:
  - community-health-center
  address:
    street: 1 Park St, Suite 1
    city: Norwalk
    state: ct
    zip: 06851
  place: 0955990
  geo:
    lat: 41.11821
    lng: -73.40875
  phone: 203-803-3241
  website: https://www.norwalkps.org
  external_ids:
    bphc: BPS-H80-039836
  sources:
  - hrsa/health-center-sites
  verified:
    'on': '2026-07-19'
    method: api
- id: ct/norwalk/community-health-center-inc-day-street-community
  name: Community Health Center Inc Day Street Community Health Center
  categories:
  - su-treatment
  - mh-treatment
  address:
    street: 49 Day Street
    city: Norwalk
    state: ct
    zip: 06854
  place: 0955990
  geo:
    lat: 41.09419
    lng: -73.41751
  phone: 203-854-9292
  website: https://www.chc1.com
  sources:
  - samhsa/findtreatment
  verified:
    'on': '2026-07-19'
    method: api
- id: ct/norwalk/connecticut-counseling-centers-inc-norwalk-clini
  name: Connecticut Counseling Centers Inc Norwalk Clinic
  categories:
  - su-treatment
  - mh-treatment
  address:
    street: 20 North Main Street
    city: Norwalk
    state: ct
    zip: 06854
  place: 0955990
  geo:
    lat: 41.10045
    lng: -73.41945
  phone: 203-838-6508 x6238
  website: https://www.ctcounseling.org
  sources:
  - samhsa/findtreatment
  verified:
    'on': '2026-07-19'
    method: api
- id: ct/norwalk/connecticut-renaissance-inc-behavioral-health-op
  name: Connecticut Renaissance Inc Behavioral Health OP Clinic
  categories:
  - su-treatment
  - mh-treatment
  address:
    street: 4 Byington Place
    city: Norwalk
    state: ct
    zip: 06850
  place: 0955990
  geo:
    lat: 41.11771
    lng: -73.41823
  phone: 203-866-2541
  website: https://www.ctrenaissance.org
  sources:
  - samhsa/findtreatment
  verified:
    'on': '2026-07-19'
    method: api
- id: ct/norwalk/day-street-community-health-center
  name: DAY STREET COMMUNITY HEALTH CENTER
  categories:
  - community-health-center
  address:
    street: 49 Day St
    city: Norwalk
    state: ct
    zip: 06854
  place: 0955990
  geo:
    lat: 41.09415
    lng: -73.41751
  phone: 203-854-9292
  website: https://www.chc1.com
  external_ids:
    bphc: BPS-H80-004214
  sources:
  - hrsa/health-center-sites
  verified:
    'on': '2026-07-19'
    method: api
- id: ct/norwalk/family-and-childrens-agency-inc-project-reward
  name: Family and Childrens Agency Inc Project Reward
  categories:
  - su-treatment
  - mh-treatment
  address:
    street: 9 Mott Avenue
    city: Norwalk
    state: ct
    zip: 06850
  place: 0955990
  geo:
    lat: 41.11584
    lng: -73.41651
  phone: 203-855-8765
  website: https://www.FamilyandChildrensAgency.org
  sources:
  - samhsa/findtreatment
  verified:
    'on': '2026-07-19'
    method: api
- id: ct/norwalk/housing-authority-of-the-city-of-norwalk
  name: Housing Authority Of The City Of Norwalk
  categories:
  - housing-assistance
  address: {street: 24 1/2 Monroe St, city: Norwalk, state: ct, zip: 06854}
  description: Public housing and Housing Choice Voucher agency
  place: 0955990
  geo: {lat: 41.09647, lng: -73.42054}
  phone: 203-838-8471
  sources:
  - hud/resource-locator
  verified: {'on': '2026-07-19', method: api}
- id: ct/norwalk/kendall-elementary-school
  name: Kendall Elementary School
  categories:
  - community-health-center
  address:
    street: 57 Fillow St
    city: Norwalk
    state: ct
    zip: 06850
  place: 0955990
  geo:
    lat: 41.11865
    lng: -73.43295
  phone: 203-851-1010
  website: https://www.norwalkps.org
  external_ids:
    bphc: BPS-H80-041114
  sources:
  - hrsa/health-center-sites
  verified:
    'on': '2026-07-19'
    method: api
- id: ct/norwalk/mobile-van-1
  name: 'Mobile Van #1'
  categories:
  - community-health-center
  address:
    street: 120 Connecticut Ave
    city: Norwalk
    state: ct
    zip: 06854
  place: 0955990
  geo:
    lat: 41.10608
    lng: -73.42823
  phone: 203-899-1770
  website: https://www.norwalkchc.org
  external_ids:
    bphc: BPS-H80-011660
  sources:
  - hrsa/health-center-sites
  verified:
    'on': '2026-07-19'
    method: api
- id: ct/norwalk/norwalk-community-health-center-smilow-life-cent
  name: Norwalk Community Health Center @ Smilow Life Center
  categories:
  - community-health-center
  address:
    street: 55 Chestnut St
    city: Norwalk
    state: ct
    zip: 06854
  place: 0955990
  geo:
    lat: 41.09229
    lng: -73.42085
  phone: 203-899-1770
  external_ids:
    bphc: BPS-H80-030475
  sources:
  - hrsa/health-center-sites
  verified:
    'on': '2026-07-19'
    method: api
- id: ct/norwalk/peggy-the-pantry
  name: Peggy the Pantry
  categories:
  - food-pantry
  place: 0955990
  geo:
    lat: 41.09103
    lng: -73.4313
  external_ids:
    lfp: '3812'
  sources:
  - littlefreepantry/map
  verified:
    'on': '2026-07-19'
    method: scrape
- id: ct/norwalk/ponus-ridge-middle-school-sbhc
  name: Ponus Ridge Middle School SBHC
  categories:
  - community-health-center
  address:
    street: 21 Hunters Ln
    city: Norwalk
    state: ct
    zip: 06850
  place: 0955990
  geo:
    lat: 41.12336
    lng: -73.44061
  phone: 203-851-1010
  external_ids:
    bphc: BPS-H80-038157
  sources:
  - hrsa/health-center-sites
  verified:
    'on': '2026-07-19'
    method: api
- id: ct/norwalk/saint-vincents-medical-center-outpatient-behavio
  name: Saint Vincents Medical Center Outpatient Behavioral Health
  categories:
  - su-treatment
  - mh-treatment
  address:
    street: 1 Lois Street
    city: Norwalk
    state: ct
    zip: 06851
  place: 0955990
  geo:
    lat: 41.12864
    lng: -73.38539
  phone: 203-221-8899
  website: https://www.stvincents.org/
  sources:
  - samhsa/findtreatment
  verified:
    'on': '2026-07-19'
    method: api
