- id: ct/stratford/alliance-holy-name-of-jesus-child-care-program
  name: Alliance @ Holy Name of Jesus Child Care Program
  categories:
  - child-care
  address:
    street: 3 Mary Ave
    city: Stratford
    state: ct
    zip: '06614'
  geo:
    lat: 41.19321
    lng: -73.14667
  phone: 203-385-1127
  sources:
  - acf/head-start-locations
  verified:
    'on': '2026-07-19'
    method: api
- id: ct/stratford/alterine-johnson-early-learning-center
  name: Alterine Johnson Early Learning Center
  categories:
  - child-care
  address:
    street: 909 Main St
    city: Stratford
    state: ct
    zip: '06615'
  geo:
    lat: 41.17369
    lng: -73.12939
  phone: 203-377-4721
  sources:
  - acf/head-start-locations
  verified:
    'on': '2026-07-19'
    method: api
- id: ct/stratford/chapel-street-elementary-school-sbhc
  name: Chapel Street Elementary School - SBHC
  categories:
  - community-health-center
  address:
    street: 380 Chapel St
    city: Stratford
    state: ct
    zip: '06614'
  geo:
    lat: 41.23815
    lng: -73.11824
  phone: 203-696-3260
  external_ids:
    bphc: BPS-H80-034299
  sources:
  - hrsa/health-center-sites
  verified:
    'on': '2026-07-19'
    method: api
- id: ct/stratford/david-wooster-middle-school-sbhc
  name: David Wooster Middle School - SBHC
  categories:
  - community-health-center
  address:
    street: 150 Lincoln St
    city: Stratford
    state: ct
    zip: '06614'
  geo:
    lat: 41.21095
    lng: -73.14053
  phone: 203-696-3260
  website: https://www.optimushealthcare.org
  external_ids:
    bphc: BPS-H80-000688
  sources:
  - hrsa/health-center-sites
  verified:
    'on': '2026-07-19'
    method: api
- id: ct/stratford/eli-whitney-elementary-sbhc
  name: Eli Whitney Elementary SBHC
  categories:
  - community-health-center
  address:
    street: 1130 Huntington Rd
    city: Stratford
    state: ct
    zip: '06614'
  geo:
    lat: 41.22238
    lng: -73.1342
  phone: 203-385-4198
  external_ids:
    bphc: BPS-H80-039761
  sources:
  - hrsa/health-center-sites
  verified:
    'on': '2026-07-19'
    method: api
- id: ct/stratford/family-resource-associates-llc
  name: Family Resource Associates LLC
  categories:
  - su-treatment
  - mh-treatment
  address:
    street: 3300 Main Street
    city: Stratford
    state: ct
    zip: '06614'
  geo:
    lat: 41.2054
    lng: -73.13158
  phone: 203-378-4514 x0
  website: https://www.familyresourceassociates.com
  sources:
  - samhsa/findtreatment
  verified:
    'on': '2026-07-19'
    method: api
- id: ct/stratford/frank-scott-bunnell-high-school-sbhc
  name: Frank Scott Bunnell High School SBHC
  categories:
  - community-health-center
  address:
    street: 1 Bulldog Blvd
    city: Stratford
    state: ct
    zip: '06614'
  geo:
    lat: 41.22536
    lng: -73.13931
  phone: 203-385-4250
  external_ids:
    bphc: BPS-H80-024392
  sources:
  - hrsa/health-center-sites
  verified:
    'on': '2026-07-19'
    method: api
- id: ct/stratford/franklin-elementary-school-sbhc
  name: Franklin Elementary School SBHC
  categories:
  - community-health-center
  address:
    street: 1895 Barnum Ave
    city: Stratford
    state: ct
    zip: '06614'
  geo:
    lat: 41.19295
    lng: -73.1459
  phone: 203-385-4190
  external_ids:
    bphc: BPS-H80-038586
  sources:
  - hrsa/health-center-sites
  verified:
    'on': '2026-07-19'
    method: api
- id: ct/stratford/harry-b-flood-middle-school-sbhc
  name: Harry B. Flood Middle School - SBHC
  categories:
  - community-health-center
  address:
    street: 490 Chapel St
    city: Stratford
    state: ct
    zip: '06614'
  geo:
    lat: 41.23882
    lng: -73.1194
  phone: 203-696-3260
  external_ids:
    bphc: BPS-H80-027279
  sources:
  - hrsa/health-center-sites
  verified:
    'on': '2026-07-19'
    method: api
- id: ct/stratford/housing-authority-of-the-town-of-stratford
  name: Housing Authority Of The Town Of Stratford
  categories:
  - housing-assistance
  address: {street: 295 Everett St, city: Stratford, state: ct, zip: '06615'}
  description: Public housing and Housing Choice Voucher agency
  geo: {lat: 41.179, lng: -73.13722}
  phone: 203-375-4483
  sources:
  - hud/resource-locator
  verified: {'on': '2026-07-19', method: api}
- id: ct/stratford/lordship-elementary-sbhc
  name: Lordship Elementary SBHC
  categories:
  - community-health-center
  address:
    street: 254 Crown St
    city: Stratford
    state: ct
    zip: '06615'
  geo:
    lat: 41.15442
    lng: -73.12642
  phone: 203-385-4170
  external_ids:
    bphc: BPS-H80-039760
  sources:
  - hrsa/health-center-sites
  verified:
    'on': '2026-07-19'
    method: api
- id: ct/stratford/nichols-elementary-school-sbhc
  name: Nichols Elementary School SBHC
  categories:
  - community-health-center
  address:
    street: 396 Nichols Ave
    city: Stratford
    state: ct
    zip: '06614'
  geo:
    lat: 41.20269
    lng: -73.13969
  phone: 203-385-4294
  external_ids:
    bphc: BPS-H80-038001
  sources:
  - hrsa/health-center-sites
  verified:
    'on': '2026-07-19'
    method: api
- id: ct/stratford/optimus-on-boston-avenue
  name: OPTIMUS on Boston Avenue
  categories:
  - community-health-center
  address:
    street: 305 Boston Ave
    city: Stratford
    state: ct
    zip: '06614'
  geo:
    lat: 41.19225
    lng: -73.15367
  phone: 203-375-7242
  website: https://optimushealthcare.org/opthc/
  external_ids:
    bphc: BPS-H80-029765
  sources:
  - hrsa/health-center-sites
  verified:
    'on': '2026-07-19'
    method: api
- id: ct/stratford/recovery-network-of-programs-inc-center-for-huma
  name: Recovery Network of Programs Inc Center for Human Services
  categories:
  - su-treatment
  - mh-treatment
  address:
    street: 2 Research Drive
    city: Stratford
    state: ct
    zip: '06615'
  geo:
    lat: 41.17245
    lng: -73.15515
  phone: 203-386-8802 x417
  website: https://www.recovery-programs.org
  sources:
  - samhsa/findtreatment
  verified:
    'on': '2026-07-19'
    method: api
- id: ct/stratford/second-hill-lane-elementary-sbhc
  name: Second Hill Lane Elementary SBHC
  categories:
  - community-health-center
  address:
    street: 65 2nd Hill Ln
    city: Stratford
    state: ct
    zip: '06614'
  geo:
    lat: 41.21799
    lng: -73.14962
  phone: 203-385-4292
  external_ids:
    bphc: BPS-H80-039762
  sources:
  - hrsa/health-center-sites
  verified:
    'on': '2026-07-19'
    method: api
- id: ct/stratford/stratford-academy-johnson-house-sbhc
  name: Stratford Academy Johnson House SBHC
  categories:
  - community-health-center
  address:
    street: 719 Birdseye St
    city: Stratford
    state: ct
    zip: '06615'
  geo:
    lat: 41.17985
    lng: -73.13929
  phone: 203-385-4180
  external_ids:
    bphc: BPS-H80-035580
  sources:
  - hrsa/health-center-sites
  verified:
    'on': '2026-07-19'
    method: api
- id: ct/stratford/stratford-academy-victoria-soto-school
  name: Stratford Academy Victoria Soto School
  categories:
  - community-health-center
  address:
    street: 699 Birdseye St
    city: Stratford
    state: ct
    zip: '06615'
  geo:
    lat: 41.17934
    lng: -73.13954
  phone: 203-375-2206
  external_ids:
    bphc: BPS-H80-035570
  sources:
  - hrsa/health-center-sites
  verified:
    'on': '2026-07-19'
    method: api
- id: ct/stratford/stratford-high-school-sbhc
  name: Stratford High School SBHC
  categories:
  - community-health-center
  address:
    street: 245 King St
    city: Stratford
    state: ct
    zip: '06615'
  geo:
    lat: 41.19704
    lng: -73.13478
  phone: 203-385-4230
  external_ids:
    bphc: BPS-H80-019387
  sources:
  - hrsa/health-center-sites
  verified:
    'on': '2026-07-19'
    method: api
- id: ct/stratford/wilcoxson-elementary-school-sbhc
  name: Wilcoxson Elementary School SBHC
  categories:
  - community-health-center
  address:
    street: 600 Wilcoxson Ave
    city: Stratford
    state: ct
    zip: '06614'
  geo:
    lat: 41.20784
    lng: -73.12237
  phone: 203-385-4196
  external_ids:
    bphc: BPS-H80-039763
  sources:
  - hrsa/health-center-sites
  verified:
    'on': '2026-07-19'
    method: api
