- id: ct/windsor/community-health-services-at-windsor
  name: Community Health Services at Windsor
  categories:
  - community-health-center
  cost: sliding-scale
  address:
    street: 503 Windsor Ave
    city: Windsor
    state: ct
    zip: 06095
  geo:
    lat: 41.81924
    lng: -72.65732
  phone: 860-249-9625
  external_ids:
    bphc: BPS-H80-012502
  sources:
  - hrsa/health-center-sites
  verified:
    'on': '2026-07-19'
    method: api
  place: 0906050
- id: ct/windsor/crec-early-learning-center-at-roger-wolcott
  name: CREC Early Learning Center at Roger Wolcott
  categories:
  - child-care
  address:
    street: 451 Windsor Ave
    city: Windsor
    state: ct
    zip: 06095
  description: Head Start early childhood program — 51 funded slots; operated by Capitol Region Education
    Council.
  geo:
    lat: 41.81625
    lng: -72.65901
  phone: 860-244-2004
  sources:
  - acf/head-start-locations
  verified:
    'on': '2026-07-19'
    method: api
  place: 0906050
- id: ct/windsor/crec-head-start-at-the-roger-wolcott-early-learn
  name: CREC Head Start at the Roger Wolcott Early Learning Center
  categories:
  - community-health-center
  cost: sliding-scale
  address:
    street: 451 Windsor Ave
    city: Windsor
    state: ct
    zip: 06095
  geo:
    lat: 41.81628
    lng: -72.6585
  phone: 860-524-4063
  external_ids:
    bphc: BPS-H80-039837
  sources:
  - hrsa/health-center-sites
  verified:
    'on': '2026-07-19'
    method: api
  place: 0906050
- id: ct/windsor/housing-authority-of-the-town-of-windsor
  name: Housing Authority Of The Town Of Windsor
  categories:
  - housing-assistance
  address:
    street: 156 Bloomfield Ave
    city: Windsor
    state: ct
    zip: 06095
  description: Housing Choice Voucher (Section 8) agency
  geo:
    lat: 41.85242
    lng: -72.65134
  phone: 860-285-8090
  sources:
  - hud/resource-locator
  verified:
    'on': '2026-07-19'
    method: api
  place: 0906050
- id: ct/windsor/john-fitch-park
  name: John Fitch Park
  categories:
  - meal-program
  address:
    street: 156 Bloomfield Ave.
    city: Windsor
    state: ct
    zip: 06095
  description: Free summer meals for kids and teens (2026 season) — sponsored by Windsor Public Schools
    - Summer Food Service Program.
  geo:
    lat: 41.8523
    lng: -72.65116
  external_ids:
    usda_master: Cycle 08_CT_SFSP_0215
  sources:
  - usda/summer-meal-sites
  verified:
    'on': '2026-07-19'
    method: api
  place: 0906050
- id: ct/windsor/sharshon-park
  name: Sharshon Park
  categories:
  - meal-program
  address:
    street: 38 Skitchenwaug Road
    city: Windsor
    state: ct
    zip: 06095
  description: Free summer meals for kids and teens (2026 season) — sponsored by Windsor Public Schools
    - Summer Food Service Program.
  geo:
    lat: 41.8129
    lng: -72.65532
  external_ids:
    usda_master: Cycle 08_CT_SFSP_0216
  sources:
  - usda/summer-meal-sites
  verified:
    'on': '2026-07-19'
    method: api
  place: 0906050
