- id: az/mesa/a-shining-star
  name: A Shining Star
  categories:
  - child-care
  address:
    street: 810 E Southern Ave
    city: Mesa
    state: az
    zip: '85204'
  place: '0446000'
  geo:
    lat: 33.39376
    lng: -111.81387
  phone: 602-372-3700
  sources:
  - acf/head-start-locations
  verified:
    'on': '2026-07-19'
    method: api
- id: az/mesa/adams
  name: Adams
  categories:
  - child-care
  address:
    street: 738 S Longmore
    city: Mesa
    state: az
    zip: '85202'
  place: '0446000'
  geo:
    lat: 33.40151
    lng: -111.86723
  phone: 602-372-3700
  sources:
  - acf/head-start-locations
  verified:
    'on': '2026-07-19'
    method: api
- id: az/mesa/adelante-healthcare-mesa
  name: Adelante Healthcare Mesa
  categories:
  - community-health-center
  address:
    street: 1705 W Main St
    city: Mesa
    state: az
    zip: '85201'
  place: '0446000'
  geo:
    lat: 33.41447
    lng: -111.86769
  phone: 480-964-2273
  external_ids:
    bphc: BPS-H80-012124
  sources:
  - hrsa/health-center-sites
  verified:
    'on': '2026-07-19'
    method: api
- id: az/mesa/adolescent-substance-abuse-program-asap
  name: Adolescent Substance Abuse Program (ASAP)
  categories:
  - su-treatment
  address:
    street: 2530 South Alma School Road
    city: Mesa
    state: az
    zip: '85210'
  place: '0446000'
  geo:
    lat: 33.58392
    lng: -111.9786
  phone: 602-434-0249
  website: https://www.asapaz.com
  sources:
  - samhsa/findtreatment
  verified:
    'on': '2026-07-19'
    method: api
- id: az/mesa/agave-ridge-behavioral
  name: Agave Ridge Behavioral
  categories:
  - su-treatment
  - mh-treatment
  address:
    street: 3322 South Ellsworth Road
    city: Mesa
    state: az
    zip: '85212'
  place: '0446000'
  geo:
    lat: 33.35522
    lng: -111.6361
  phone: 480-648-1008
  website: https://www.agaveridgebehavioral.com/
  sources:
  - samhsa/findtreatment
  verified:
    'on': '2026-07-19'
    method: api
- id: az/mesa/archways-recovery-centers-llc-dba-choice-recover
  name: Archways Recovery Centers LLC DBA Choice Recovery Center
  categories:
  - su-treatment
  - mh-treatment
  address:
    street: 724 West University Drive
    city: Mesa
    state: az
    zip: '85201'
  place: '0446000'
  geo:
    lat: 33.4228
    lng: -111.84694
  phone: 480-527-0337
  website: https://www.ChoiceHealthAZ.com
  sources:
  - samhsa/findtreatment
  verified:
    'on': '2026-07-19'
    method: api
- id: az/mesa/bellview
  name: Bellview
  categories:
  - child-care
  address:
    street: 466 S Bellview
    city: Mesa
    state: az
    zip: '85204'
  place: '0446000'
  geo:
    lat: 33.40588
    lng: -111.81566
  phone: 602-372-3700
  sources:
  - acf/head-start-locations
  verified:
    'on': '2026-07-19'
    method: api
- id: az/mesa/boulder-creek-elementary
  name: Boulder Creek Elementary
  categories:
  - meal-program
  address:
    street: 8045 E. Portobello Avenue
    city: Mesa
    state: az
    zip: '85212'
  description: Free summer meals for kids and teens (2026 season) — sponsored by Gilbert Unified District.
  place: '0446000'
  geo:
    lat: 33.36049
    lng: -111.66066
  external_ids:
    usda_master: Cycle 03_AZ_SFSP_0079
  sources:
  - usda/summer-meal-sites
  verified:
    'on': '2026-07-19'
    method: api
- id: az/mesa/brinton-elementary-school
  name: Brinton Elementary School
  categories:
  - community-health-center
  address:
    street: 11455 E Sunland Ave
    city: Mesa
    state: az
    zip: '85208'
  place: '0446000'
  geo:
    lat: 33.39604
    lng: -111.58283
  phone: 480-472-4075
  external_ids:
    bphc: BPS-H80-037938
  sources:
  - hrsa/health-center-sites
  verified:
    'on': '2026-07-19'
    method: api
- id: az/mesa/chicanos-por-la-causa-centro-esperanza
  name: Chicanos Por La Causa Centro Esperanza
  categories:
  - su-treatment
  - mh-treatment
  address:
    street: 325 North Stapley Drive
    city: Mesa
    state: az
    zip: '85203'
  place: '0446000'
  geo:
    lat: 33.42129
    lng: -111.80494
  phone: 480-615-3800
  website: https://www.cplc.org
  sources:
  - samhsa/findtreatment
  verified:
    'on': '2026-07-19'
    method: api
- id: az/mesa/child-crisis-arizona-mesa-campus
  name: Child Crisis Arizona Mesa Campus
  categories:
  - child-care
  address:
    street: 817 N Country Club Dr
    city: Mesa
    state: az
    zip: '85201'
  place: '0446000'
  geo:
    lat: 33.43017
    lng: -111.83866
  phone: 480-304-9501
  sources:
  - acf/head-start-locations
  verified:
    'on': '2026-07-19'
    method: api
- id: az/mesa/city-of-mesa-dobson-ranch-library
  name: City Of Mesa - Dobson Ranch Library
  categories:
  - meal-program
  address:
    street: 2425 South Dobson Rd
    city: Mesa
    state: az
    zip: '85202'
  description: Free summer meals for kids and teens (2026 season) — sponsored by St. Mary's Food Bank
    Alliance.
  place: '0446000'
  geo:
    lat: 33.37058
    lng: -111.87971
  external_ids:
    usda_master: Cycle 06_AZ_SFSP_0102
  sources:
  - usda/summer-meal-sites
  verified:
    'on': '2026-07-19'
    method: api
- id: az/mesa/city-of-mesa-housing-authority
  name: City Of Mesa Housing Authority
  categories:
  - housing-assistance
  address:
    street: 200 S Center St
    city: Mesa
    state: az
    zip: '85210'
  description: Housing Choice Voucher (Section 8) agency
  place: '0446000'
  geo:
    lat: 33.41004
    lng: -111.83167
  phone: 480-644-3536
  sources:
  - hud/resource-locator
  verified:
    'on': '2026-07-19'
    method: api
- id: az/mesa/city-of-mesa-jefferson-recreational-center
  name: City Of Mesa - Jefferson Recreational Center
  categories:
  - meal-program
  address:
    street: 120 S Jefferson Ave
    city: Mesa
    state: az
    zip: '85208'
  description: Free summer meals for kids and teens (2026 season) — sponsored by Mesa Unified District.
  place: '0446000'
  geo:
    lat: 33.41247
    lng: -111.6783
  external_ids:
    usda_master: Cycle 05_AZ_SFSP_0270
  sources:
  - usda/summer-meal-sites
  verified:
    'on': '2026-07-19'
    method: api
- id: az/mesa/city-of-mesa-mesa-main-library
  name: City Of Mesa - Mesa Main Library
  categories:
  - meal-program
  address:
    street: 64 E 1St St.
    city: Mesa
    state: az
    zip: '85201'
  description: Free summer meals for kids and teens (2026 season) — sponsored by St. Mary's Food Bank
    Alliance.
  place: '0446000'
  geo:
    lat: 33.4173
    lng: -111.82942
  external_ids:
    usda_master: Cycle 06_AZ_SFSP_0106
  sources:
  - usda/summer-meal-sites
  verified:
    'on': '2026-07-19'
    method: api
- id: az/mesa/city-of-mesa-skyline-aquatic-center
  name: City Of Mesa - Skyline Aquatic Center
  categories:
  - meal-program
  address:
    street: 845 S Crismon Rd
    city: Mesa
    state: az
    zip: '85208'
  description: Free summer meals for kids and teens (2026 season) — sponsored by Mesa Unified District.
  place: '0446000'
  geo:
    lat: 33.39969
    lng: -111.61535
  external_ids:
    usda_master: Cycle 04_AZ_SFSP_0411
  sources:
  - usda/summer-meal-sites
  verified:
    'on': '2026-07-19'
    method: api
- id: az/mesa/community-medical-services-mesa
  name: Community Medical Services Mesa
  categories:
  - su-treatment
  address:
    street: 6116 East Arbor Avenue
    city: Mesa
    state: az
    zip: '85206'
  place: '0446000'
  geo:
    lat: 33.41432
    lng: -111.69863
  phone: 480-499-4599
  website: https://www.communitymedicalservices.org
  sources:
  - samhsa/findtreatment
  verified:
    'on': '2026-07-19'
    method: api
- id: az/mesa/community-medical-services-mesa-on-main
  name: Community Medical Services Mesa on Main
  categories:
  - su-treatment
  address:
    street: 2940 East Main Street
    city: Mesa
    state: az
    zip: '85213'
  place: '0446000'
  geo:
    lat: 33.4159
    lng: -111.76738
  phone: 480-977-1500
  website: https://www.communitymedicalservices.org
  sources:
  - samhsa/findtreatment
  verified:
    'on': '2026-07-19'
    method: api
- id: az/mesa/copa-health-east-valley
  name: Copa Health East Valley
  categories:
  - su-treatment
  - mh-treatment
  address:
    street: 4330 East University Drive
    city: Mesa
    state: az
    zip: '85205'
  place: '0446000'
  geo:
    lat: 33.4234
    lng: -111.73769
  phone: 480-218-3280
  website: https://www.copahealth.org
  sources:
  - samhsa/findtreatment
  verified:
    'on': '2026-07-19'
    method: api
- id: az/mesa/crossroads-360-community-care-clinic
  name: Crossroads 360 Community Care Clinic
  categories:
  - su-treatment
  - mh-treatment
  address:
    street: 244 North Extension Road
    city: Mesa
    state: az
    zip: '85201'
  place: '0446000'
  geo:
    lat: 33.42001
    lng: -111.84918
  phone: 602-730-3388
  website: https://www.thecrossroadsinc.org
  sources:
  - samhsa/findtreatment
  verified:
    'on': '2026-07-19'
    method: api
- id: az/mesa/crossroads-extension-for-women
  name: Crossroads Extension for Women
  categories:
  - su-treatment
  address:
    street: 244 North Extension Road
    city: Mesa
    state: az
    zip: '85201'
  place: '0446000'
  geo:
    lat: 33.42012
    lng: -111.84894
  phone: 602-730-3377
  website: https://www.thecrossroadsinc.org
  sources:
  - samhsa/findtreatment
  verified:
    'on': '2026-07-19'
    method: api
- id: az/mesa/crossroads-red-mountain
  name: Crossroads Red Mountain
  categories:
  - su-treatment
  address:
    street: 143 South Center Street
    city: Mesa
    state: az
    zip: '85210'
  place: '0446000'
  geo:
    lat: 33.41161
    lng: -111.8311
  phone: 602-730-3400
  website: https://www.thecrossroadsinc.org
  sources:
  - samhsa/findtreatment
  verified:
    'on': '2026-07-19'
    method: api
- id: az/mesa/dbotc-llc-treatment-center
  name: DBOTC LLC Treatment Center
  categories:
  - su-treatment
  - mh-treatment
  address:
    street: 1616 East Main Street
    city: Mesa
    state: az
    zip: '85203'
  place: '0446000'
  geo:
    lat: 33.41565
    lng: -111.79598
  phone: 480-739-0073
  website: https://dbomanagementaz.com/dbotc-treatment-center
  sources:
  - samhsa/findtreatment
  verified:
    'on': '2026-07-19'
    method: api
- id: az/mesa/denova-collaborative-health-dobson-ranch
  name: Denova Collaborative Health Dobson Ranch
  categories:
  - su-treatment
  - mh-treatment
  address:
    street: 2204 South Dobson Road
    city: Mesa
    state: az
    zip: '85202'
  place: '0446000'
  geo:
    lat: 33.37558
    lng: -111.88001
  phone: 602-230-7373
  website: https://www.denova.com
  sources:
  - samhsa/findtreatment
  verified:
    'on': '2026-07-19'
    method: api
- id: az/mesa/edison
  name: Edison
  categories:
  - child-care
  address:
    street: 545 N Horne Ave
    street2: Rm 5
    city: Mesa
    state: az
    zip: '85203'
  place: '0446000'
  geo:
    lat: 33.42515
    lng: -111.81297
  phone: 602-372-3700
  sources:
  - acf/head-start-locations
  verified:
    'on': '2026-07-19'
    method: api
- id: az/mesa/eisenhower-center-for-innovation
  name: Eisenhower Center For Innovation
  categories:
  - meal-program
  address:
    street: 848 North Mesa Dr
    city: Mesa
    state: az
    zip: '85201'
  description: Free summer meals for kids and teens (2026 season) — sponsored by Mesa Unified District.
  place: '0446000'
  geo:
    lat: 33.43077
    lng: -111.82277
  external_ids:
    usda_master: Cycle 04_AZ_SFSP_0479
  sources:
  - usda/summer-meal-sites
  verified:
    'on': '2026-07-19'
    method: api
- id: az/mesa/emerson-elementary-school
  name: Emerson Elementary School
  categories:
  - meal-program
  address:
    street: 415 N Westwood
    city: Mesa
    state: az
    zip: '85201'
  description: Free summer meals for kids and teens (2026 season) — sponsored by Mesa Unified District.
  place: '0446000'
  geo:
    lat: 33.42318
    lng: -111.85228
  external_ids:
    usda_master: Cycle 04_AZ_SFSP_0258
  sources:
  - usda/summer-meal-sites
  verified:
    'on': '2026-07-19'
    method: api
- id: az/mesa/evit
  name: EVIT
  categories:
  - child-care
  address:
    street: 1601 W Main St
    city: Mesa
    state: az
    zip: '85201'
  place: '0446000'
  geo:
    lat: 33.41381
    lng: -111.86259
  phone: 602-372-3700
  sources:
  - acf/head-start-locations
  verified:
    'on': '2026-07-19'
    method: api
- id: az/mesa/falcon-hill-elementary-school
  name: Falcon Hill Elementary School
  categories:
  - community-health-center
  address:
    street: 1645 N Sterling
    city: Mesa
    state: az
    zip: '85207'
  place: '0446000'
  geo:
    lat: 33.44673
    lng: -111.67325
  phone: 480-472-0200
  external_ids:
    bphc: BPS-H80-037994
  sources:
  - hrsa/health-center-sites
  verified:
    'on': '2026-07-19'
    method: api
- id: az/mesa/family-service-agency-mesa-site
  name: Family Service Agency Mesa Site
  categories:
  - su-treatment
  - mh-treatment
  address:
    street: 1107 South Gilbert Road
    city: Mesa
    state: az
    zip: '85204'
  place: '0446000'
  geo:
    lat: 33.39503
    lng: -111.78657
  phone: 480-507-8619 x301
  website: https://www.fsaphoenix.org
  sources:
  - samhsa/findtreatment
  verified:
    'on': '2026-07-19'
    method: api
- id: az/mesa/first-presbyterian-church
  name: First Presbyterian Church
  categories:
  - child-care
  address:
    street: 161 N Mesa Dr
    city: Mesa
    state: az
    zip: '85201'
  place: '0446000'
  geo:
    lat: 33.4192
    lng: -111.82177
  phone: 602-372-3700
  sources:
  - acf/head-start-locations
  verified:
    'on': '2026-07-19'
    method: api
- id: az/mesa/first-united-methodist-church
  name: First United Methodist Church
  categories:
  - child-care
  address:
    street: 15 E 1st Ave
    street2: '# 1'
    city: Mesa
    state: az
    zip: '85201'
  place: '0446000'
  geo:
    lat: 33.41292
    lng: -111.83129
  phone: 602-372-3700
  sources:
  - acf/head-start-locations
  verified:
    'on': '2026-07-19'
    method: api
- id: az/mesa/franklin-accelerated-academy-brimhall-campus
  name: Franklin Accelerated Academy - Brimhall Campus
  categories:
  - meal-program
  address:
    street: 4949 E Southern Ave
    city: Mesa
    state: az
    zip: '85206'
  description: Free summer meals for kids and teens (2026 season) — sponsored by Mesa Unified District.
  place: '0446000'
  geo:
    lat: 33.39377
    lng: -111.72427
  external_ids:
    usda_master: Cycle 04_AZ_SFSP_0412
  sources:
  - usda/summer-meal-sites
  verified:
    'on': '2026-07-19'
    method: api
- id: az/mesa/free-life-wellness-center
  name: Free Life Wellness Center
  categories:
  - meal-program
  address:
    street: 1731 W Baseline Rd.
    city: Mesa
    state: az
    zip: '85202'
  description: Free summer meals for kids and teens (2026 season) — sponsored by Learning Enrichment After-School
    Program (LEAP).
  place: '0446000'
  geo:
    lat: 33.37785
    lng: -111.87155
  external_ids:
    usda_master: Cycle 05_AZ_SFSP_0783
  sources:
  - usda/summer-meal-sites
  verified:
    'on': '2026-07-19'
    method: api
- id: az/mesa/harris-elementary-school
  name: Harris Elementary School
  categories:
  - meal-program
  address:
    street: 1820 S. Harris Drive
    city: Mesa
    state: az
    zip: '85204'
  description: Free summer meals for kids and teens (2026 season) — sponsored by Gilbert Unified District.
  place: '0446000'
  geo:
    lat: 33.38207
    lng: -111.797
  external_ids:
    usda_master: Cycle 03_AZ_SFSP_0080
  sources:
  - usda/summer-meal-sites
  verified:
    'on': '2026-07-19'
    method: api
- id: az/mesa/highland-arts-elementary
  name: Highland Arts Elementary
  categories:
  - meal-program
  address:
    street: 3042 E Adobe St
    city: Mesa
    state: az
    zip: '85213'
  description: Free summer meals for kids and teens (2026 season) — sponsored by Mesa Unified District.
  place: '0446000'
  geo:
    lat: 33.43001
    lng: -111.76553
  external_ids:
    usda_master: Cycle 04_AZ_SFSP_0480
  sources:
  - usda/summer-meal-sites
  verified:
    'on': '2026-07-19'
    method: api
- id: az/mesa/hope-and-healing-addiction-treatment-centers
  name: Hope and Healing Addiction Treatment Centers
  categories:
  - su-treatment
  - mh-treatment
  address:
    street: 3512 North Higley Road
    city: Mesa
    state: az
    zip: '85215'
  place: '0446000'
  geo:
    lat: 33.47907
    lng: -111.71904
  phone: 602-449-7999
  website: https://www.azhopeandhealing.com
  sources:
  - samhsa/findtreatment
  verified:
    'on': '2026-07-19'
    method: api
- id: az/mesa/hughes
  name: Hughes
  categories:
  - child-care
  address:
    street: 630 N Hunt Dr
    city: Mesa
    state: az
    zip: '85203'
  place: '0446000'
  geo:
    lat: 33.42922
    lng: -111.80096
  phone: 602-372-3700
  sources:
  - acf/head-start-locations
  verified:
    'on': '2026-07-19'
    method: api
- id: az/mesa/imagine-east-mesa-elementary
  name: Imagine East Mesa Elementary
  categories:
  - meal-program
  address:
    street: 9701 E. Southern Ave
    city: Mesa
    state: az
    zip: '85208'
  description: Free summer meals for kids and teens (2026 season) — sponsored by East Mesa Charter Elementary
    School, Inc..
  place: '0446000'
  geo:
    lat: 33.39331
    lng: -111.6223
  external_ids:
    usda_master: Cycle 03_AZ_SSO_0169
  sources:
  - usda/summer-meal-sites
  verified:
    'on': '2026-07-19'
    method: api
- id: az/mesa/javelina-health-center
  name: Javelina Health Center
  categories:
  - community-health-center
  address:
    street: 222 E Javelina Ave
    city: Mesa
    state: az
    zip: '85210'
  place: '0446000'
  geo:
    lat: 33.38091
    lng: -111.82739
  phone: 602-685-6000
  website: https://www.terroshealth.org
  external_ids:
    bphc: BPS-H80-038491
  sources:
  - hrsa/health-center-sites
  verified:
    'on': '2026-07-19'
    method: api
- id: az/mesa/jefferson-elementary-school
  name: Jefferson Elementary School
  categories:
  - meal-program
  address:
    street: 120 S Jefferson Ave
    city: Mesa
    state: az
    zip: '85208'
  description: Free summer meals for kids and teens (2026 season) — sponsored by Mesa Unified District.
  place: '0446000'
  geo:
    lat: 33.41247
    lng: -111.6783
  external_ids:
    usda_master: Cycle 04_AZ_SFSP_0481
  sources:
  - usda/summer-meal-sites
  verified:
    'on': '2026-07-19'
    method: api
- id: az/mesa/k-8-stem-academy-at-red-mountain-ranch
  name: K-8 Stem Academy At Red Mountain Ranch
  categories:
  - meal-program
  address:
    street: 6650 E Raftriver St
    city: Mesa
    state: az
    zip: '85215'
  description: Free summer meals for kids and teens (2026 season) — sponsored by Mesa Unified District.
  place: '0446000'
  geo:
    lat: 33.48228
    lng: -111.68721
  external_ids:
    usda_master: Cycle 04_AZ_SFSP_0482
  sources:
  - usda/summer-meal-sites
  verified:
    'on': '2026-07-19'
    method: api
- id: az/mesa/kino-junior-high-school
  name: Kino Junior High School
  categories:
  - meal-program
  address:
    street: 848 N. Horne
    city: Mesa
    state: az
    zip: '85203'
  description: Free summer meals for kids and teens (2026 season) — sponsored by Mesa Unified District.
  place: '0446000'
  geo:
    lat: 33.43132
    lng: -111.81402
  external_ids:
    usda_master: Cycle 04_AZ_SFSP_0413
  sources:
  - usda/summer-meal-sites
  verified:
    'on': '2026-07-19'
    method: api
- id: az/mesa/la-mesita
  name: La Mesita
  categories:
  - child-care
  address:
    street: 2254 W Main St
    city: Mesa
    state: az
    zip: '85201'
  place: '0446000'
  geo:
    lat: 33.41537
    lng: -111.8805
  phone: 602-372-3700
  sources:
  - acf/head-start-locations
  verified:
    'on': '2026-07-19'
    method: api
- id: az/mesa/leading-edge-academy-at-east-mesa
  name: Leading Edge Academy At East Mesa
  categories:
  - meal-program
  address:
    street: 10115 E University Dr
    city: Mesa
    state: az
    zip: '85207'
  description: Free summer meals for kids and teens (2026 season) — sponsored by LEAD Charter Schools.
  place: '0446000'
  geo:
    lat: 33.42232
    lng: -111.61361
  external_ids:
    usda_master: Cycle 04_AZ_SSO_0400
  sources:
  - usda/summer-meal-sites
  verified:
    'on': '2026-07-19'
    method: api
- id: az/mesa/life-changers-worship-center
  name: Life Changers Worship Center
  categories:
  - meal-program
  address:
    street: 1660 S Alma School Rd
    city: Mesa
    state: az
    zip: '85210'
  description: Free summer meals for kids and teens (2026 season) — sponsored by St. Mary's Food Bank
    Alliance.
  place: '0446000'
  geo:
    lat: 33.38402
    lng: -111.85765
  external_ids:
    usda_master: Cycle 06_AZ_SFSP_0141
  sources:
  - usda/summer-meal-sites
  verified:
    'on': '2026-07-19'
    method: api
- id: az/mesa/lifeline-behavioral-health
  name: Lifeline Behavioral Health
  categories:
  - su-treatment
  - mh-treatment
  address:
    street: 7565 East Eagle Crest Drive
    city: Mesa
    state: az
    zip: '85207'
  place: '0446000'
  geo:
    lat: 33.4909
    lng: -111.66975
  phone: 480-641-1165
  website: https://www.lifelinepcs.com
  sources:
  - samhsa/findtreatment
  verified:
    'on': '2026-07-19'
    method: api
- id: az/mesa/lindbergh
  name: Lindbergh
  categories:
  - child-care
  address:
    street: 930 S Lazona Dr
    street2: Rm 704
    city: Mesa
    state: az
    zip: '85204'
  place: '0446000'
  geo:
    lat: 33.3978
    lng: -111.803
  phone: 602-372-3700
  sources:
  - acf/head-start-locations
  verified:
    'on': '2026-07-19'
    method: api
- id: az/mesa/little-free-food-pantry-gilbert
  name: Little Free Food Pantry - Gilbert
  categories:
  - food-pantry
  place: '0446000'
  geo:
    lat: 33.3669
    lng: -111.70865
  external_ids:
    lfp: '4692'
  sources:
  - littlefreepantry/map
  verified:
    'on': '2026-07-19'
    method: scrape
- id: az/mesa/little-free-food-pantry-gilbert-az
  name: Little Free Food Pantry - Gilbert, AZ
  categories:
  - food-pantry
  place: '0446000'
  geo:
    lat: 33.3669
    lng: -111.70865
  external_ids:
    lfp: '4521'
  sources:
  - littlefreepantry/map
  verified:
    'on': '2026-07-19'
    method: scrape
- id: az/mesa/little-free-pantry-gilbert
  name: Little Free Pantry | Gilbert
  categories:
  - food-pantry
  place: '0446000'
  geo:
    lat: 33.3669
    lng: -111.70865
  external_ids:
    lfp: '4701'
  sources:
  - littlefreepantry/map
  verified:
    'on': '2026-07-19'
    method: scrape
- id: az/mesa/longfellow
  name: Longfellow
  categories:
  - child-care
  address:
    street: 345 S Hall
    street2: Rm 18
    city: Mesa
    state: az
    zip: '85204'
  place: '0446000'
  geo:
    lat: 33.40902
    lng: -111.7923
  phone: 602-372-3700
  sources:
  - acf/head-start-locations
  verified:
    'on': '2026-07-19'
    method: api
- id: az/mesa/lowell
  name: Lowell
  categories:
  - child-care
  address:
    street: 920 E Broadway Rd
    street2: Rm 49
    city: Mesa
    state: az
    zip: '85204'
  place: '0446000'
  geo:
    lat: 33.40964
    lng: -111.81054
  phone: 602-372-3700
  sources:
  - acf/head-start-locations
  verified:
    'on': '2026-07-19'
    method: api
- id: az/mesa/lowell-elementary-school
  name: Lowell Elementary School
  categories:
  - meal-program
  address:
    street: 920 E Broadway Rd
    city: Mesa
    state: az
    zip: '85204'
  description: Free summer meals for kids and teens (2026 season) — sponsored by Mesa Unified District.
  place: '0446000'
  geo:
    lat: 33.4079
    lng: -111.81058
  external_ids:
    usda_master: Cycle 04_AZ_SFSP_0483
  sources:
  - usda/summer-meal-sites
  verified:
    'on': '2026-07-19'
    method: api
- id: az/mesa/marc-community-resources-inc
  name: Marc Community Resources Inc
  categories:
  - su-treatment
  - mh-treatment
  address:
    street: 4250 East Florian Avenue
    city: Mesa
    state: az
    zip: '85206'
  place: '0446000'
  geo:
    lat: 33.39566
    lng: -111.73923
  phone: 480-969-3800
  website: https://www.copahealth.org
  sources:
  - samhsa/findtreatment
  verified:
    'on': '2026-07-19'
    method: api
- id: az/mesa/mesa-community-action-network
  name: Mesa Community Action Network
  categories:
  - utility-assistance
  description: LIHEAP intake office serving Maricopa County
  address: {street: 635 E. Broadway Rd., city: Mesa, state: az, zip: '85204'}
  place: '0446000'
  phone: 480-833-9200
  website: http://www.turnanewleaf.org/services/mesacan.html
  sources:
  - acf/liheap-clearinghouse
  verified: {'on': '2026-07-19', method: scrape}
- id: az/mesa/mesa-high-school
  name: Mesa High School
  categories:
  - meal-program
  address:
    street: 1630 E. Southern Ave.
    city: Mesa
    state: az
    zip: '85204'
  description: Free summer meals for kids and teens (2026 season) — sponsored by Mesa Unified District.
  place: '0446000'
  geo:
    lat: 33.39567
    lng: -111.79496
  external_ids:
    usda_master: Cycle 04_AZ_SFSP_0360
  sources:
  - usda/summer-meal-sites
  verified:
    'on': '2026-07-19'
    method: api
- id: az/mesa/mesa-va-clinic
  name: Mesa VA Clinic
  categories:
  - va-facility
  - health
  description: Other Outpatient Services (OOS)
  address:
    street: 4135 South Power Road
    city: Mesa
    state: az
    zip: '85212'
  place: '0446000'
  geo:
    lat: 33.34026
    lng: -111.68721
  phone: 480-397-2800
  website: https://www.va.gov/phoenix-health-care/locations/mesa-va-clinic/
  hours:
  - days:
    - mon
    - tue
    - wed
    - thu
    - fri
    open: 07:30
    close: '16:00'
  services:
  - Mental health care
  external_ids:
    va: vha_644GJ
  sources:
  - va/facilities-api
  verified:
    'on': '2026-07-19'
    method: api
- id: az/mesa/mesa-vet-center
  name: Mesa Vet Center
  categories:
  - vet-center
  address:
    street: 1303 South Longmore, Suite 5
    city: Mesa
    state: az
    zip: '85202'
  place: '0446000'
  geo:
    lat: 33.39124
    lng: -111.86316
  phone: 480-610-6727
  website: https://www.va.gov/mesa-vet-center/
  hours:
  - days:
    - mon
    - tue
    - wed
    - thu
    - fri
    open: 08:00
    close: '16:30'
  services:
  - Addiction and substance use care
  - Community engagement
  - Couples and family counseling
  - Grief and bereavement counseling
  - Homeless Veteran care
  - Military sexual trauma care
  - PTSD care
  - Returning service member care
  - Suicide prevention
  - Telehealth
  - Veteran connections
  external_ids:
    va: vc_0524V
  sources:
  - va/facilities-api
  verified:
    'on': '2026-07-19'
    method: api
- id: az/mesa/mind-24-7-higley-progression
  name: MIND 24/7 Higley Progression
  categories:
  - su-treatment
  - mh-treatment
  address:
    street: 1220 South Higley Road
    city: Mesa
    state: az
    zip: '85206'
  place: '0446000'
  geo:
    lat: 33.39245
    lng: -111.72006
  phone: 844-646-3247
  website: https://www.mind24-7.com
  sources:
  - samhsa/findtreatment
  verified:
    'on': '2026-07-19'
    method: api
- id: az/mesa/mind-24-7-mesa
  name: MIND 24/7 Mesa
  categories:
  - su-treatment
  - mh-treatment
  address:
    street: 1138 South Higley Road
    city: Mesa
    state: az
    zip: '85206'
  place: '0446000'
  geo:
    lat: 33.39444
    lng: -111.72015
  phone: 844-646-3247
  website: https://www.mind24-7.com
  sources:
  - samhsa/findtreatment
  verified:
    'on': '2026-07-19'
    method: api
- id: az/mesa/monument-recovery
  name: Monument Recovery
  categories:
  - su-treatment
  - mh-treatment
  address:
    street: 560 West Brown Road
    city: Mesa
    state: az
    zip: '85201'
  place: '0446000'
  geo:
    lat: 33.43563
    lng: -111.84307
  phone: 480-908-9821
  website: https://monumentrecovery.com/addiction-recovery-team
  sources:
  - samhsa/findtreatment
  verified:
    'on': '2026-07-19'
    method: api
- id: az/mesa/native-health-mesa
  name: Native Health Mesa
  categories:
  - meal-program
  address:
    street: 777 W Southern Ave
    city: Mesa
    state: az
    zip: '85210'
  description: Free summer meals for kids and teens (2026 season) — sponsored by St. Mary's Food Bank
    Alliance.
  place: '0446000'
  geo:
    lat: 33.39312
    lng: -111.8476
  external_ids:
    usda_master: Cycle 06_AZ_SFSP_0134
  sources:
  - usda/summer-meal-sites
  verified:
    'on': '2026-07-19'
    method: api
- id: az/mesa/new-hope-behavioral-health-center-inc
  name: New Hope Behavioral Health Center Inc
  categories:
  - su-treatment
  - mh-treatment
  address:
    street: 215 South Power Road
    city: Mesa
    state: az
    zip: '85206'
  place: '0446000'
  geo:
    lat: 33.41193
    lng: -111.68135
  phone: 480-981-1022
  website: https://www.nhbhc.net
  sources:
  - samhsa/findtreatment
  verified:
    'on': '2026-07-19'
    method: api
- id: az/mesa/northsight-recovery
  name: Northsight Recovery
  categories:
  - su-treatment
  - mh-treatment
  address:
    street: 605 North Gilbert Road
    city: Mesa
    state: az
    zip: '85203'
  place: '0446000'
  geo:
    lat: 33.42647
    lng: -111.78736
  phone: 800-905-6419
  website: https://www.northsightrecovery.com
  sources:
  - samhsa/findtreatment
  verified:
    'on': '2026-07-19'
    method: api
- id: az/mesa/nsync-community-development-corporation
  name: Nsync Community Development Corporation
  categories:
  - meal-program
  address:
    street: 659 E Main Street
    city: Mesa
    state: az
    zip: '85203'
  description: Free summer meals for kids and teens (2026 season) — sponsored by St. Mary's Food Bank
    Alliance.
  place: '0446000'
  geo:
    lat: 33.415
    lng: -111.81652
  external_ids:
    usda_master: Cycle 06_AZ_SFSP_0033
  sources:
  - usda/summer-meal-sites
  verified:
    'on': '2026-07-19'
    method: api
- id: az/mesa/ocd-anxiety-centers
  name: OCD Anxiety Centers
  categories:
  - mh-treatment
  address:
    street: 1801 South Extension Road
    city: Mesa
    state: az
    zip: '85210'
  place: '0446000'
  geo:
    lat: 33.38229
    lng: -111.84744
  phone: 801-298-2000
  website: https://www.ocdanxietycenters.com
  sources:
  - samhsa/findtreatment
  verified:
    'on': '2026-07-19'
    method: api
- id: az/mesa/patterson-elementary-school
  name: Patterson Elementary School
  categories:
  - community-health-center
  address:
    street: 615 S Cheshire
    city: Mesa
    state: az
    zip: '85208'
  place: '0446000'
  geo:
    lat: 33.40293
    lng: -111.60465
  phone: 480-472-0200
  external_ids:
    bphc: BPS-H80-037993
  sources:
  - hrsa/health-center-sites
  verified:
    'on': '2026-07-19'
    method: api
- id: az/mesa/prodigy-healthcare
  name: Prodigy Healthcare
  categories:
  - su-treatment
  address:
    street: 460 North Mesa Drive
    city: Mesa
    state: az
    zip: '85201'
  place: '0446000'
  geo:
    lat: 33.42379
    lng: -111.82453
  phone: 480-237-7136
  website: https://ProdigyHealthcareAZ.com
  sources:
  - samhsa/findtreatment
  verified:
    'on': '2026-07-19'
    method: api
- id: az/mesa/recovia-mesa-baywood
  name: Recovia Mesa Baywood
  categories:
  - su-treatment
  - mh-treatment
  address:
    street: 6553 East Baywood Avenue
    city: Mesa
    state: az
    zip: '85206'
  place: '0446000'
  geo:
    lat: 33.40992
    lng: -111.69003
  phone: 480-712-4600
  website: https://www.recovia.com
  sources:
  - samhsa/findtreatment
  verified:
    'on': '2026-07-19'
    method: api
- id: az/mesa/red-mountain-high-school
  name: Red Mountain High School
  categories:
  - meal-program
  address:
    street: 7301 E Brown Road
    city: Mesa
    state: az
    zip: '85207'
  description: Free summer meals for kids and teens (2026 season) — sponsored by Mesa Unified District.
  place: '0446000'
  geo:
    lat: 33.43691
    lng: -111.67521
  external_ids:
    usda_master: Cycle 04_AZ_SFSP_0267
  sources:
  - usda/summer-meal-sites
  verified:
    'on': '2026-07-19'
    method: api
- id: az/mesa/residents-at-the-heights-dba-unhooked-recovery-p
  name: Residents at the Heights DBA Unhooked Recovery Power Road
  categories:
  - su-treatment
  address:
    street: 215 South Power Road
    city: Mesa
    state: az
    zip: '85206'
  place: '0446000'
  geo:
    lat: 33.41136
    lng: -111.68196
  phone: 480-309-1635
  website: https://www.unhookedrecovery.com
  sources:
  - samhsa/findtreatment
  verified:
    'on': '2026-07-19'
    method: api
- id: az/mesa/residents-at-the-heights-llc-dba-unhooked-recove
  name: Residents at the Heights LLC DBA Unhooked Recovery/BHRF
  categories:
  - su-treatment
  address:
    street: 215 South Power Road
    city: Mesa
    state: az
    zip: '85206'
  place: '0446000'
  geo:
    lat: 33.41193
    lng: -111.68135
  phone: 602-368-4471
  website: https://www.unhookedrecovery.com
  sources:
  - samhsa/findtreatment
  verified:
    'on': '2026-07-19'
    method: api
- id: az/mesa/rhodes-junior-high-school
  name: Rhodes Junior High School
  categories:
  - meal-program
  address:
    street: 1860 S Longmore
    city: Mesa
    state: az
    zip: '85202'
  description: Free summer meals for kids and teens (2026 season) — sponsored by Mesa Unified District.
  place: '0446000'
  geo:
    lat: 33.38092
    lng: -111.86884
  external_ids:
    usda_master: Cycle 04_AZ_SFSP_0414
  sources:
  - usda/summer-meal-sites
  verified:
    'on': '2026-07-19'
    method: api
- id: az/mesa/smith-junior-high-school
  name: Smith Junior High School
  categories:
  - community-health-center
  address:
    street: 10100 E Adobe Rd
    city: Mesa
    state: az
    zip: '85207'
  place: '0446000'
  geo:
    lat: 33.43023
    lng: -111.61363
  phone: 480-472-0200
  external_ids:
    bphc: BPS-H80-037937
  sources:
  - hrsa/health-center-sites
  verified:
    'on': '2026-07-19'
    method: api
- id: az/mesa/sousa-elementary-school
  name: Sousa Elementary School
  categories:
  - community-health-center
  address:
    street: 616 N Mountain Rd
    city: Mesa
    state: az
    zip: '85207'
  place: '0446000'
  geo:
    lat: 33.4276
    lng: -111.5901
  phone: 480-472-8900
  external_ids:
    bphc: BPS-H80-038063
  sources:
  - hrsa/health-center-sites
  verified:
    'on': '2026-07-19'
    method: api
- id: az/mesa/southwest-behavioral-health-services-mesa-clinic
  name: Southwest Behavioral Health Services Mesa Clinic
  categories:
  - su-treatment
  - mh-treatment
  address:
    street: 1255 West Baseline Road
    city: Mesa
    state: az
    zip: '85202'
  place: '0446000'
  geo:
    lat: 33.37756
    lng: -111.86084
  phone: 602-257-9339
  website: https://www.sbhservices.org
  sources:
  - samhsa/findtreatment
  verified:
    'on': '2026-07-19'
    method: api
- id: az/mesa/stand-together-and-recover-centers
  name: Stand Together and Recover Centers
  categories:
  - su-treatment
  - mh-treatment
  address:
    street: 1310 West University Drive
    city: Mesa
    state: az
    zip: '85201'
  place: '0446000'
  geo:
    lat: 33.42288
    lng: -111.85798
  phone: 480-649-3642
  website: https://www.thestarcenters.org
  sources:
  - samhsa/findtreatment
  verified:
    'on': '2026-07-19'
    method: api
- id: az/mesa/stapley-integrated-care
  name: Stapley Integrated Care
  categories:
  - community-health-center
  address:
    street: 1111 S Stapley Dr
    city: Mesa
    state: az
    zip: '85204'
  place: '0446000'
  geo:
    lat: 33.395
    lng: -111.80426
  phone: 602-685-6000
  website: https://terroshealth.org
  external_ids:
    bphc: BPS-H80-030288
  sources:
  - hrsa/health-center-sites
  verified:
    'on': '2026-07-19'
    method: api
- id: az/mesa/stapley-junior-high-school
  name: Stapley Junior High School
  categories:
  - meal-program
  address:
    street: 3250 E. Hermosa Vista Dr.
    city: Mesa
    state: az
    zip: '85213'
  description: Free summer meals for kids and teens (2026 season) — sponsored by Mesa Unified District.
  place: '0446000'
  geo:
    lat: 33.45911
    lng: -111.75929
  external_ids:
    usda_master: Cycle 04_AZ_SFSP_0415
  sources:
  - usda/summer-meal-sites
  verified:
    'on': '2026-07-19'
    method: api
- id: az/mesa/stevenson
  name: Stevenson
  categories:
  - child-care
  address:
    street: 638 S 96th St
    street2: Rm 30
    city: Mesa
    state: az
    zip: '85208'
  place: '0446000'
  geo:
    lat: 33.40313
    lng: -111.62527
  phone: 602-372-3700
  sources:
  - acf/head-start-locations
  verified:
    'on': '2026-07-19'
    method: api
- id: az/mesa/stevenson-elementary-school
  name: Stevenson Elementary School
  categories:
  - community-health-center
  address:
    street: 638 S 96th St
    city: Mesa
    state: az
    zip: '85208'
  place: '0446000'
  geo:
    lat: 33.40325
    lng: -111.62423
  phone: 480-472-9000
  external_ids:
    bphc: BPS-H80-037997
  sources:
  - hrsa/health-center-sites
  verified:
    'on': '2026-07-19'
    method: api
- id: az/mesa/sun-life-health-mesa-family-practice
  name: Sun Life Health - Mesa Family Practice
  categories:
  - community-health-center
  address:
    street: 10032 E Southern Ave
    city: Mesa
    state: az
    zip: '85209'
  place: '0446000'
  geo:
    lat: 33.39377
    lng: -111.61359
  phone: 480-351-2850
  external_ids:
    bphc: BPS-H80-035987
  sources:
  - hrsa/health-center-sites
  verified:
    'on': '2026-07-19'
    method: api
- id: az/mesa/surestep-psychology-services
  name: SureStep Psychology Services
  categories:
  - su-treatment
  - mh-treatment
  address:
    street: 1220 South Alma School Road
    city: Mesa
    state: az
    zip: '85210'
  place: '0446000'
  geo:
    lat: 33.39263
    lng: -111.85784
  phone: 480-809-7641
  website: https://suresteponline.org
  sources:
  - samhsa/findtreatment
  verified:
    'on': '2026-07-19'
    method: api
- id: az/mesa/taft
  name: Taft
  categories:
  - child-care
  address:
    street: 9800 E Quarterline Rd
    street2: Rm 41
    city: Mesa
    state: az
    zip: '85207'
  place: '0446000'
  geo:
    lat: 33.42707
    lng: -111.61964
  phone: 602-372-3700
  sources:
  - acf/head-start-locations
  verified:
    'on': '2026-07-19'
    method: api
- id: az/mesa/tlc-treatment-center
  name: TLC Treatment Center
  categories:
  - su-treatment
  - mh-treatment
  address:
    street: 32 South Macdonald Street
    city: Mesa
    state: az
    zip: '85210'
  place: '0446000'
  geo:
    lat: 33.41411
    lng: -111.83442
  phone: 480-969-1471
  website: https://
  sources:
  - samhsa/findtreatment
  verified:
    'on': '2026-07-19'
    method: api
- id: az/mesa/transitions-counseling-and-consulting
  name: Transitions Counseling and Consulting
  categories:
  - su-treatment
  - mh-treatment
  address:
    street: 1017 South Gilbert Road
    city: Mesa
    state: az
    zip: '85204'
  place: '0446000'
  geo:
    lat: 33.39588
    lng: -111.78718
  phone: 602-363-0629
  website: https://transitionscounselingandconsult.com
  sources:
  - samhsa/findtreatment
  verified:
    'on': '2026-07-19'
    method: api
- id: az/mesa/unhooked-recovery-main-street
  name: Unhooked Recovery Main Street
  categories:
  - su-treatment
  - mh-treatment
  address:
    street: 5801 East Main Street
    city: Mesa
    state: az
    zip: '85205'
  place: '0446000'
  geo:
    lat: 33.41501
    lng: -111.70489
  phone: 602-368-4471
  website: https://www.unhookedrecovery.com
  sources:
  - samhsa/findtreatment
  verified:
    'on': '2026-07-19'
    method: api
- id: az/mesa/university
  name: University
  categories:
  - community-health-center
  address:
    street: 262 East University Drive
    city: Mesa
    state: az
    zip: '85201'
  place: '0446000'
  geo:
    lat: 33.42234
    lng: -111.82513
  phone: 602-685-6000
  website: https://terroshealth.org
  external_ids:
    bphc: BPS-H80-038755
  sources:
  - hrsa/health-center-sites
  verified:
    'on': '2026-07-19'
    method: api
- id: az/mesa/valle-del-sol-4135
  name: Valle del Sol_4135
  categories:
  - community-health-center
  address:
    street: 4135 S Power Rd, Suite 108
    city: Mesa
    state: az
    zip: '85212'
  place: '0446000'
  geo:
    lat: 33.34028
    lng: -111.68623
  phone: 602-258-6797
  external_ids:
    bphc: BPS-H80-032833
  sources:
  - hrsa/health-center-sites
  verified:
    'on': '2026-07-19'
    method: api
- id: az/mesa/valle-del-sol-east-valley
  name: Valle del Sol East Valley
  categories:
  - su-treatment
  - mh-treatment
  address:
    street: 334 West 10th Place
    city: Mesa
    state: az
    zip: '85201'
  place: '0446000'
  geo:
    lat: 33.43445
    lng: -111.83899
  phone: 602-258-6797
  website: https://www.valledelsol.com
  sources:
  - samhsa/findtreatment
  verified:
    'on': '2026-07-19'
    method: api
- id: az/mesa/valle-del-sol-mesa-334
  name: Valle del Sol_Mesa_334
  categories:
  - community-health-center
  address:
    street: 334 W 10th Pl, Suite 101
    city: Mesa
    state: az
    zip: '85201'
  place: '0446000'
  geo:
    lat: 33.43446
    lng: -111.83886
  phone: 602-258-6797
  external_ids:
    bphc: BPS-H80-022149
  sources:
  - hrsa/health-center-sites
  verified:
    'on': '2026-07-19'
    method: api
- id: az/mesa/valle-del-sol-southeast-valley
  name: Valle del Sol Southeast Valley
  categories:
  - su-treatment
  - mh-treatment
  address:
    street: 4135 South Power Road
    city: Mesa
    state: az
    zip: '85212'
  place: '0446000'
  geo:
    lat: 33.34059
    lng: -111.68433
  phone: 602-258-6797
  website: https://www.valledelsol.com
  sources:
  - samhsa/findtreatment
  verified:
    'on': '2026-07-19'
    method: api
- id: az/mesa/valleywise-behavioral-health-center-mesa
  name: Valleywise Behavioral Health Center Mesa
  categories:
  - su-treatment
  - mh-treatment
  address:
    street: 570 West Brown Road
    city: Mesa
    state: az
    zip: '85201'
  place: '0446000'
  geo:
    lat: 33.43589
    lng: -111.84496
  phone: 480-344-2086
  website: https://www.valleywisehealth.org
  sources:
  - samhsa/findtreatment
  verified:
    'on': '2026-07-19'
    method: api
- id: az/mesa/valleywise-community-health-center-mesa
  name: Valleywise Community Health Center - Mesa
  categories:
  - community-health-center
  address:
    street: 950 E Main St
    city: Mesa
    state: az
    zip: '85203'
  place: '0446000'
  geo:
    lat: 33.41558
    lng: -111.81002
  phone: 602-655-6200
  website: https://www.valleywisehealth.org
  external_ids:
    bphc: BPS-H80-034022
  sources:
  - hrsa/health-center-sites
  verified:
    'on': '2026-07-19'
    method: api
- id: az/mesa/valleywise-mesa-health-center
  name: Valleywise - Mesa Health Center
  categories:
  - meal-program
  address:
    street: 950 E Main St.
    city: Mesa
    state: az
    zip: '85203'
  description: Free summer meals for kids and teens (2026 season) — sponsored by St. Mary's Food Bank
    Alliance.
  place: '0446000'
  geo:
    lat: 33.4152
    lng: -111.81002
  external_ids:
    usda_master: Cycle 06_AZ_SFSP_0149
  sources:
  - usda/summer-meal-sites
  verified:
    'on': '2026-07-19'
    method: api
- id: az/mesa/webster
  name: Webster
  categories:
  - child-care
  address:
    street: 202 N Sycamore
    city: Mesa
    state: az
    zip: '85201'
  place: '0446000'
  geo:
    lat: 33.41895
    lng: -111.87105
  phone: 602-372-3700
  sources:
  - acf/head-start-locations
  verified:
    'on': '2026-07-19'
    method: api
- id: az/mesa/webster-elementary-school
  name: Webster Elementary School
  categories:
  - meal-program
  address:
    street: 202 N. Sycamore
    city: Mesa
    state: az
    zip: '85201'
  description: Free summer meals for kids and teens (2026 season) — sponsored by Mesa Unified District.
  place: '0446000'
  geo:
    lat: 33.41989
    lng: -111.87075
  external_ids:
    usda_master: Cycle 04_AZ_SFSP_0485
  sources:
  - usda/summer-meal-sites
  verified:
    'on': '2026-07-19'
    method: api
- id: az/mesa/wesley-health-center-recker-road
  name: Wesley Health Center - Recker Road
  categories:
  - community-health-center
  address:
    street: 5845 E Still Cir, Suite 104
    city: Mesa
    state: az
    zip: '85206'
  place: '0446000'
  geo:
    lat: 33.38091
    lng: -111.70298
  phone: 602-257-4323
  external_ids:
    bphc: BPS-H80-034120
  sources:
  - hrsa/health-center-sites
  verified:
    'on': '2026-07-19'
    method: api
- id: az/mesa/westwood-high-school
  name: Westwood High School
  categories:
  - meal-program
  address:
    street: 945 W. Rio Salado Pkwy
    city: Mesa
    state: az
    zip: '85201'
  description: Free summer meals for kids and teens (2026 season) — sponsored by Mesa Unified District.
  place: '0446000'
  geo:
    lat: 33.42948
    lng: -111.85024
  external_ids:
    usda_master: Cycle 04_AZ_SFSP_0416
  sources:
  - usda/summer-meal-sites
  verified:
    'on': '2026-07-19'
    method: api
