- id: az/payson/elk-ridge-payson
  name: ELK RIDGE - PAYSON
  categories:
  - community-health-center
  address:
    street: 126 E Main St, Suite B
    city: Payson
    state: az
    zip: '85541'
  place: '0453700'
  geo:
    lat: 34.23018
    lng: -111.32312
  phone: 928-468-8610
  external_ids:
    bphc: BPS-H80-041634
  sources:
  - hrsa/health-center-sites
  verified:
    'on': '2026-07-19'
    method: api
- id: az/payson/julia-randall-elementary-school
  name: Julia Randall Elementary School
  categories:
  - meal-program
  address: {street: 601 S. Green Valley Pkwy, city: Payson, state: az, zip: '85541'}
  description: Free summer meals for kids and teens (2026 season) — sponsored by Payson Unified District.
  place: '0453700'
  geo: {lat: 34.2327, lng: -111.3438}
  external_ids: {usda_master: Cycle 05_AZ_SSO_0265}
  sources:
  - usda/summer-meal-sites
  verified: {'on': '2026-07-19', method: api}
- id: az/payson/rim-country-middle-school
  name: Rim Country Middle School
  categories:
  - meal-program
  address: {street: 304 S. Meadow Street, city: Payson, state: az, zip: '85541'}
  description: Free summer meals for kids and teens (2026 season) — sponsored by Payson Unified District.
  place: '0453700'
  geo: {lat: 34.23666, lng: -111.32795}
  external_ids: {usda_master: Cycle 05_AZ_SSO_0210}
  sources:
  - usda/summer-meal-sites
  verified: {'on': '2026-07-19', method: api}
- id: az/payson/southwest-behavioral-and-health-servs
  name: Southwest Behavioral and Health Servs
  categories:
  - su-treatment
  - mh-treatment
  address:
    street: 404 West Aero Drive
    city: Payson
    state: az
    zip: '85541'
  place: '0453700'
  geo:
    lat: 34.22884
    lng: -111.33485
  phone: 928-474-3303
  website: https://www.sbhservices.org
  sources:
  - samhsa/findtreatment
  verified:
    'on': '2026-07-19'
    method: api
- id: az/payson/southwest-behavioral-and-health-servs-round-vall
  name: Southwest Behavioral and Health Servs Round Valley Residential
  categories:
  - su-treatment
  - mh-treatment
  address:
    street: 8985 West Stageline Road
    city: Payson
    state: az
    zip: '85541'
  place: '0453700'
  geo:
    lat: 34.19618
    lng: -111.31396
  phone: 928-468-2399
  website: https://www.sbhservices.org
  sources:
  - samhsa/findtreatment
  verified:
    'on': '2026-07-19'
    method: api
