- id: az/prescott-valley/arizona-behavioral-csl-and-educ-inc
  name: Arizona Behavioral Csl and Educ Inc
  categories:
  - su-treatment
  address:
    street: 3050 Navajo Drive
    city: Prescott Valley
    state: az
    zip: '86314'
  place: '0457450'
  geo:
    lat: 34.58718
    lng: -112.31882
  phone: 602-788-1116
  website: https://www.azbehavioralcounseling.com
  sources:
  - samhsa/findtreatment
  verified:
    'on': '2026-07-19'
    method: api
- id: az/prescott-valley/community-medical-services-prescott-valley
  name: Community Medical Services Prescott Valley
  categories:
  - su-treatment
  address:
    street: 3155 North Windsong Drive
    city: Prescott Valley
    state: az
    zip: '86314'
  place: '0457450'
  geo:
    lat: 34.58881
    lng: -112.32608
  phone: 928-968-7400
  website: https://www.communitymedicalservices.org
  sources:
  - samhsa/findtreatment
  verified:
    'on': '2026-07-19'
    method: api
- id: az/prescott-valley/csu-polara-health-crisis-stabilization-unit
  name: CSU Polara Health Crisis Stabilization Unit
  categories:
  - su-treatment
  - mh-treatment
  address:
    street: 8655 East Eastridge Road
    city: Prescott Valley
    state: az
    zip: '86314'
  place: '0457450'
  geo:
    lat: 34.58257
    lng: -112.31377
  phone: 928-445-5211 x3900
  website: https://www.polarahealth.com
  sources:
  - samhsa/findtreatment
  verified:
    'on': '2026-07-19'
    method: api
- id: az/prescott-valley/glassford-head-start
  name: Glassford Head Start
  categories:
  - child-care
  address:
    street: 6901 Panther Path
    city: Prescott Valley
    state: az
    zip: '86314'
  place: '0457450'
  geo:
    lat: 34.598
    lng: -112.34412
  phone: 928-774-9504
  sources:
  - acf/head-start-locations
  verified:
    'on': '2026-07-19'
    method: api
- id: az/prescott-valley/lake-valley-elementary-school
  name: Lake Valley Elementary School
  categories:
  - meal-program
  address:
    street: 3900 Starlight Drive
    city: Prescott Valley
    state: az
    zip: '86314'
  description: Free summer meals for kids and teens (2026 season) — sponsored by Humboldt Unified District.
  place: '0457450'
  geo:
    lat: 34.59695
    lng: -112.35078
  external_ids:
    usda_master: Cycle 04_AZ_SFSP_0112
  sources:
  - usda/summer-meal-sites
  verified:
    'on': '2026-07-19'
    method: api
- id: az/prescott-valley/liberty-head-start
  name: Liberty Head Start
  categories:
  - child-care
  address:
    street: 3300 N Lake Valley Rd
    city: Prescott Valley
    state: az
    zip: '86314'
  place: '0457450'
  geo:
    lat: 34.5916
    lng: -112.33512
  phone: 928-759-4500
  sources:
  - acf/head-start-locations
  verified:
    'on': '2026-07-19'
    method: api
- id: az/prescott-valley/mingus-mountain-youth-treatment-center
  name: Mingus Mountain Youth Treatment Center
  categories:
  - su-treatment
  - mh-treatment
  address:
    street: 15801 East Don Carlos Drive
    city: Prescott Valley
    state: az
    zip: '86315'
  place: '0457450'
  geo:
    lat: 34.64306
    lng: -112.18855
  phone: 602-335-2000
  website: https://www.mmytc.com
  sources:
  - samhsa/findtreatment
  verified:
    'on': '2026-07-19'
    method: api
- id: az/prescott-valley/mountain-view-elementary-school
  name: Mountain View Elementary School
  categories:
  - meal-program
  address:
    street: 8601 Loos Drive
    city: Prescott Valley
    state: az
    zip: '86314'
  description: Free summer meals for kids and teens (2026 season) — sponsored by Humboldt Unified District.
  place: '0457450'
  geo:
    lat: 34.60424
    lng: -112.31364
  external_ids:
    usda_master: Cycle 03_AZ_SFSP_0007
  sources:
  - usda/summer-meal-sites
  verified:
    'on': '2026-07-19'
    method: api
- id: az/prescott-valley/nye-child-and-family-development-center
  name: Nye Child and Family Development Center
  categories:
  - child-care
  address:
    street: 8623 E Spouse Dr
    city: Prescott Valley
    state: az
    zip: '86314'
  place: '0457450'
  geo:
    lat: 34.60943
    lng: -112.31369
  phone: 928-237-5119
  sources:
  - acf/head-start-locations
  verified:
    'on': '2026-07-19'
    method: api
- id: az/prescott-valley/panther-path
  name: Panther Path
  categories:
  - child-care
  address:
    street: 6955 Panther Path
    street2: '# A'
    city: Prescott Valley
    state: az
    zip: '86314'
  place: '0457450'
  geo:
    lat: 34.59827
    lng: -112.3436
  phone: 928-772-7726
  sources:
  - acf/head-start-locations
  verified:
    'on': '2026-07-19'
    method: api
- id: az/prescott-valley/polara-health-windhaven-clinic
  name: Polara Health Windhaven Clinic
  categories:
  - su-treatment
  - mh-treatment
  address:
    street: 3347 North Windsong Drive
    city: Prescott Valley
    state: az
    zip: '86314'
  place: '0457450'
  geo:
    lat: 34.5911
    lng: -112.32628
  phone: 928-445-5211 x3334
  website: https://www.Polarahealth.com
  sources:
  - samhsa/findtreatment
  verified:
    'on': '2026-07-19'
    method: api
- id: az/prescott-valley/polara-health-windsong-center
  name: Polara Health Windsong Center
  categories:
  - su-treatment
  - mh-treatment
  address:
    street: 3345 North Windsong Drive
    city: Prescott Valley
    state: az
    zip: '86314'
  place: '0457450'
  geo:
    lat: 34.59145
    lng: -112.32619
  phone: 928-445-5211 x3502
  website: https://www.polarahealth.com
  sources:
  - samhsa/findtreatment
  verified:
    'on': '2026-07-19'
    method: api
- id: az/prescott-valley/prescott-heights-church
  name: Prescott Heights Church
  categories:
  - meal-program
  address:
    street: 7450 East Pav Way
    city: Prescott Valley
    state: az
    zip: '86314'
  description: Free summer meals for kids and teens (2026 season) — sponsored by Humboldt Unified District.
  place: '0457450'
  geo:
    lat: 34.58587
    lng: -112.33479
  external_ids:
    usda_master: Cycle 03_AZ_SFSP_0008
  sources:
  - usda/summer-meal-sites
  verified:
    'on': '2026-07-19'
    method: api
- id: az/prescott-valley/prescott-valley
  name: PRESCOTT VALLEY
  categories:
  - community-health-center
  address:
    street: 3212 N Windsong Dr
    city: Prescott Valley
    state: az
    zip: '86314'
  place: '0457450'
  geo:
    lat: 34.59033
    lng: -112.32782
  phone: 928-583-1000
  website: https://www.yavapaihealth.com
  external_ids:
    bphc: BPS-H80-002074
  sources:
  - hrsa/health-center-sites
  verified:
    'on': '2026-07-19'
    method: api
- id: az/prescott-valley/prescott-valley-early-head-start
  name: Prescott Valley Early Head Start
  categories:
  - child-care
  address:
    street: 3045 N Tani Rd
    city: Prescott Valley
    state: az
    zip: '86314'
  place: '0457450'
  geo:
    lat: 34.5871
    lng: -112.32077
  phone: 928-772-7274
  sources:
  - acf/head-start-locations
  verified:
    'on': '2026-07-19'
    method: api
- id: az/prescott-valley/pronghorn-ridge-middle-school
  name: Pronghorn Ridge Middle School
  categories:
  - meal-program
  address:
    street: 6411 North Robert Road
    city: Prescott Valley
    state: az
    zip: '86314'
  description: Free summer meals for kids and teens (2026 season) — sponsored by Humboldt Unified District.
  place: '0457450'
  geo:
    lat: 34.63531
    lng: -112.31678
  external_ids:
    usda_master: Cycle 04_AZ_SFSP_0595
  sources:
  - usda/summer-meal-sites
  verified:
    'on': '2026-07-19'
    method: api
- id: az/prescott-valley/spectrum-healthcare
  name: Spectrum Healthcare
  categories:
  - su-treatment
  - mh-treatment
  address:
    street: 3274 Bob Drive
    city: Prescott Valley
    state: az
    zip: '86314'
  place: '0457450'
  geo:
    lat: 34.5902
    lng: -112.31679
  phone: 877-634-7333
  website: https://www.spectrumhealthcare-group.org
  sources:
  - samhsa/findtreatment
  verified:
    'on': '2026-07-19'
    method: api
- id: az/prescott-valley/stoneridge-centers-for-brain-and-addition-treatm
  name: Stoneridge Centers for Brain and Addition Treatment
  categories:
  - su-treatment
  - mh-treatment
  address:
    street: 5940 East Copper Hill Drive
    city: Prescott Valley
    state: az
    zip: '86314'
  place: '0457450'
  geo:
    lat: 34.58132
    lng: -112.36138
  phone: 928-583-7799
  website: https://www.stoneridgecenters.com
  sources:
  - samhsa/findtreatment
  verified:
    'on': '2026-07-19'
    method: api
