- id: az/williams/city-of-williams-williams-recreation-center
  name: City Of Williams - Williams Recreation Center
  categories:
  - meal-program
  address: {street: 300 W. Railroad Ave., city: Williams, state: az, zip: '86046'}
  description: Free summer meals for kids and teens (2026 season) — sponsored by Civitan Foundation, Inc..
  place: 0483160
  geo: {lat: 35.25066, lng: -112.1899}
  external_ids: {usda_master: Cycle 06_AZ_SFSP_0896}
  sources:
  - usda/summer-meal-sites
  verified: {'on': '2026-07-19', method: api}
- id: az/williams/elk-ridge-williams
  name: ELK RIDGE - WILLIAMS
  categories:
  - community-health-center
  cost: sliding-scale
  address:
    street: 300 S 6th St
    city: Williams
    state: az
    zip: '86046'
  place: 0483160
  geo:
    lat: 35.24707
    lng: -112.19211
  phone: 928-635-4441
  external_ids:
    bphc: BPS-H80-041643
  sources:
  - hrsa/health-center-sites
  verified:
    'on': '2026-07-19'
    method: api
- id: az/williams/williams-elementary-middle-school
  name: Williams Elementary/Middle School
  categories:
  - meal-program
  address: {street: 601 North 7Th Street, city: Williams, state: az, zip: '86046'}
  description: Free summer meals for kids and teens (2026 season) — sponsored by Williams Unified District.
  place: 0483160
  geo: {lat: 35.25364, lng: -112.19527}
  external_ids: {usda_master: Cycle 04_AZ_SSO_0474}
  sources:
  - usda/summer-meal-sites
  verified: {'on': '2026-07-19', method: api}
- id: az/williams/williams-head-start
  name: Williams Head Start
  categories:
  - child-care
  address:
    street: 310 W Sherman Ave
    city: Williams
    state: az
    zip: '86046'
  place: 0483160
  geo:
    lat: 35.24828
    lng: -112.18872
  phone: 928-635-4273
  sources:
  - acf/head-start-locations
  verified:
    'on': '2026-07-19'
    method: api
- id: az/williams/williams-housing-authority
  name: Williams Housing Authority
  categories:
  - housing-assistance
  address:
    street: 620 W Sheridan Ave
    city: Williams
    state: az
    zip: '86046'
  description: Public housing (Low-Rent) agency
  place: 0483160
  geo:
    lat: 35.24621
    lng: -112.19222
  phone: 928-635-4451
  sources:
  - hud/resource-locator
  verified:
    'on': '2026-07-19'
    method: api
