- id: wi/racine/home-on-monday
  name: Home on Monday
  program: na
  categories:
  - recovery-meeting
  schedule:
  - {day: mon, time: '19:30', duration_min: 90}
  format: in-person
  types:
  - c
  - bk
  venue_name: Racine Alano Club
  venue: {street: 1140 Douglas Ave, city: Racine, state: wi, zip: '53402'}
  place: '5566000'
  geo: {lat: 42.73533, lng: -87.7888}
  external_ids: {bmlt: '11:345'}
  sources:
  - bmlt/aggregator
  verified: {'on': '2026-07-19', method: api}
- id: wi/racine/one-day-at-a-time
  name: One Day at a Time
  program: na
  categories:
  - recovery-meeting
  schedule:
  - {day: mon, time: '12:00', duration_min: 90}
  format: in-person
  types:
  - c
  venue: {street: 614  Main Street, city: Racine, state: wi}
  place: '5566000'
  geo: {lat: 42.72619, lng: -87.78298}
  external_ids: {bmlt: '11:390'}
  sources:
  - bmlt/aggregator
  verified: {'on': '2026-07-19', method: api}
- id: wi/racine/one-day-at-a-time-2
  name: One Day at a Time
  program: na
  categories:
  - recovery-meeting
  schedule:
  - {day: wed, time: '10:00', duration_min: 90}
  format: in-person
  types:
  - c
  venue: {street: 614  Main Street, city: Racine, state: wi}
  place: '5566000'
  geo: {lat: 42.72619, lng: -87.78298}
  external_ids: {bmlt: '11:391'}
  sources:
  - bmlt/aggregator
  verified: {'on': '2026-07-19', method: api}
- id: wi/racine/recovery-for-addicts-at-the-king
  name: Recovery for Addicts at the King
  program: na
  categories:
  - recovery-meeting
  schedule:
  - {day: tue, time: '18:00', duration_min: 90}
  format: in-person
  types:
  - c
  - wc
  - bk
  venue_name: Martin Luther King Community Center
  venue: {street: 1134 Martin Luther King Drive, city: Racine, state: wi, zip: '53404'}
  place: '5566000'
  geo: {lat: 42.73499, lng: -87.79635}
  external_ids: {bmlt: '11:110'}
  sources:
  - bmlt/aggregator
  verified: {'on': '2026-07-19', method: api}
- id: wi/racine/vision-of-hope
  name: Vision of Hope
  program: na
  categories:
  - recovery-meeting
  schedule:
  - {day: fri, time: '18:30', duration_min: 90}
  format: in-person
  types:
  - c
  - nc
  venue: {street: 2045 Mead St., city: Racine, state: wi, zip: '53403'}
  place: '5566000'
  geo: {lat: 42.70462, lng: -87.79235}
  external_ids: {bmlt: '11:269'}
  sources:
  - bmlt/aggregator
  verified: {'on': '2026-07-19', method: api}
- id: wi/racine/we-can-survive
  name: We Can Survive
  program: na
  categories:
  - recovery-meeting
  schedule:
  - {day: sat, time: '10:00', duration_min: 90}
  format: in-person
  types:
  - c
  venue: {street: 3011 Eerie St., city: Racine, state: wi, zip: '53402'}
  place: '5566000'
  geo: {lat: 42.75602, lng: -87.78689}
  external_ids: {bmlt: '11:305'}
  sources:
  - bmlt/aggregator
  verified: {'on': '2026-07-19', method: api}
- id: wi/racine/work-the-steps-or-die
  name: Work the Steps or Die
  program: na
  categories:
  - recovery-meeting
  schedule:
  - {day: thu, time: '18:00', duration_min: 90}
  format: in-person
  types:
  - c
  - wc
  - bk
  venue_name: Saint Paul Baptist Church
  venue: {street: 1120 Grand Avenue, city: Racine, state: wi, zip: '53403'}
  place: '5566000'
  geo: {lat: 42.71936, lng: -87.78882}
  external_ids: {bmlt: '11:210'}
  sources:
  - bmlt/aggregator
  verified: {'on': '2026-07-19', method: api}
