- id: id/boise/ability-health-and-rehab-llc
  name: Ability Health and Rehab LLC
  categories:
  - su-treatment
  - mh-treatment
  address:
    street: 10101 West Overland Road
    city: Boise
    state: id
    zip: '83709'
  geo:
    lat: 43.58998
    lng: -116.3083
  phone: 208-333-9578
  website: https://
  sources:
  - samhsa/findtreatment
  verified:
    'on': '2026-07-19'
    method: api
- id: id/boise/access-behavioral-health-services
  name: Access Behavioral Health Services
  categories:
  - su-treatment
  - mh-treatment
  address:
    street: 1276 River Street
    city: Boise
    state: id
    zip: '83702'
  geo:
    lat: 43.61492
    lng: -116.2143
  phone: 208-338-4699
  website: https://www.accessbhs.com
  sources:
  - samhsa/findtreatment
  verified:
    'on': '2026-07-19'
    method: api
- id: id/boise/ada-county-housing-authority
  name: Ada County Housing Authority
  categories:
  - housing-assistance
  address:
    street: 1001 S Orchard St
    city: Boise
    state: id
    zip: '83705'
  description: Public housing and Housing Choice Voucher agency
  geo:
    lat: 43.59522
    lng: -116.24385
  phone: 208-345-4907
  sources:
  - hud/resource-locator
  verified:
    'on': '2026-07-19'
    method: api
- id: id/boise/ada-county-victim-services-center
  name: Ada County Victim Services Center
  categories:
  - community-health-center
  address:
    street: 417 S 6th St
    city: Boise
    state: id
    zip: '83702'
  geo:
    lat: 43.61202
    lng: -116.20379
  phone: 208-466-7869
  website: https://www.trhs.org
  external_ids:
    bphc: BPS-H80-039138
  sources:
  - hrsa/health-center-sites
  verified:
    'on': '2026-07-19'
    method: api
- id: id/boise/all-seasons-family-care-clinic-all-seasons-menta
  name: All Seasons Family Care Clinic All Seasons Mental Health
  categories:
  - su-treatment
  - mh-treatment
  address:
    street: 6933 West Emerald Street
    city: Boise
    state: id
    zip: '83704'
  geo:
    lat: 43.61173
    lng: -116.26827
  phone: 208-321-0634
  website: https://www.asmh.org
  sources:
  - samhsa/findtreatment
  verified:
    'on': '2026-07-19'
    method: api
- id: id/boise/allumbaugh-house
  name: Allumbaugh House
  categories:
  - community-health-center
  address:
    street: 400 N Allumbaugh St
    city: Boise
    state: id
    zip: '83704'
  geo:
    lat: 43.60784
    lng: -116.26598
  phone: 208-921-4821
  website: https://www.trhs.org
  external_ids:
    bphc: BPS-H80-030325
  sources:
  - hrsa/health-center-sites
  verified:
    'on': '2026-07-19'
    method: api
- id: id/boise/alturas-counseling-llc
  name: Alturas Counseling LLC
  categories:
  - mh-treatment
  address:
    street: 204 South Cole Road
    city: Boise
    state: id
    zip: '83709'
  geo:
    lat: 43.60292
    lng: -116.27371
  phone: 208-991-0225
  website: https://alturascounseling.com
  sources:
  - samhsa/findtreatment
  verified:
    'on': '2026-07-19'
    method: api
- id: id/boise/ascent-behavioral-health-services
  name: Ascent Behavioral Health Services
  categories:
  - su-treatment
  address:
    street: 411 North Allumbaugh Street
    city: Boise
    state: id
    zip: '83704'
  geo:
    lat: 43.60849
    lng: -116.26699
  phone: 208-376-3200
  website: https://www.ascentbhs.org
  sources:
  - samhsa/findtreatment
  verified:
    'on': '2026-07-19'
    method: api
- id: id/boise/ashwood-recovery-boise
  name: Ashwood Recovery Boise
  categories:
  - su-treatment
  - mh-treatment
  address:
    street: 7941 West Rifleman Street
    city: Boise
    state: id
    zip: '83704'
  geo:
    lat: 43.61211
    lng: -116.28129
  phone: 208-551-1160
  website: https://www.ashwoodrecovery.com
  sources:
  - samhsa/findtreatment
  verified:
    'on': '2026-07-19'
    method: api
- id: id/boise/bhc-intermountain-hospital
  name: BHC Intermountain Hospital
  categories:
  - su-treatment
  - mh-treatment
  address:
    street: 303 North Allumbaugh Street
    city: Boise
    state: id
    zip: '83704'
  geo:
    lat: 43.60717
    lng: -116.26794
  phone: 208-377-8400
  website: https://www.intermountainhospital.com
  sources:
  - samhsa/findtreatment
  verified:
    'on': '2026-07-19'
    method: api
- id: id/boise/bhg-boise-treatment-center
  name: BHG Boise Treatment Center
  categories:
  - su-treatment
  address:
    street: 92 South Cole Road
    city: Boise
    state: id
    zip: '83709'
  geo:
    lat: 43.60367
    lng: -116.27281
  phone: 208-376-5021
  website: https://www.bhgrecovery.com/locations/boise-id/
  sources:
  - samhsa/findtreatment
  verified:
    'on': '2026-07-19'
    method: api
- id: id/boise/boise-city-housing-authority
  name: Boise City Housing Authority
  categories:
  - housing-assistance
  address:
    street: 1001 S Orchard St
    city: Boise
    state: id
    zip: '83705'
  description: Public housing and Housing Choice Voucher agency
  geo:
    lat: 43.59522
    lng: -116.24385
  phone: 208-345-4907
  sources:
  - hud/resource-locator
  verified:
    'on': '2026-07-19'
    method: api
- id: id/boise/boise-dental
  name: Boise Dental
  categories:
  - community-health-center
  address:
    street: 2301 N 36th St
    city: Boise
    state: id
    zip: '83703'
  geo:
    lat: 43.64117
    lng: -116.23459
  phone: 208-336-8801
  website: https://www.trhs.org
  external_ids:
    bphc: BPS-H80-008192
  sources:
  - hrsa/health-center-sites
  verified:
    'on': '2026-07-19'
    method: api
- id: id/boise/boise-medical-mental-health-downtown
  name: Boise Medical/ Mental Health (Downtown)
  categories:
  - community-health-center
  address:
    street: 300 S 23rd St
    city: Boise
    state: id
    zip: '83702'
  geo:
    lat: 43.6197
    lng: -116.21722
  phone: 208-344-3512
  website: https://www.trhs.org
  external_ids:
    bphc: BPS-H80-010622
  sources:
  - hrsa/health-center-sites
  verified:
    'on': '2026-07-19'
    method: api
- id: id/boise/boise-mobile-vet-center
  name: Boise Mobile Vet Center
  categories: &id001
  - vet-center
  address: {street: '2424 Bank Drive, Suite 100', city: Boise, state: id, zip: '83705'}
  geo: {lat: 43.59137, lng: -116.21211}
  phone: 208-342-3612
  website: https://www.va.gov/boise-vet-center/locations/#boise-mobile-vet-center
  external_ids: {va: vc_0827MVC}
  sources:
  - va/facilities-api
  verified: {'on': '2026-07-19', method: api}
- id: id/boise/boise-trauma-and-resilience-center
  name: Boise Trauma and Resilience Center
  categories:
  - community-health-center
  address:
    street: 6855 W Fairview Ave
    city: Boise
    state: id
    zip: '83704'
  geo:
    lat: 43.61878
    lng: -116.26721
  phone: 208-323-3502
  website: https://www.trhs.org
  external_ids:
    bphc: BPS-H80-033089
  sources:
  - hrsa/health-center-sites
  verified:
    'on': '2026-07-19'
    method: api
- id: id/boise/boise-va-medical-center
  name: Boise VA Medical Center
  categories: &id002
  - va-facility
  - health
  description: VA Medical Center (VAMC)
  address: {street: 500 West Fort Street, city: Boise, state: id, zip: '83702'}
  geo: {lat: 43.62107, lng: -116.19042}
  phone: 208-422-1000
  website: https://www.va.gov/boise-health-care/locations/boise-va-medical-center/
  services:
  - Audiology and speech
  - COVID-19 vaccines
  - Cancer care
  - Cardiology
  - CaregiverSupport
  - Dermatology
  - Gastroenterology
  - Gynecology
  - Hematology/oncology
  - Homeless Veteran care
  - LGBTQ+ Veteran care
  - Mental health care
  - Minority Veteran care
  - Neurology
  - Ophthalmology
  - Optometry
  - Orthopedics
  - Pain management
  - Patient advocates
  - Pharmacy
  - Primary care
  - Rehabilitation and extended care
  - Returning service member care
  - Social work
  - Suicide prevention
  - Surgery
  - Urology
  - Women Veteran care
  external_ids: {va: vha_531}
  sources:
  - va/facilities-api
  verified: {'on': '2026-07-19', method: api}
- id: id/boise/boise-va-regional-benefit-office
  name: Boise VA Regional Benefit Office
  categories:
  - va-facility
  description: Regional Benefit Office
  address: {street: 444 W. Fort Street, city: Boise, state: id, zip: '83702'}
  geo: {lat: 43.6186, lng: -116.1944}
  phone: 800-827-1000
  services:
  - ApplyingForBenefits
  - BurialClaimAssistance
  - DisabilityClaimAssistance
  - EducationClaimAssistance
  - FamilyMemberClaimAssistance
  - HomelessAssistance
  - UpdatingDirectDepositInformation
  - VocationalRehabilitationAndEmploymentAssistance
  - eBenefitsRegistrationAssistance
  external_ids: {va: vba_347}
  sources:
  - va/facilities-api
  verified: {'on': '2026-07-19', method: api}
- id: id/boise/boise-vet-center
  name: Boise Vet Center
  categories: *id001
  address: {street: 2424 Bank Drive, city: Boise, state: id, zip: '83705'}
  geo: {lat: 43.59137, lng: -116.21211}
  phone: 208-342-3612
  website: https://www.va.gov/boise-vet-center/
  hours:
  - {days: [mon, tue, wed, thu, fri], open: '08:00', close: '16:30'}
  services:
  - Addiction and substance use care
  - Community engagement
  - Couples and family counseling
  - Grief and bereavement counseling
  - Homeless Veteran care
  - LGBTQ+ Veteran care
  - Military sexual trauma care
  - PTSD care
  - Returning service member care
  - Suicide prevention
  - Telehealth
  - Veteran connections
  - Whole health
  - Women Veteran care
  external_ids: {va: vc_0503V}
  sources:
  - va/facilities-api
  verified: {'on': '2026-07-19', method: api}
- id: id/boise/brick-house-recovery-addiction-treatment-centers
  name: Brick House Recovery Addiction Treatment Centers
  categories:
  - su-treatment
  address:
    street: 3663 North Lakeharbor Lane
    city: Boise
    state: id
    zip: '83703'
  geo:
    lat: 43.65251
    lng: -116.25578
  phone: 208-650-7359
  website: https://www.brickhouserecovery.com
  sources:
  - samhsa/findtreatment
  verified:
    'on': '2026-07-19'
    method: api
- id: id/boise/calm-waters-counseling-pllc
  name: Calm Waters Counseling PLLC
  categories:
  - su-treatment
  - mh-treatment
  address:
    street: 5223 West Overland Road
    city: Boise
    state: id
    zip: '83705'
  geo:
    lat: 43.58947
    lng: -116.24671
  phone: 208-371-7226
  website: https://cwcboise.com/
  sources:
  - samhsa/findtreatment
  verified:
    'on': '2026-07-19'
    method: api
- id: id/boise/cassia-park
  name: Cassia Park
  categories:
  - meal-program
  address:
    street: 4600 W Camas St
    city: Boise
    state: id
    zip: '83705'
  description: 'Free summer meals for kids and teens (2026 season) — sponsored by Boise S. D. #001.'
  geo:
    lat: 43.59525
    lng: -116.23903
  phone: (208) 854-4067
  external_ids:
    usda_master: Cycle 03_ID_SFSP_0011
  sources:
  - usda/summer-meal-sites
  verified:
    'on': '2026-07-19'
    method: api
- id: id/boise/caterpillar-counseling-llc
  name: Caterpillar Counseling LLC
  categories:
  - su-treatment
  - mh-treatment
  address:
    city: Boise
    state: id
    zip: '83704'
  phone: 208-917-2024
  website: https://jennifer-richards5206.clientsecure.me/
  sources:
  - samhsa/findtreatment
  verified:
    'on': '2026-07-19'
    method: api
- id: id/boise/charlie-health-inc
  name: Charlie Health Inc
  categories:
  - su-treatment
  - mh-treatment
  address:
    street: 9460 West Fairview Avenue
    city: Boise
    state: id
    zip: '83704'
  geo:
    lat: 43.61959
    lng: -116.29981
  phone: 866-695-2714
  website: https://www.charliehealth.com
  sources:
  - samhsa/findtreatment
  verified:
    'on': '2026-07-19'
    method: api
- id: id/boise/childrens-home-counseling-services-childrens-hom
  name: Childrens Home Counseling Services Childrens Home Society
  categories:
  - mh-treatment
  address:
    street: 740 East Warm Springs Avenue
    city: Boise
    state: id
    zip: '83712'
  geo:
    lat: 43.6093
    lng: -116.18668
  phone: 208-343-7797
  website: https://www.childrenshomeidaho.org
  sources:
  - samhsa/findtreatment
  verified:
    'on': '2026-07-19'
    method: api
- id: id/boise/clarvida-community-crisis-center-southwest-idaho
  name: Clarvida Community Crisis Center Southwest Idaho
  categories:
  - su-treatment
  - mh-treatment
  address:
    street: 7192 Potomac Drive
    city: Boise
    state: id
    zip: '83704'
  geo:
    lat: 43.61167
    lng: -116.27167
  phone: 208-402-1044
  website: https://www.clarvida.com/idaho
  sources:
  - samhsa/findtreatment
  verified:
    'on': '2026-07-19'
    method: api
- id: id/boise/clarvida-dba-pathways-of-idaho-llc
  name: Clarvida DBA Pathways of Idaho LLC
  categories:
  - su-treatment
  - mh-treatment
  address:
    street: 545 North Benjamin Lane
    city: Boise
    state: id
    zip: '83704'
  geo:
    lat: 43.61001
    lng: -116.28876
  phone: 208-322-1026
  website: https://www.clarvida.com/idaho
  sources:
  - samhsa/findtreatment
  verified:
    'on': '2026-07-19'
    method: api
- id: id/boise/cornerstone-family-therapy
  name: Cornerstone Family Therapy
  categories:
  - mh-treatment
  address:
    street: 2995 North Cole Road
    city: Boise
    state: id
    zip: '83704'
  geo:
    lat: 43.63197
    lng: -116.2751
  phone: 208-614-0588
  website: https://cornerstonefamilytherapy.net
  sources:
  - samhsa/findtreatment
  verified:
    'on': '2026-07-19'
    method: api
- id: id/boise/cpf-idaho-behavioral-health-llc-boise-recovery-w
  name: CPF Idaho Behavioral Health, LLC Boise Recovery Ways Idaho
  categories:
  - su-treatment
  - mh-treatment
  address:
    street: 2273 South Vista Avenue
    city: Boise
    state: id
    zip: '83705'
  geo:
    lat: 43.58175
    lng: -116.21431
  phone: 208-343-2737
  website: https://www.recoverywaysidaho.com
  sources:
  - samhsa/findtreatment
  verified:
    'on': '2026-07-19'
    method: api
- id: id/boise/desert-sage-elementary-school
  name: Desert Sage Elementary School
  categories:
  - meal-program
  address:
    street: 9325 W. Mossywood St.
    city: Boise
    state: id
    zip: '83709'
  description: 'Free summer meals for kids and teens (2026 season) — sponsored by West Ada S.D. #002.'
  geo:
    lat: 43.53911
    lng: -116.29782
  phone: (208) 350-5248
  external_ids:
    usda_master: Cycle 03_ID_SFSP_0018
  sources:
  - usda/summer-meal-sites
  verified:
    'on': '2026-07-19'
    method: api
- id: id/boise/eleanor-health
  name: Eleanor Health
  categories:
  - su-treatment
  - mh-treatment
  address:
    street: 950 Bannock Street
    city: Boise
    state: id
    zip: '83702'
  geo:
    lat: 43.61832
    lng: -116.20403
  phone: 866-465-0590
  website: https://www.eleanorhealth.com
  sources:
  - samhsa/findtreatment
  verified:
    'on': '2026-07-19'
    method: api
- id: id/boise/family-counseling-services
  name: Family Counseling Services
  categories:
  - su-treatment
  - mh-treatment
  address:
    street: 2995 North Cole Road
    city: Boise
    state: id
    zip: '83704'
  geo:
    lat: 43.63197
    lng: -116.2751
  phone: 208-888-5905
  website: https://www.fcsmeridian.com
  sources:
  - samhsa/findtreatment
  verified:
    'on': '2026-07-19'
    method: api
- id: id/boise/first-step-llc-wellspring-counseling-services
  name: First Step LLC Wellspring Counseling Services
  categories:
  - su-treatment
  - mh-treatment
  address:
    street: 2589 South Five Mile Road
    city: Boise
    state: id
    zip: '83709'
  geo:
    lat: 43.57954
    lng: -116.31457
  phone: 208-890-0577
  website: https://wcsboise.com/contact
  sources:
  - samhsa/findtreatment
  verified:
    'on': '2026-07-19'
    method: api
- id: id/boise/free-fallin-llc-ellie-mental-health
  name: Free Fallin LLC Ellie Mental Health
  categories:
  - su-treatment
  - mh-treatment
  address:
    street: 3676 North Harbor Lane
    city: Boise
    state: id
    zip: '83703'
  geo:
    lat: 43.65279
    lng: -116.25572
  phone: 208-985-2527
  website: https://elliementalhealth.com/locations/northwest-boise-id/
  sources:
  - samhsa/findtreatment
  verified:
    'on': '2026-07-19'
    method: api
- id: id/boise/full-circle-health-boise-pediatrics
  name: Full Circle Health - Boise Pediatrics
  categories:
  - community-health-center
  address:
    street: 8610 W Overland Rd
    city: Boise
    state: id
    zip: '83709'
  geo:
    lat: 43.59079
    lng: -116.29015
  phone: 208-954-8711
  website: https://www.fullcircleidaho.org/patients/
  external_ids:
    bphc: BPS-H80-035836
  sources:
  - hrsa/health-center-sites
  verified:
    'on': '2026-07-19'
    method: api
- id: id/boise/full-circle-health-emerald
  name: Full Circle Health - Emerald
  categories:
  - community-health-center
  address:
    street: 6565 W Emerald St
    city: Boise
    state: id
    zip: '83704'
  geo:
    lat: 43.61175
    lng: -116.26304
  phone: 208-514-2510
  website: https://www.fullcircleidaho.org
  external_ids:
    bphc: BPS-H80-018070
  sources:
  - hrsa/health-center-sites
  verified:
    'on': '2026-07-19'
    method: api
- id: id/boise/full-circle-health-emerald-admin
  name: Full Circle Health-Emerald Admin
  categories:
  - community-health-center
  address:
    street: 6550 W Emerald St
    city: Boise
    state: id
    zip: '83704'
  geo:
    lat: 43.61225
    lng: -116.26308
  phone: 208-514-2500
  external_ids:
    bphc: BPS-H80-034467
  sources:
  - hrsa/health-center-sites
  verified:
    'on': '2026-07-19'
    method: api
- id: id/boise/full-circle-health-idaho-street
  name: Full Circle Health - Idaho Street
  categories:
  - community-health-center
  address:
    street: 325 W Idaho St
    city: Boise
    state: id
    zip: '83702'
  geo:
    lat: 43.61352
    lng: -116.19784
  phone: 208-514-2525
  website: https://www.fullcircleidaho.org
  external_ids:
    bphc: BPS-H80-027740
  sources:
  - hrsa/health-center-sites
  verified:
    'on': '2026-07-19'
    method: api
- id: id/boise/full-circle-health-raymond
  name: Full Circle Health - Raymond
  categories:
  - community-health-center
  address:
    street: 777 N Raymond St
    city: Boise
    state: id
    zip: '83704'
  geo:
    lat: 43.61154
    lng: -116.26408
  phone: 208-514-2500
  website: https://www.fullcircleidaho.org
  external_ids:
    bphc: BPS-H80-014128
  sources:
  - hrsa/health-center-sites
  verified:
    'on': '2026-07-19'
    method: api
- id: id/boise/grace-jordan-elementary-school
  name: Grace Jordan Elementary School
  categories:
  - meal-program
  address:
    street: 6411W Fairfield Ave
    city: Boise
    state: id
    zip: '83709'
  description: 'Free summer meals for kids and teens (2026 season) — sponsored by Boise S. D. #001.'
  geo:
    lat: 43.5928
    lng: -116.26189
  phone: (208) 854-4067
  external_ids:
    usda_master: Cycle 03_ID_SFSP_0029
  sources:
  - usda/summer-meal-sites
  verified:
    'on': '2026-07-19'
    method: api
- id: id/boise/hawthorne-elementary-school
  name: Hawthorne Elementary School
  categories:
  - meal-program
  address:
    street: 2401 W Targee St
    city: Boise
    state: id
    zip: '83705'
  description: 'Free summer meals for kids and teens (2026 season) — sponsored by Boise S. D. #001.'
  geo:
    lat: 43.58249
    lng: -116.21095
  phone: (208) 854-4067
  external_ids:
    usda_master: Cycle 03_ID_SFSP_0034
  sources:
  - usda/summer-meal-sites
  verified:
    'on': '2026-07-19'
    method: api
- id: id/boise/highland-springs-specialty-clinic
  name: Highland Springs Specialty Clinic
  categories:
  - su-treatment
  - mh-treatment
  address:
    street: 4750 North Five Mile Road
    city: Boise
    state: id
    zip: '83713'
  geo:
    lat: 43.64794
    lng: -116.31344
  phone: 800-403-0295
  website: https://highlandspringsclinic.org/?utm_source=GMBl
  sources:
  - samhsa/findtreatment
  verified:
    'on': '2026-07-19'
    method: api
- id: id/boise/hub-365
  name: Hub 365
  categories:
  - meal-program
  address:
    street: 915 N Cloverdale Rd
    city: Boise
    state: id
    zip: '83713'
  description: 'Free summer meals for kids and teens (2026 season) — sponsored by West Ada S.D. #002.'
  geo:
    lat: 43.61354
    lng: -116.33442
  phone: (208) 350-5248
  external_ids:
    usda_master: Cycle 03_ID_SFSP_0037
  sources:
  - usda/summer-meal-sites
  verified:
    'on': '2026-07-19'
    method: api
- id: id/boise/human-supports-of-idaho-inc
  name: Human Supports of Idaho Inc
  categories:
  - su-treatment
  - mh-treatment
  address:
    street: 4477 West Emerald Street
    city: Boise
    state: id
    zip: '83706'
  geo:
    lat: 43.61095
    lng: -116.23689
  phone: 208-321-0160
  website: https://www.humansupports.com
  sources:
  - samhsa/findtreatment
  verified:
    'on': '2026-07-19'
    method: api
- id: id/boise/idaho-housing-and-finance-association
  name: Idaho Housing And Finance Association
  categories:
  - housing-assistance
  address:
    street: 565 W Myrtle St
    city: Boise
    state: id
    zip: '83702'
  description: Housing Choice Voucher (Section 8) agency
  geo:
    lat: 43.61105
    lng: -116.20386
  phone: 208-331-4700
  sources:
  - hud/resource-locator
  verified:
    'on': '2026-07-19'
    method: api
- id: id/boise/imagine-by-northpoint-boise
  name: Imagine by Northpoint Boise
  categories:
  - su-treatment
  - mh-treatment
  address:
    street: 6600 West Emerald Street
    city: Boise
    state: id
    zip: '83704'
  geo:
    lat: 43.61277
    lng: -116.26404
  phone: 208-551-1160
  website: https://www.boiseimagine.com/
  sources:
  - samhsa/findtreatment
  verified:
    'on': '2026-07-19'
    method: api
- id: id/boise/inner-journey-counseling-llc
  name: Inner Journey Counseling LLC
  categories:
  - su-treatment
  address:
    city: Boise
    state: id
    zip: '83705'
  phone: 208-918-1482
  website: https://innerjourneycounseling.clientsecure.me/
  sources:
  - samhsa/findtreatment
  verified:
    'on': '2026-07-19'
    method: api
- id: id/boise/integrity-psychiatric-services-llc
  name: Integrity Psychiatric Services LLC
  categories:
  - su-treatment
  - mh-treatment
  address:
    street: 1000 North Curtis Road
    city: Boise
    state: id
    zip: '83706'
  geo:
    lat: 43.61371
    lng: -116.2533
  phone: 208-283-7314
  website: https://
  sources:
  - samhsa/findtreatment
  verified:
    'on': '2026-07-19'
    method: api
- id: id/boise/interfaith-sanctuary-tr-offices-1-2-3
  name: Interfaith Sanctuary TR Offices 1, 2, 3
  categories:
  - community-health-center
  address:
    street: 4306 W State St
    city: Boise
    state: id
    zip: '83703'
  geo:
    lat: 43.64533
    lng: -116.24202
  phone: 208-466-7869
  external_ids:
    bphc: BPS-H80-041563
  sources:
  - hrsa/health-center-sites
  verified:
    'on': '2026-07-19'
    method: api
- id: id/boise/intermountain-hospital-of-boise
  name: Intermountain Hospital of Boise
  categories:
  - su-treatment
  - mh-treatment
  address:
    street: 303 North Allumbaugh Street
    city: Boise
    state: id
    zip: '83704'
  geo:
    lat: 43.60784
    lng: -116.26624
  phone: 208-377-8400 x2284
  website: https://www.intermountainhospital.com
  sources:
  - samhsa/findtreatment
  verified:
    'on': '2026-07-19'
    method: api
- id: id/boise/ivywild-park
  name: Ivywild Park
  categories:
  - meal-program
  address:
    street: 416 W Ivywild St
    city: Boise
    state: id
    zip: '83706'
  description: 'Free summer meals for kids and teens (2026 season) — sponsored by Boise S. D. #001.'
  geo:
    lat: 43.58056
    lng: -116.18735
  phone: (205) 854-4067
  external_ids:
    usda_master: Cycle 03_ID_SFSP_0041
  sources:
  - usda/summer-meal-sites
  verified:
    'on': '2026-07-19'
    method: api
- id: id/boise/kindall-center
  name: Kindall Center
  categories:
  - child-care
  address:
    street: 4707 W Camas St
    city: Boise
    state: id
    zip: '83705'
  geo:
    lat: 43.59492
    lng: -116.24011
  phone: 208-336-2923
  sources:
  - acf/head-start-locations
  verified:
    'on': '2026-07-19'
    method: api
- id: id/boise/leyline-advocates
  name: Leyline Advocates
  categories:
  - su-treatment
  - mh-treatment
  address:
    street: 921 South Orchard Street
    city: Boise
    state: id
    zip: '83705'
  geo:
    lat: 43.59584
    lng: -116.24402
  phone: 208-344-9797
  website: https://leylinemh.com/
  sources:
  - samhsa/findtreatment
  verified:
    'on': '2026-07-19'
    method: api
- id: id/boise/lifepath-services-llc
  name: Lifepath Services LLC
  categories:
  - su-treatment
  - mh-treatment
  address:
    street: 8675 West Ardene Street
    city: Boise
    state: id
    zip: '83709'
  geo:
    lat: 43.58871
    lng: -116.28995
  phone: 208-780-3900
  website: https://lifepathidaho.com
  sources:
  - samhsa/findtreatment
  verified:
    'on': '2026-07-19'
    method: api
- id: id/boise/lifeways-behavioral-hospital
  name: Lifeways Behavioral Hospital
  categories:
  - su-treatment
  - mh-treatment
  address:
    street: 8050 Northview Street
    city: Boise
    state: id
    zip: '83704'
  geo:
    lat: 43.6271
    lng: -116.28225
  phone: 208-327-0504
  website: https://lifeways.org
  sources:
  - samhsa/findtreatment
  verified:
    'on': '2026-07-19'
    method: api
- id: id/boise/lincoln-early-learning-center
  name: Lincoln Early Learning Center
  categories:
  - child-care
  address:
    street: 300 W Fort St
    city: Boise
    state: id
    zip: '83702'
  geo:
    lat: 43.61704
    lng: -116.1926
  phone: 208-854-5522
  sources:
  - acf/head-start-locations
  verified:
    'on': '2026-07-19'
    method: api
- id: id/boise/molly-and-me-counseling-boise-office
  name: Molly and Me Counseling Boise Office
  categories:
  - su-treatment
  - mh-treatment
  address:
    street: 2995 North Cole Road
    city: Boise
    state: id
    zip: '83704'
  geo:
    lat: 43.63197
    lng: -116.2751
  phone: 208-576-6464 x101
  website: https://Mollyandmecounseling.com
  sources:
  - samhsa/findtreatment
  verified:
    'on': '2026-07-19'
    method: api
- id: id/boise/morgan-health-centers
  name: Morgan Health Centers
  categories:
  - su-treatment
  - mh-treatment
  address:
    street: 10548 West Business Park Lane
    city: Boise
    state: id
    zip: '83709'
  geo:
    lat: 43.59382
    lng: -116.31344
  phone: 208-890-7165
  website: https://morganhealthcenters.com
  sources:
  - samhsa/findtreatment
  verified:
    'on': '2026-07-19'
    method: api
- id: id/boise/morley-nelson-elementary-school
  name: Morley Nelson Elementary School
  categories:
  - meal-program
  address:
    street: 7701 W Northview St
    city: Boise
    state: id
    zip: '83704'
  description: 'Free summer meals for kids and teens (2026 season) — sponsored by Boise S. D. #001.'
  geo:
    lat: 43.62662
    lng: -116.27846
  phone: (208) 854-4067
  external_ids:
    usda_master: Cycle 03_ID_SFSP_0064
  sources:
  - usda/summer-meal-sites
  verified:
    'on': '2026-07-19'
    method: api
- id: id/boise/new-path-2-community-housing
  name: New Path 2 Community Housing
  categories:
  - community-health-center
  address:
    street: 2216 W Fairview Ave
    city: Boise
    state: id
    zip: '83702'
  geo:
    lat: 43.621
    lng: -116.21775
  phone: 208-344-3512
  external_ids:
    bphc: BPS-H80-041562
  sources:
  - hrsa/health-center-sites
  verified:
    'on': '2026-07-19'
    method: api
- id: id/boise/new-path-community-housing
  name: New Path Community Housing
  categories:
  - community-health-center
  address:
    street: 2200 W Fairview Ave
    city: Boise
    state: id
    zip: '83702'
  geo:
    lat: 43.62062
    lng: -116.21731
  phone: 208-344-3512
  external_ids:
    bphc: BPS-H80-024551
  sources:
  - hrsa/health-center-sites
  verified:
    'on': '2026-07-19'
    method: api
- id: id/boise/noble-intent
  name: Noble Intent
  categories:
  - su-treatment
  - mh-treatment
  address:
    street: 3501 West Elder Street
    city: Boise
    state: id
    zip: '83705'
  geo:
    lat: 43.57296
    lng: -116.22427
  phone: 208-286-1529
  website: https://www.nobleintentprograms.com
  sources:
  - samhsa/findtreatment
  verified:
    'on': '2026-07-19'
    method: api
- id: id/boise/northwest-pointe-apts
  name: Northwest Pointe Apts.
  categories:
  - meal-program
  address:
    street: 3475 N Five Mile Rd
    city: Boise
    state: id
    zip: '83713'
  description: 'Free summer meals for kids and teens (2026 season) — sponsored by West Ada S.D. #002.'
  geo:
    lat: 43.63574
    lng: -116.31436
  phone: (208) 350-5248
  external_ids:
    usda_master: Cycle 03_ID_SFSP_0067
  sources:
  - usda/summer-meal-sites
  verified:
    'on': '2026-07-19'
    method: api
- id: id/boise/osprey-counseling
  name: Osprey Counseling
  categories:
  - mh-treatment
  address:
    street: 5503 West Kendall Street
    city: Boise
    state: id
    zip: '83706'
  geo:
    lat: 43.61714
    lng: -116.24999
  phone: 208-912-7362
  website: https://ospreycounselingid.com
  sources:
  - samhsa/findtreatment
  verified:
    'on': '2026-07-19'
    method: api
- id: id/boise/phillippi-park
  name: Phillippi Park
  categories:
  - meal-program
  address:
    street: 2299 S Phillippi St
    city: Boise
    state: id
    zip: '83705'
  description: 'Free summer meals for kids and teens (2026 season) — sponsored by Boise S. D. #001.'
  geo:
    lat: 43.58103
    lng: -116.25018
  phone: (208) 854-4067
  external_ids:
    usda_master: Cycle 03_ID_SFSP_0100
  sources:
  - usda/summer-meal-sites
  verified:
    'on': '2026-07-19'
    method: api
- id: id/boise/pride-mental-health
  name: Pride Mental Health
  categories:
  - su-treatment
  - mh-treatment
  address:
    street: 9488 West Fairview Avenue
    city: Boise
    state: id
    zip: '83704'
  geo:
    lat: 43.61959
    lng: -116.30021
  phone: 208-322-2928
  website: https://www.pridementalhealth.com/
  sources:
  - samhsa/findtreatment
  verified:
    'on': '2026-07-19'
    method: api
- id: id/boise/primary-behavioral-health-services
  name: Primary Behavioral Health Services
  categories:
  - su-treatment
  - mh-treatment
  address:
    street: 8620 West Emerald Street
    city: Boise
    state: id
    zip: '83704'
  geo:
    lat: 43.61189
    lng: -116.28863
  phone: 208-617-3265
  website: https://www.primarybhs.com
  sources:
  - samhsa/findtreatment
  verified:
    'on': '2026-07-19'
    method: api
- id: id/boise/raise-the-bottom-training-and-counseling-service
  name: Raise the Bottom Training and Counseling Services LLC
  categories:
  - su-treatment
  address:
    street: 9196 West Barnes Drive
    city: Boise
    state: id
    zip: '83709'
  geo:
    lat: 43.59361
    lng: -116.296
  phone: 208-433-0400 x1114
  website: https://www.raisethebottomidaho.com
  sources:
  - samhsa/findtreatment
  verified:
    'on': '2026-07-19'
    method: api
- id: id/boise/renaissance-ranch-boise-outpaitent
  name: Renaissance Ranch Boise Outpaitent
  categories:
  - su-treatment
  - mh-treatment
  address:
    street: 812 South La Cassia Drive
    city: Boise
    state: id
    zip: '83705'
  geo:
    lat: 43.59626
    lng: -116.22737
  phone: 208-742-4229
  website: https://www.renaissanceranch.net
  sources:
  - samhsa/findtreatment
  verified:
    'on': '2026-07-19'
    method: api
- id: id/boise/renaissance-ranch-heyburn-llc
  name: Renaissance Ranch Heyburn LLC
  categories:
  - su-treatment
  - mh-treatment
  address:
    street: 7911 West Ustick Road
    city: Boise
    state: id
    zip: '83704'
  geo:
    lat: 43.63314
    lng: -116.28109
  phone: 208-271-5363
  website: https://www.renaissanceranch.net
  sources:
  - samhsa/findtreatment
  verified:
    'on': '2026-07-19'
    method: api
- id: id/boise/safe-connections-llc
  name: SAFE Connections LLC
  categories:
  - mh-treatment
  address:
    street: 413 West Idaho Street
    city: Boise
    state: id
    zip: '83702'
  geo:
    lat: 43.61411
    lng: -116.19891
  phone: 208-385-7233
  website: https://www.safeconnectionsllc.com
  sources:
  - samhsa/findtreatment
  verified:
    'on': '2026-07-19'
    method: api
- id: id/boise/sage-healthcare-pllc
  name: Sage Healthcare PLLC
  categories:
  - su-treatment
  - mh-treatment
  address:
    street: 413 North Allumbaugh Street
    city: Boise
    state: id
    zip: '83704'
  geo:
    lat: 43.60849
    lng: -116.26807
  phone: 208-323-1125
  website: https://www.sage-healthcare.com
  sources:
  - samhsa/findtreatment
  verified:
    'on': '2026-07-19'
    method: api
- id: id/boise/sane-solutions-ada
  name: SANE SOLUTIONS- ADA
  categories:
  - community-health-center
  address:
    street: 408 N Allumbaugh St
    city: Boise
    state: id
    zip: '83704'
  geo:
    lat: 43.60848
    lng: -116.26589
  phone: 208-323-9600
  website: https://www.trhs.org
  external_ids:
    bphc: BPS-H80-001423
  sources:
  - hrsa/health-center-sites
  verified:
    'on': '2026-07-19'
    method: api
- id: id/boise/shaw-mountain-of-cascadia
  name: Shaw Mountain of Cascadia
  categories:
  - community-health-center
  address:
    street: 909 E Reserve St
    city: Boise
    state: id
    zip: '83712'
  geo:
    lat: 43.61535
    lng: -116.18246
  phone: 208-466-7869
  website: https://www.trhs.org
  external_ids:
    bphc: BPS-H80-039982
  sources:
  - hrsa/health-center-sites
  verified:
    'on': '2026-07-19'
    method: api
- id: id/boise/silver-sage-elementary-school
  name: Silver Sage Elementary School
  categories:
  - meal-program
  address:
    street: 7700 W Snohomish Street
    city: Boise
    state: id
    zip: '83709'
  description: 'Free summer meals for kids and teens (2026 season) — sponsored by West Ada S.D. #002.'
  geo:
    lat: 43.55783
    lng: -116.27941
  phone: (208) 350-5248
  external_ids:
    usda_master: Cycle 03_ID_SFSP_0109
  sources:
  - usda/summer-meal-sites
  verified:
    'on': '2026-07-19'
    method: api
- id: id/boise/skyline-transitional-care-center
  name: Skyline Transitional Care Center
  categories:
  - community-health-center
  address:
    street: 1001 S Hilton St
    city: Boise
    state: id
    zip: '83705'
  geo:
    lat: 43.59578
    lng: -116.24615
  phone: 208-466-7869
  website: https://www.trhs.org
  external_ids:
    bphc: BPS-H80-039983
  sources:
  - hrsa/health-center-sites
  verified:
    'on': '2026-07-19'
    method: api
- id: id/boise/solstice-counseling-services-llc
  name: Solstice Counseling Services LLC
  categories:
  - su-treatment
  - mh-treatment
  address:
    city: Boise
    state: id
    zip: '83706'
  phone: 208-252-5166
  website: https://www.rmsolsticecounseling.com
  sources:
  - samhsa/findtreatment
  verified:
    'on': '2026-07-19'
    method: api
- id: id/boise/south-junior-high-school
  name: South Junior High School
  categories:
  - meal-program
  address:
    street: 3101 W Cassia St
    city: Boise
    state: id
    zip: '83705'
  description: 'Free summer meals for kids and teens (2026 season) — sponsored by Boise S. D. #001.'
  geo:
    lat: 43.59704
    lng: -116.22086
  phone: (208) 854-4067
  external_ids:
    usda_master: Cycle 03_ID_SFSP_0111
  sources:
  - usda/summer-meal-sites
  verified:
    'on': '2026-07-19'
    method: api
- id: id/boise/starr-family-behavioral-health
  name: STARR Family Behavioral Health
  categories:
  - su-treatment
  - mh-treatment
  address:
    street: 7161 West Potomac Drive
    city: Boise
    state: id
    zip: '83704'
  geo:
    lat: 43.61075
    lng: -116.27159
  phone: 208-908-6399
  website: https://www.starrfbh.com
  sources:
  - samhsa/findtreatment
  verified:
    'on': '2026-07-19'
    method: api
- id: id/boise/sunset-park
  name: Sunset Park
  categories:
  - meal-program
  address:
    street: 2625 N 32Nd St
    city: Boise
    state: id
    zip: '83703'
  description: 'Free summer meals for kids and teens (2026 season) — sponsored by Boise S. D. #001.'
  geo:
    lat: 43.64392
    lng: -116.22837
  phone: (205) 854-4067
  external_ids:
    usda_master: Cycle 03_ID_SFSP_0117
  sources:
  - usda/summer-meal-sites
  verified:
    'on': '2026-07-19'
    method: api
- id: id/boise/terry-reilly-curtis
  name: Terry Reilly - Curtis
  categories:
  - community-health-center
  address:
    street: 1000 N Curtis Rd, Suite 203
    city: Boise
    state: id
    zip: '83706'
  geo:
    lat: 43.61368
    lng: -116.2533
  phone: 208-467-4431
  website: https://www.trhs.org
  external_ids:
    bphc: BPS-H80-040832
  sources:
  - hrsa/health-center-sites
  verified:
    'on': '2026-07-19'
    method: api
- id: id/boise/terry-reilly-health-services
  name: Terry Reilly Health Services
  categories:
  - su-treatment
  - mh-treatment
  address:
    street: 300 South 23rd Street
    city: Boise
    state: id
    zip: '83702'
  geo:
    lat: 43.61972
    lng: -116.21721
  phone: 208-344-3512
  website: https://www.trhs.org
  sources:
  - samhsa/findtreatment
  verified:
    'on': '2026-07-19'
    method: api
- id: id/boise/terry-reilly-health-services-2
  name: Terry Reilly Health Services
  categories:
  - su-treatment
  - mh-treatment
  address:
    street: 6855 West Fairview Avenue
    city: Boise
    state: id
    zip: '83704'
  geo:
    lat: 43.6188
    lng: -116.26721
  phone: 208-323-9600
  website: https://www.trhs.org
  sources:
  - samhsa/findtreatment
  verified:
    'on': '2026-07-19'
    method: api
- id: id/boise/terry-reilly-health-services-latah-community-hea
  name: Terry Reilly Health Services Latah Community Health Clinic Inc
  categories:
  - su-treatment
  - mh-treatment
  address:
    street: 848 South La Cassia Drive
    city: Boise
    state: id
    zip: '83705'
  geo:
    lat: 43.59569
    lng: -116.22823
  phone: 208-344-0086
  website: https://www.trhs.org
  sources:
  - samhsa/findtreatment
  verified:
    'on': '2026-07-19'
    method: api
- id: id/boise/terry-reilly-health-services-trauma-and-resilien
  name: Terry Reilly Health Services Trauma and Resilience Center
  categories:
  - su-treatment
  - mh-treatment
  address:
    street: 6855 West Fairview Avenue
    city: Boise
    state: id
    zip: '83704'
  geo:
    lat: 43.61879
    lng: -116.26695
  phone: 208-323-9600
  website: https://www.trhs.org
  sources:
  - samhsa/findtreatment
  verified:
    'on': '2026-07-19'
    method: api
- id: id/boise/terry-reilly-latah-clinic
  name: Terry Reilly Latah Clinic
  categories:
  - community-health-center
  address:
    street: 848 S La Cassia Dr
    city: Boise
    state: id
    zip: '83705'
  geo:
    lat: 43.59579
    lng: -116.22819
  phone: 208-344-3512
  website: https://www.trhs.org
  external_ids:
    bphc: BPS-H80-001972
  sources:
  - hrsa/health-center-sites
  verified:
    'on': '2026-07-19'
    method: api
- id: id/boise/terry-reilly-vista
  name: Terry Reilly - Vista
  categories:
  - community-health-center
  address:
    street: 2717 S Vista Ave
    city: Boise
    state: id
    zip: '83705'
  geo:
    lat: 43.57779
    lng: -116.21376
  phone: 208-466-7869
  website: https://www.trhs.org
  external_ids:
    bphc: BPS-H80-038048
  sources:
  - hrsa/health-center-sites
  verified:
    'on': '2026-07-19'
    method: api
- id: id/boise/tranquility-counseling-service-pllc
  name: Tranquility Counseling Service PLLC
  categories:
  - mh-treatment
  address:
    city: Boise
    state: id
    zip: '83704'
  phone: 208-375-3230
  website: https://www.tranquilitycounselingservice.com
  sources:
  - samhsa/findtreatment
  verified:
    'on': '2026-07-19'
    method: api
- id: id/boise/trivium-life-services-jx2-llc
  name: Trivium Life Services JX2 LLC
  categories:
  - su-treatment
  - mh-treatment
  address:
    street: 12553 West Explorer Drive
    city: Boise
    state: id
    zip: '83713'
  geo:
    lat: 43.66032
    lng: -116.3395
  phone: 208-376-7083
  website: https://www.triviumlifeservices.org
  sources:
  - samhsa/findtreatment
  verified:
    'on': '2026-07-19'
    method: api
- id: id/boise/veterans-affairs-medical-center-substance-abuse
  name: Veterans Affairs Medical Center Substance Abuse Treatment Programs
  categories:
  - su-treatment
  - mh-treatment
  address:
    street: 500 West Fort Street
    city: Boise
    state: id
    zip: '83702'
  geo:
    lat: 43.62105
    lng: -116.18977
  phone: 208-422-1108
  website: https://
  sources:
  - samhsa/findtreatment
  verified:
    'on': '2026-07-19'
    method: api
- id: id/boise/visions-counseling-and-education-llc
  name: Visions Counseling and Education LLC
  categories:
  - su-treatment
  - mh-treatment
  address:
    street: 9490 West Fairview Avenue
    city: Boise
    state: id
    zip: '83704'
  geo:
    lat: 43.61959
    lng: -116.30024
  phone: 208-486-0556
  website: https://visions-counseling.com/
  sources:
  - samhsa/findtreatment
  verified:
    'on': '2026-07-19'
    method: api
- id: id/boise/w-river-st-va-clinic
  name: W. River St. VA Clinic
  categories: *id002
  description: Other Outpatient Services (OOS)
  address: {street: 1276 West River Street, city: Boise, state: id, zip: '83702'}
  geo: {lat: 43.61474, lng: -116.2146}
  phone: 208-422-1039
  hours:
  - {days: [mon, tue, wed, thu, fri], open: '08:30', close: '16:00'}
  external_ids: {va: vha_531QA}
  sources:
  - va/facilities-api
  verified: {'on': '2026-07-19', method: api}
- id: id/boise/whitney-elementary-school
  name: Whitney Elementary School
  categories:
  - meal-program
  address:
    street: 1609 S Owyhee St
    city: Boise
    state: id
    zip: '83705'
  description: 'Free summer meals for kids and teens (2026 season) — sponsored by Boise S. D. #001.'
  geo:
    lat: 43.58804
    lng: -116.22367
  phone: (208) 854-4067
  external_ids:
    usda_master: Cycle 03_ID_SFSP_0129
  sources:
  - usda/summer-meal-sites
  verified:
    'on': '2026-07-19'
    method: api
- id: id/boise/whittier-elementary-school
  name: Whittier Elementary School
  categories:
  - meal-program
  address:
    street: 301 N 29Th St
    city: Boise
    state: id
    zip: '83702'
  description: 'Free summer meals for kids and teens (2026 season) — sponsored by Boise S. D. #001.'
  geo:
    lat: 43.62364
    lng: -116.22668
  phone: (208) 854-4067
  external_ids:
    usda_master: Cycle 03_ID_SFSP_0130
  sources:
  - usda/summer-meal-sites
  verified:
    'on': '2026-07-19'
    method: api
- id: id/boise/winstead-park
  name: Winstead Park
  categories:
  - meal-program
  address:
    street: 6150 W Northview St
    city: Boise
    state: id
    zip: '83704'
  description: 'Free summer meals for kids and teens (2026 season) — sponsored by Boise S. D. #001.'
  geo:
    lat: 43.62704
    lng: -116.25732
  phone: (205) 854-4067
  external_ids:
    usda_master: Cycle 03_ID_SFSP_0131
  sources:
  - usda/summer-meal-sites
  verified:
    'on': '2026-07-19'
    method: api
- id: id/boise/youth-community-support-ctr-clarvida
  name: Youth Community Support Ctr Clarvida
  categories:
  - su-treatment
  - mh-treatment
  address:
    street: 9196 West Emerald Street
    city: Boise
    state: id
    zip: '83704'
  geo:
    lat: 43.61152
    lng: -116.297
  phone: 208-402-1044
  website: https://www.clarvida.com/idaho
  sources:
  - samhsa/findtreatment
  verified:
    'on': '2026-07-19'
    method: api
