- id: id/jerome/family-health-services-jerome-middle-school
  name: FAMILY HEALTH SERVICES - JEROME MIDDLE SCHOOL
  categories:
  - community-health-center
  address:
    street: 520 10th Ave W
    city: Jerome
    state: id
    zip: '83338'
  place: '1641320'
  geo:
    lat: 42.73395
    lng: -114.526
  phone: 208-324-8134
  website: https://www.fhsid.org
  external_ids:
    bphc: BPS-H80-035782
  sources:
  - hrsa/health-center-sites
  verified:
    'on': '2026-07-19'
    method: api
- id: id/jerome/family-health-services-jerome-nez-perce-medical
  name: FAMILY HEALTH SERVICES - JEROME NEZ PERCE MEDICAL, DENTAL & BEHAVIORAL HEALTH CLINIC
  categories:
  - community-health-center
  address:
    street: 218 W Nez Perce
    city: Jerome
    state: id
    zip: '83338'
  place: '1641320'
  geo:
    lat: 42.70965
    lng: -114.52205
  phone: 208-324-3471
  website: https://www.fhsid.org
  external_ids:
    bphc: BPS-H80-031758
  sources:
  - hrsa/health-center-sites
  verified:
    'on': '2026-07-19'
    method: api
- id: id/jerome/family-health-services-jerome-pioneer-medical-ad
  name: FAMILY HEALTH SERVICES - JEROME PIONEER MEDICAL & ADVANCED DENTAL DELIVERY CLINIC
  categories:
  - community-health-center
  address:
    street: 114 Pioneer Ct
    city: Jerome
    state: id
    zip: '83338'
  place: '1641320'
  geo:
    lat: 42.70692
    lng: -114.51717
  phone: 208-732-7125
  website: https://www.fhsid.org
  external_ids:
    bphc: BPS-H80-008881
  sources:
  - hrsa/health-center-sites
  verified:
    'on': '2026-07-19'
    method: api
- id: id/jerome/housing-authority-of-the-city-jerome
  name: Housing Authority Of The City Jerome
  categories:
  - housing-assistance
  address: {street: 100 N Fillmore St, city: Jerome, state: id, zip: '83338'}
  description: Public housing (Low-Rent) agency
  place: '1641320'
  geo: {lat: 42.72447, lng: -114.50883}
  phone: 208-733-5765
  sources:
  - hud/resource-locator
  verified: {'on': '2026-07-19', method: api}
- id: id/jerome/north-side-head-start-early-head-start
  name: North Side Head Start/Early Head Start
  categories:
  - child-care
  address:
    street: 220 3rd Ave W
    city: Jerome
    state: id
    zip: '83338'
  place: '1641320'
  geo:
    lat: 42.72707
    lng: -114.51632
  phone: 208-324-2385
  sources:
  - acf/head-start-locations
  verified:
    'on': '2026-07-19'
    method: api
- id: id/jerome/river-of-hope-behavioral-health
  name: River of Hope Behavioral Health
  categories:
  - su-treatment
  - mh-treatment
  address:
    street: 414 North Lincoln Avenue
    city: Jerome
    state: id
    zip: '83338'
  place: '1641320'
  geo:
    lat: 42.72773
    lng: -114.51795
  phone: 208-324-5431
  website: https://rohbehavioralhealth.com/
  sources:
  - samhsa/findtreatment
  verified:
    'on': '2026-07-19'
    method: api
