- id: id/wilder/calvary-holiness-church
  name: Calvary Holiness Church
  org: id/the-idaho-foodbank
  categories:
  - food-pantry
  address: {street: 310 B Ave, city: Wilder, state: id, zip: '83676'}
  place: '1687670'
  geo: {lat: 43.6781, lng: -116.91004}
  phone: 208-614-0488
  email: calvarypantry@gmail.com
  external_ids: {id-the-idaho-foodbank: '31'}
  sources:
  - foodbank/id-the-idaho-foodbank
  verified: {'on': '2026-07-21', method: api}
- id: id/wilder/canyon-county-mobile-pantry-wilder
  name: Canyon County Mobile Pantry - Wilder
  org: id/the-idaho-foodbank
  categories:
  - food-pantry
  address: {street: 310 B Ave, city: Wilder, state: id, zip: '83676'}
  place: '1687670'
  geo: {lat: 43.6781, lng: -116.91004}
  phone: 208-936-8579
  external_ids: {id-the-idaho-foodbank: '38'}
  sources:
  - foodbank/id-the-idaho-foodbank
  verified: {'on': '2026-07-21', method: api}
- id: id/wilder/cossa-high-school
  name: Cossa High School
  categories:
  - meal-program
  address: {street: 109 Penny Lane, city: Wilder, state: id, zip: '83676'}
  description: Free summer meals for kids and teens (2026 season) — sponsored by Canyon-Owyhee School
    Service Agency.
  place: '1687670'
  geo: {lat: 43.68334, lng: -116.90552}
  phone: (208) 794-6317
  external_ids: {usda_master: Cycle 09_ID_SFSP_0050}
  sources:
  - usda/summer-meal-sites
  verified: {'on': '2026-07-19', method: api}
- id: id/wilder/garnet-sda-church-mobile
  name: Garnet SDA Church Mobile
  org: id/the-idaho-foodbank
  categories:
  - food-pantry
  address: {street: 16613 Garnet Rd., city: Wilder, state: id, zip: '83676'}
  place: '1687670'
  geo: {lat: 43.61215, lng: -116.91197}
  phone: 208-614-9136
  external_ids: {id-the-idaho-foodbank: '282'}
  sources:
  - foodbank/id-the-idaho-foodbank
  verified: {'on': '2026-07-21', method: api}
- id: id/wilder/wicap-wilder
  name: WICAP Wilder
  org: id/the-idaho-foodbank
  categories:
  - food-pantry
  address: {street: 305 A Ave A, city: Wilder, state: id, zip: '83676'}
  place: '1687670'
  geo: {lat: 43.67679, lng: -116.90981}
  phone: 208-482-7223
  external_ids: {id-the-idaho-foodbank: '256'}
  sources:
  - foodbank/id-the-idaho-foodbank
  verified: {'on': '2026-07-21', method: api}
- id: id/wilder/wilder-head-start
  name: Wilder Head Start
  categories:
  - child-care
  address: {street: 305 Avenue A, city: Wilder, state: id, zip: '83676'}
  description: Head Start early childhood program — 20 funded slots; operated by Western Idaho Community
    Action Partnership.
  place: '1687670'
  geo: {lat: 43.67678, lng: -116.9098}
  phone: 208-482-7223
  sources:
  - acf/head-start-locations
  verified: {'on': '2026-07-19', method: api}
- id: id/wilder/wilder-schools
  name: Wilder Schools
  categories:
  - meal-program
  address: {street: 218 Golden Gate Ave E, city: Wilder, state: id, zip: '83676'}
  description: 'Free summer meals for kids and teens (2026 season) — sponsored by Wilder S.D. #133.'
  place: '1687670'
  geo: {lat: 43.67617, lng: -116.90483}
  phone: (208) 337-7400
  external_ids: {usda_master: Cycle 09_ID_SFSP_0214}
  sources:
  - usda/summer-meal-sites
  verified: {'on': '2026-07-19', method: api}
