- id: vt/bennington/baart-programs-bennington
  name: BAART Programs Bennington
  categories:
  - su-treatment
  address:
    street: 120 Depot Street
    city: Bennington
    state: vt
    zip: '05201'
  place: '5004750'
  geo:
    lat: 42.88059
    lng: -73.19922
  phone: 802-221-3499
  website: https://www.baartprograms.com/locations/vermont/bennington
  sources:
  - samhsa/findtreatment
  verified:
    'on': '2026-07-19'
    method: api
- id: vt/bennington/bennington-housing-authority
  name: Bennington Housing Authority
  categories:
  - housing-assistance
  address: {street: 22 Willow Brook Dr, city: Bennington, state: vt, zip: '05201'}
  description: Housing Choice Voucher (Section 8) agency
  place: '5004750'
  geo: {lat: 42.89869, lng: -73.20485}
  phone: 802-442-8000
  sources:
  - hud/resource-locator
  verified: {'on': '2026-07-19', method: api}
- id: vt/bennington/mpcc-monument
  name: MPCC Monument
  categories:
  - child-care
  address:
    street: 1 Monument Cir
    city: Bennington
    state: vt
    zip: '05201'
  place: '5004750'
  geo:
    lat: 42.88348
    lng: -73.21272
  phone: 802-681-7539
  sources:
  - acf/head-start-locations
  verified:
    'on': '2026-07-19'
    method: api
- id: vt/bennington/savida-health-bennington
  name: SaVida Health Bennington
  categories:
  - su-treatment
  address:
    street: 655 Main Street
    city: Bennington
    state: vt
    zip: '05201'
  place: '5004750'
  geo:
    lat: 42.87792
    lng: -73.18924
  phone: 802-448-5105
  website: https://www.savidahealth.com
  sources:
  - samhsa/findtreatment
  verified:
    'on': '2026-07-19'
    method: api
- id: vt/bennington/spring-center-at-655-gage-street-bennington
  name: Spring Center at 655 Gage Street, Bennington
  categories:
  - child-care
  address:
    street: 655 Gage St
    city: Bennington
    state: vt
    zip: '05201'
  place: '5004750'
  geo:
    lat: 42.88052
    lng: -73.18594
  phone: 802-442-3686
  sources:
  - acf/head-start-locations
  verified:
    'on': '2026-07-19'
    method: api
- id: vt/bennington/turning-point-recovery-center-of-bennington-vt
  name: Turning Point Recovery Center of Bennington, VT
  categories:
  - community-health-center
  address:
    street: 601 Main St
    city: Bennington
    state: vt
    zip: '05201'
  place: '5004750'
  geo:
    lat: 42.87768
    lng: -73.19191
  phone: 802-442-9700
  external_ids:
    bphc: BPS-H80-041554
  sources:
  - hrsa/health-center-sites
  verified:
    'on': '2026-07-19'
    method: api
- id: vt/bennington/ucs-infant-toddler-center
  name: UCS Infant Toddler Center
  categories:
  - child-care
  address:
    street: 100 Ledgehill Rd
    city: Bennington
    state: vt
    zip: '05201'
  place: '5004750'
  geo:
    lat: 42.87249
    lng: -73.20562
  phone: 802-442-3686
  sources:
  - acf/head-start-locations
  verified:
    'on': '2026-07-19'
    method: api
- id: vt/bennington/united-counseling-services-battelle-house-crisis
  name: United Counseling Services Battelle House Crisis Center
  categories:
  - mh-treatment
  address:
    street: 100 Ledge Hill Drive
    city: Bennington
    state: vt
    zip: '05201'
  place: '5004750'
  phone: 802-442-5491 x401
  website: https://www.ucsvt.org
  sources:
  - samhsa/findtreatment
  verified:
    'on': '2026-07-19'
    method: api
- id: vt/bennington/united-counseling-services-bennington
  name: United Counseling Services Bennington
  categories:
  - su-treatment
  - mh-treatment
  address:
    street: 100 Ledge Hill Drive
    city: Bennington
    state: vt
    zip: '05201'
  place: '5004750'
  geo:
    lat: 42.87249
    lng: -73.20562
  phone: 802-442-5491 x315
  website: https://www.ucsvt.org
  sources:
  - samhsa/findtreatment
  verified:
    'on': '2026-07-19'
    method: api
- id: vt/bennington/va-bennington-cboc
  name: VA Bennington CBOC
  categories:
  - su-treatment
  - mh-treatment
  address:
    street: 186 North Street
    city: Bennington
    state: vt
    zip: '05201'
  place: '5004750'
  geo:
    lat: 42.88041
    lng: -73.19729
  phone: 802-440-3300
  website: https://www.va.gov/white-river-junction-health-care/locations/bennington-va-clinic/
  sources:
  - samhsa/findtreatment
  verified:
    'on': '2026-07-19'
    method: api
