- id: vt/brattleboro/birge-nest
  name: Birge Nest
  categories:
  - child-care
  address:
    street: 130 Birge St
    city: Brattleboro
    state: vt
    zip: '05301'
  place: '5007975'
  geo:
    lat: 42.84797
    lng: -72.567
  phone: 802-254-3742
  sources:
  - acf/head-start-locations
  verified:
    'on': '2026-07-19'
    method: api
- id: vt/brattleboro/brattleboro-cboc
  name: Brattleboro CBOC
  categories:
  - su-treatment
  - mh-treatment
  address:
    street: 71 GSP Drive
    city: Brattleboro
    state: vt
    zip: '05301'
  place: '5007975'
  geo:
    lat: 42.83049
    lng: -72.56786
  phone: 802-251-2200
  website: https://www.va.gov/white-river-junction-health-care/locations/brattleboro-va-clinic/
  sources:
  - samhsa/findtreatment
  verified:
    'on': '2026-07-19'
    method: api
- id: vt/brattleboro/brattleboro-comprehensive-treatment-habit-opco-l
  name: Brattleboro Comprehensive Treatment Habit Opco LLC
  categories:
  - su-treatment
  address:
    street: 16 Town Crier Drive
    city: Brattleboro
    state: vt
    zip: '05304'
  place: '5007975'
  geo:
    lat: 42.87129
    lng: -72.55617
  phone: 802-258-4623
  website: https://www.ctcprograms.com/location/brattleboro-comprehen
  sources:
  - samhsa/findtreatment
  verified:
    'on': '2026-07-19'
    method: api
- id: vt/brattleboro/brattleboro-housing-authority
  name: Brattleboro Housing Authority
  categories:
  - housing-assistance
  address:
    street: 224 Melrose St
    city: Brattleboro
    state: vt
    zip: '05301'
  description: Public housing and Housing Choice Voucher agency
  place: '5007975'
  geo:
    lat: 42.85368
    lng: -72.59691
  phone: 802-254-6071
  sources:
  - hud/resource-locator
  verified:
    'on': '2026-07-19'
    method: api
- id: vt/brattleboro/brattleboro-uhs-6
  name: 'Brattleboro Uhs #6'
  categories:
  - meal-program
  address: {street: 131 Fairground Road, city: Brattleboro, state: vt, zip: '05301'}
  description: Free summer meals for kids and teens (2026 season) — sponsored by Windham Southeast SU.
  place: '5007975'
  geo: {lat: 42.83707, lng: -72.56113}
  phone: (774) 208-2932
  external_ids: {usda_master: Cycle 06_VT_SFSP_0009}
  sources:
  - usda/summer-meal-sites
  verified: {'on': '2026-07-19', method: api}
- id: vt/brattleboro/healthcare-and-rehabilitation-services-brattlebo
  name: Healthcare and Rehabilitation Services Brattleboro Program
  categories:
  - su-treatment
  - mh-treatment
  address:
    street: 51 Fairview Street
    city: Brattleboro
    state: vt
    zip: '05301'
  place: '5007975'
  geo:
    lat: 42.84046
    lng: -72.56635
  phone: 802-254-6028
  website: https://www.hcrs.org
  sources:
  - samhsa/findtreatment
  verified:
    'on': '2026-07-19'
    method: api
- id: vt/brattleboro/mulberry-bush
  name: Mulberry Bush
  categories:
  - child-care
  address:
    street: 1 Anna Marsh Lane
    city: Brattleboro
    state: vt
    zip: '05301'
  place: '5007975'
  geo:
    lat: 42.85882
    lng: -72.56263
  phone: 802-490-2065
  sources:
  - acf/head-start-locations
  verified:
    'on': '2026-07-19'
    method: api
- id: vt/brattleboro/nfi-vermont-inc-nfi-hospital-diversion-program-s
  name: NFI Vermont Inc NFI Hospital Diversion Program South
  categories:
  - mh-treatment
  address:
    city: Brattleboro
    state: vt
    zip: '05301'
  place: '5007975'
  phone: 802-258-2173
  website: https://www.nfivermont.org/
  sources:
  - samhsa/findtreatment
  verified:
    'on': '2026-07-19'
    method: api
- id: vt/brattleboro/oak-grove-school
  name: Oak Grove School
  categories:
  - child-care
  address:
    street: 15 Moreland Ave
    city: Brattleboro
    state: vt
    zip: '05301'
  place: '5007975'
  geo:
    lat: 42.84015
    lng: -72.55799
  phone: 802-254-3742
  sources:
  - acf/head-start-locations
  verified:
    'on': '2026-07-19'
    method: api
- id: vt/brattleboro/savida-health-brattleboro
  name: SaVida Health Brattleboro
  categories:
  - su-treatment
  address:
    street: 54 Chickering Drive
    city: Brattleboro
    state: vt
    zip: '05301'
  place: '5007975'
  geo:
    lat: 42.87738
    lng: -72.56229
  phone: 802-451-0231
  website: https://www.savidahealth.com
  sources:
  - samhsa/findtreatment
  verified:
    'on': '2026-07-19'
    method: api
- id: vt/brattleboro/west-bee-nursery
  name: West Bee Nursery
  categories:
  - child-care
  address:
    street: 880 Western Ave
    city: Brattleboro
    state: vt
    zip: '05301'
  place: '5007975'
  geo:
    lat: 42.85214
    lng: -72.59878
  phone: 802-257-7155
  sources:
  - acf/head-start-locations
  verified:
    'on': '2026-07-19'
    method: api
- id: vt/brattleboro/wsesd-brattleboro-union-high-school-infant-toddl
  name: WSESD @Brattleboro Union High School Infant Toddler Center
  categories:
  - child-care
  address:
    street: Brattleboro Union High School
    street2: Fairground Road
    city: Brattleboro
    state: vt
    zip: '05301'
  place: '5007975'
  geo:
    lat: 42.83619
    lng: -72.56148
  phone: 802-451-3566
  sources:
  - acf/head-start-locations
  verified:
    'on': '2026-07-19'
    method: api
