- id: vt/st-johnsbury/baart-programs-st-johnsbury
  name: BAART Programs St Johnsbury
  categories:
  - su-treatment
  address:
    street: 1097 Hospital Drive
    city: Saint Johnsbury
    state: vt
    zip: 05819
  place: '5062125'
  geo:
    lat: 44.44581
    lng: -72.01389
  phone: 802-748-6166
  website: https://www.baartprograms.com/locations/vermont/st-johnsbury
  sources:
  - samhsa/findtreatment
  verified:
    'on': '2026-07-19'
    method: api
- id: vt/st-johnsbury/northeast-kingdom-human-services-inc-tricounty-s
  name: Northeast Kingdom Human Services Inc TriCounty Substance Abuse Services
  categories:
  - su-treatment
  - mh-treatment
  address:
    street: 2225 Portland Street
    city: Saint Johnsbury
    state: vt
    zip: 05819
  place: '5062125'
  geo:
    lat: 44.43007
    lng: -71.97632
  phone: 802-334-6744
  website: https://
  sources:
  - samhsa/findtreatment
  verified:
    'on': '2026-07-19'
    method: api
- id: vt/st-johnsbury/northern-counties-health-care-inc
  name: NORTHERN COUNTIES HEALTH CARE, INC.
  categories:
  - community-health-center
  address:
    street: 165 Sherman Dr
    city: Saint Johnsbury
    state: vt
    zip: 05819
  place: '5062125'
  geo:
    lat: 44.44782
    lng: -72.01274
  phone: 802-748-9405
  website: http://www.nchcvt.org/
  external_ids:
    bphc: BPS-H80-005349
  sources:
  - hrsa/health-center-sites
  verified:
    'on': '2026-07-19'
    method: api
- id: vt/st-johnsbury/northern-express-care-st-johnsbury
  name: Northern Express Care - St. Johnsbury
  categories:
  - community-health-center
  address:
    street: 457 Railroad St STE 2
    city: St Johnsbury
    state: vt
    zip: 05819
  place: '5062125'
  geo:
    lat: 44.41919
    lng: -72.01556
  phone: 802-633-6351
  website: https://www.nchcvt.org/locations-providers/northern-express-care-st-johnsbury/
  external_ids:
    bphc: BPS-H80-036971
  sources:
  - hrsa/health-center-sites
  verified:
    'on': '2026-07-19'
    method: api
- id: vt/st-johnsbury/st-johnsbury-child-and-family-development-progra
  name: St. Johnsbury Child and Family Development Program
  categories:
  - child-care
  address:
    street: 115 Lincoln St
    city: Saint Johnsbury
    state: vt
    zip: 05819
  place: '5062125'
  geo:
    lat: 44.41985
    lng: -71.99962
  phone: 802-748-3201
  sources:
  - acf/head-start-locations
  verified:
    'on': '2026-07-19'
    method: api
- id: vt/st-johnsbury/st-johnsbury-community-health-center
  name: St. Johnsbury Community Health Center
  categories:
  - community-health-center
  address:
    street: 185 Sherman Dr
    city: Saint Johnsbury
    state: vt
    zip: 05819
  place: '5062125'
  geo:
    lat: 44.44822
    lng: -72.01276
  phone: 802-748-5041
  website: http://www.nchcvt.org/
  external_ids:
    bphc: BPS-H80-001222
  sources:
  - hrsa/health-center-sites
  verified:
    'on': '2026-07-19'
    method: api
