- id: ny/syracuse/a-new-vision
  name: A New Vision
  program: na
  categories:
  - recovery-meeting
  schedule:
  - {day: sun, time: '10:30', duration_min: 60}
  format: in-person
  types:
  - o
  - st
  - tr
  - wc
  venue_name: Fellowship Hall
  venue: {street: 135 Walter Drive, city: Syracuse, state: ny, zip: '13206'}
  place: '3673000'
  geo: {lat: 43.07069, lng: -76.09904}
  external_ids: {bmlt: '3:1818'}
  sources:
  - bmlt/aggregator
  verified: {'on': '2026-07-19', method: api}
- id: ny/syracuse/a-place-to-start
  name: A Place to Start
  program: na
  categories:
  - recovery-meeting
  schedule:
  - {day: tue, time: '18:30', duration_min: 90}
  format: in-person
  types:
  - o
  - rf
  venue_name: Plymouth Church
  venue: {street: 232 East Onondaga Street, city: Syracuse, state: ny, zip: '13202'}
  place: '3673000'
  geo: {lat: 43.04582, lng: -76.14999}
  external_ids: {bmlt: '3:2026'}
  sources:
  - bmlt/aggregator
  verified: {'on': '2026-07-19', method: api}
- id: ny/syracuse/all-will-be-well
  name: All Will Be Well
  program: na
  categories:
  - recovery-meeting
  schedule:
  - {day: sat, time: '19:00', duration_min: 90}
  format: in-person
  types:
  - c
  - rf
  - wc
  venue: {street: 2433 Erie Blvd East, city: Syracuse, state: ny, zip: '13224'}
  place: '3673000'
  geo: {lat: 43.05434, lng: -76.10535}
  external_ids: {bmlt: '3:2786'}
  sources:
  - bmlt/aggregator
  verified: {'on': '2026-07-19', method: api}
- id: ny/syracuse/came-to-believe
  name: Came to Believe
  program: na
  categories:
  - recovery-meeting
  schedule:
  - {day: sun, time: '19:00', duration_min: 90}
  format: in-person
  types:
  - o
  - wc
  venue_name: St. Mark’s Church
  venue: {street: 1612 W Genesee St, city: Syracuse, state: ny}
  place: '3673000'
  geo: {lat: 43.05266, lng: -76.1866}
  external_ids: {bmlt: '3:1824'}
  sources:
  - bmlt/aggregator
  verified: {'on': '2026-07-19', method: api}
- id: ny/syracuse/carry-the-message
  name: Carry the Message
  program: na
  categories:
  - recovery-meeting
  schedule:
  - {day: mon, time: '18:30', duration_min: 90}
  format: in-person
  types:
  - o
  - rf
  - wc
  venue_name: Vineyard Church
  venue: {street: 808 N. McBride St., city: Syracuse, state: ny, zip: '13208'}
  place: '3673000'
  geo: {lat: 43.05862, lng: -76.14811}
  external_ids: {bmlt: '3:3428'}
  sources:
  - bmlt/aggregator
  verified: {'on': '2026-07-19', method: api}
- id: ny/syracuse/friday-nighters
  name: Friday Nighters
  program: na
  categories:
  - recovery-meeting
  schedule:
  - {day: fri, time: '19:00', duration_min: 90}
  format: in-person
  types:
  - o
  - rf
  - wc
  venue_name: St. Lucy's Church
  venue: {street: 432 Gifford Street, city: Syracuse, state: ny, zip: '13204'}
  place: '3673000'
  geo: {lat: 43.04352, lng: -76.16253}
  external_ids: {bmlt: '3:2907'}
  sources:
  - bmlt/aggregator
  verified: {'on': '2026-07-19', method: api}
- id: ny/syracuse/good-medicine
  name: Good Medicine
  program: na
  categories:
  - recovery-meeting
  schedule:
  - {day: mon, time: '19:30', duration_min: 60}
  format: in-person
  types:
  - o
  - gl
  - wc
  venue_name: Grace Episcopal Church
  venue: {street: 819 Madison St., city: Syracuse, state: ny, zip: '13203'}
  place: '3673000'
  geo: {lat: 43.04558, lng: -76.13494}
  external_ids: {bmlt: '3:1832'}
  sources:
  - bmlt/aggregator
  verified: {'on': '2026-07-19', method: api}
- id: ny/syracuse/happy-joyous-and-free
  name: Happy Joyous and Free
  program: na
  categories:
  - recovery-meeting
  schedule:
  - {day: wed, time: '19:00', duration_min: 60}
  format: in-person
  types:
  - o
  - rf
  - wc
  venue_name: St. Mark's church
  venue: {street: 1612 West Genesee Street, city: Syracuse, state: ny, zip: '13204'}
  place: '3673000'
  geo: {lat: 43.05266, lng: -76.1866}
  external_ids: {bmlt: '3:1849'}
  sources:
  - bmlt/aggregator
  verified: {'on': '2026-07-19', method: api}
- id: ny/syracuse/love-and-recovery
  name: Love and Recovery
  program: na
  categories:
  - recovery-meeting
  schedule:
  - {day: fri, time: '21:00', duration_min: 60}
  format: in-person
  types:
  - o
  - ns
  venue_name: St. Marks Church
  venue: {street: 1612 W. Genesee St, city: Syracuse, state: ny, zip: '13204'}
  place: '3673000'
  geo: {lat: 43.05265, lng: -76.18662}
  external_ids: {bmlt: '3:3990'}
  sources:
  - bmlt/aggregator
  verified: {'on': '2026-07-19', method: api}
- id: ny/syracuse/promise-of-freedom
  name: Promise of Freedom
  program: na
  categories:
  - recovery-meeting
  schedule:
  - {day: sat, time: '12:00', duration_min: 90}
  format: in-person
  types:
  - o
  - sd
  venue_name: Plymouth Congregational Church
  venue: {street: 232 E. Onondaga St., city: Syracuse, state: ny, zip: '13202'}
  place: '3673000'
  geo: {lat: 43.04583, lng: -76.14999}
  external_ids: {bmlt: '3:3386'}
  sources:
  - bmlt/aggregator
  verified: {'on': '2026-07-19', method: api}
- id: ny/syracuse/resentment-and-a-coffee-pot
  name: Resentment and a Coffee Pot
  program: na
  categories:
  - recovery-meeting
  schedule:
  - {day: sat, time: '18:00', duration_min: 60}
  format: in-person
  types:
  - o
  - wc
  venue_name: Open House
  venue: {street: 1947 West Fayette Street, city: Syracuse, state: ny, zip: '13204'}
  place: '3673000'
  geo: {lat: 43.05456, lng: -76.18608}
  external_ids: {bmlt: '3:3110'}
  sources:
  - bmlt/aggregator
  verified: {'on': '2026-07-19', method: api}
- id: ny/syracuse/serenity-at-noon
  name: Serenity at Noon
  program: na
  categories:
  - recovery-meeting
  schedule:
  - {day: mon, time: '11:30', duration_min: 90}
  format: in-person
  types:
  - o
  - wc
  venue_name: St. Lucy’s Church
  venue: {street: 432 Gifford St, city: Syracuse, state: ny, zip: '13204'}
  place: '3673000'
  geo: {lat: 43.04357, lng: -76.16221}
  external_ids: {bmlt: '3:1826'}
  sources:
  - bmlt/aggregator
  verified: {'on': '2026-07-19', method: api}
- id: ny/syracuse/serenity-at-noon-2
  name: Serenity at Noon
  program: na
  categories:
  - recovery-meeting
  schedule:
  - {day: tue, time: '11:30', duration_min: 90}
  format: in-person
  types:
  - o
  - wc
  venue_name: St. Lucy's Church
  venue: {street: 432 Gifford Street, city: Syracuse, state: ny, zip: '13204'}
  place: '3673000'
  geo: {lat: 43.04357, lng: -76.16221}
  external_ids: {bmlt: '3:1834'}
  sources:
  - bmlt/aggregator
  verified: {'on': '2026-07-19', method: api}
- id: ny/syracuse/serenity-at-noon-3
  name: Serenity at Noon
  program: na
  categories:
  - recovery-meeting
  schedule:
  - {day: wed, time: '11:30', duration_min: 90}
  format: in-person
  types:
  - o
  - wc
  venue_name: St. Lucy's Church
  venue: {street: 432 Gifford Street, city: Syracuse, state: ny, zip: '13204'}
  place: '3673000'
  geo: {lat: 43.04357, lng: -76.16221}
  external_ids: {bmlt: '3:1841'}
  sources:
  - bmlt/aggregator
  verified: {'on': '2026-07-19', method: api}
- id: ny/syracuse/serenity-at-noon-4
  name: Serenity at Noon
  program: na
  categories:
  - recovery-meeting
  schedule:
  - {day: thu, time: '11:30', duration_min: 90}
  format: in-person
  types:
  - o
  - wc
  venue_name: St. Lucy's Church
  venue: {street: 432 Gifford St, city: Syracuse, state: ny, zip: '13204'}
  place: '3673000'
  geo: {lat: 43.04357, lng: -76.16221}
  external_ids: {bmlt: '3:1850'}
  sources:
  - bmlt/aggregator
  verified: {'on': '2026-07-19', method: api}
- id: ny/syracuse/serenity-at-noon-5
  name: Serenity at Noon
  program: na
  categories:
  - recovery-meeting
  schedule:
  - {day: fri, time: '11:30', duration_min: 90}
  format: in-person
  types:
  - o
  - wc
  venue_name: St. Lucy's Church
  venue: {street: 432 Gifford Street, city: Syracuse, state: ny, zip: '13204'}
  place: '3673000'
  geo: {lat: 43.04357, lng: -76.16221}
  external_ids: {bmlt: '3:1861'}
  sources:
  - bmlt/aggregator
  verified: {'on': '2026-07-19', method: api}
- id: ny/syracuse/siguen-viniendo
  name: Siguen Viniendo
  program: na
  categories:
  - recovery-meeting
  schedule:
  - {day: sun, time: '17:00', duration_min: 90}
  format: in-person
  types:
  - o
  - bl
  - es
  - iw
  - jt
  - rf
  - st
  - tr
  venue_name: St Lucy’s Church
  venue: {street: 432 Gifford St, city: Syracuse, state: ny, zip: '13204'}
  place: '3673000'
  geo: {lat: 43.04351, lng: -76.16253}
  external_ids: {bmlt: '3:3924'}
  sources:
  - bmlt/aggregator
  verified: {'on': '2026-07-19', method: api}
- id: ny/syracuse/spiritual-warriors
  name: Spiritual Warriors
  program: na
  categories:
  - recovery-meeting
  schedule:
  - {day: fri, time: '18:30', duration_min: 90}
  format: in-person
  types:
  - o
  - wc
  venue_name: Plymouth Church (Madison St. Entrance)
  venue: {street: 232 East Onondaga Street, city: Syracuse, state: ny, zip: '13202'}
  place: '3673000'
  geo: {lat: 43.04582, lng: -76.14999}
  external_ids: {bmlt: '3:1868'}
  sources:
  - bmlt/aggregator
  verified: {'on': '2026-07-19', method: api}
- id: ny/syracuse/steps-to-life
  name: Steps To Life
  program: na
  categories:
  - recovery-meeting
  schedule:
  - {day: tue, time: '18:00', duration_min: 60}
  format: in-person
  types:
  - o
  - sg
  venue: {street: 126 Terry Road, city: Syracuse, state: ny, zip: '13219'}
  place: '3673000'
  geo: {lat: 43.04465, lng: -76.2208}
  external_ids: {bmlt: '3:3668'}
  sources:
  - bmlt/aggregator
  verified: {'on': '2026-07-19', method: api}
- id: ny/syracuse/third-tradition
  name: Third Tradition
  program: na
  categories:
  - recovery-meeting
  schedule:
  - {day: thu, time: '18:00', duration_min: 60}
  format: in-person
  types:
  - o
  - rf
  - wc
  venue_name: St. Marks Church
  venue: {street: 1612 West Genesee Street, city: Syracuse, state: ny, zip: '13204'}
  place: '3673000'
  geo: {lat: 43.05266, lng: -76.1866}
  external_ids: {bmlt: '3:2906'}
  sources:
  - bmlt/aggregator
  verified: {'on': '2026-07-19', method: api}
- id: ny/syracuse/time-to-fly
  name: Time to Fly
  program: na
  categories:
  - recovery-meeting
  schedule:
  - {day: sat, time: '19:30', duration_min: 90}
  format: in-person
  types:
  - o
  - to
  - tr
  - wc
  venue_name: St. Mark's church
  venue: {street: 1612 West Genesee St., city: Syracuse, state: ny, zip: '13204'}
  place: '3673000'
  geo: {lat: 43.05266, lng: -76.1866}
  external_ids: {bmlt: '3:1881'}
  sources:
  - bmlt/aggregator
  verified: {'on': '2026-07-19', method: api}
- id: ny/syracuse/traditionally-steppin
  name: Traditionally Steppin
  program: na
  categories:
  - recovery-meeting
  schedule:
  - {day: sat, time: '10:30', duration_min: 90}
  format: hybrid
  types:
  - o
  - st
  - tr
  - wc
  - web
  - hy
  venue_name: Grace Episcopal Church
  venue: {street: 819 Madison Street, city: Syracuse, state: ny, zip: '13210'}
  place: '3673000'
  geo: {lat: 43.04558, lng: -76.13494}
  notes: https://zoom.us/j/359394839
  external_ids: {bmlt: '3:2908'}
  sources:
  - bmlt/aggregator
  verified: {'on': '2026-07-19', method: api}
- id: ny/syracuse/when-at-the-end-of-the-road
  name: When At The End of The Road
  program: na
  categories:
  - recovery-meeting
  schedule:
  - {day: thu, time: '18:30', duration_min: 120}
  format: in-person
  types:
  - o
  - wc
  venue_name: Plymouth Church
  venue: {street: 232 E. Onondaga St., city: Syracuse, state: ny, zip: '13202'}
  place: '3673000'
  geo: {lat: 43.04583, lng: -76.14999}
  external_ids: {bmlt: '3:2471'}
  sources:
  - bmlt/aggregator
  verified: {'on': '2026-07-19', method: api}
- id: ny/syracuse/women-keep-it-real
  name: Women Keep It Real
  program: na
  categories:
  - recovery-meeting
  schedule:
  - {day: thu, time: '17:30', duration_min: 90}
  format: in-person
  types:
  - o
  - w
  - wc
  venue_name: Grace Episcopal Church
  venue: {street: 819 Madison St, city: Syracuse, state: ny, zip: '13210'}
  place: '3673000'
  geo: {lat: 43.04558, lng: -76.13494}
  external_ids: {bmlt: '3:2470'}
  sources:
  - bmlt/aggregator
  verified: {'on': '2026-07-19', method: api}
- id: ny/syracuse/women-of-gratitude
  name: Women of Gratitude
  program: na
  categories:
  - recovery-meeting
  schedule:
  - {day: wed, time: '18:00', duration_min: 90}
  format: in-person
  types:
  - o
  - w
  - ns
  venue_name: Devin's Recroom
  venue: {street: 511 Butternut Street, city: Syracuse, state: ny, zip: '13208'}
  place: '3673000'
  geo: {lat: 43.05939, lng: -76.14843}
  external_ids: {bmlt: '3:3216'}
  sources:
  - bmlt/aggregator
  verified: {'on': '2026-07-19', method: api}
- id: ny/syracuse/write-on-recovery
  name: Write on Recovery
  program: na
  categories:
  - recovery-meeting
  schedule:
  - {day: mon, time: '19:00', duration_min: 60}
  format: in-person
  types:
  - st
  - wc
  venue_name: Robinson Memorial Church
  venue: {street: 126 South Terry Road, city: Syracuse, state: ny, zip: '13219'}
  place: '3673000'
  geo: {lat: 43.04464, lng: -76.2208}
  external_ids: {bmlt: '3:2905'}
  sources:
  - bmlt/aggregator
  verified: {'on': '2026-07-19', method: api}
