- id: ok/altus/altus-child-development-lincoln-head-start
  name: Altus Child Development/Lincoln Head Start
  categories:
  - child-care
  address:
    street: 900 S Carver Rd
    city: Altus
    state: ok
    zip: '73521'
  place: '4001700'
  geo:
    lat: 34.62965
    lng: -99.35083
  phone: 580-482-3080
  sources:
  - acf/head-start-locations
  verified:
    'on': '2026-07-19'
    method: api
- id: ok/altus/altus-intermediate-school-145
  name: Altus Intermediate School(145)
  categories:
  - meal-program
  address:
    street: 1221 N. Howse
    city: Altus
    state: ok
    zip: '73521'
  description: Free summer meals for kids and teens (2026 season) — sponsored by ALTUS PUBLIC SCHOOLS.
  place: '4001700'
  geo:
    lat: 34.64957
    lng: -99.32487
  phone: (580) 481-3092
  external_ids:
    usda_master: Cycle 04_OK_SFSP_0096
  sources:
  - usda/summer-meal-sites
  verified:
    'on': '2026-07-19'
    method: api
- id: ok/altus/altus-va-clinic
  name: Altus VA Clinic
  categories:
  - va-facility
  - health
  description: Primary Care CBOC
  address: {street: 1604 North Main, city: Altus, state: ok, zip: '73521'}
  place: '4001700'
  geo: {lat: 34.65487, lng: -99.33398}
  phone: 580-482-0721
  website: https://www.va.gov/oklahoma-city-health-care/locations/altus-va-clinic/
  hours:
  - {days: [mon, tue, wed, thu, fri], open: '08:00', close: '16:30'}
  external_ids: {va: vha_635GF}
  sources:
  - va/facilities-api
  verified: {'on': '2026-07-19', method: api}
- id: ok/altus/jim-taliaferro-cmhc-altus-satellite
  name: Jim Taliaferro CMHC Altus Satellite
  categories:
  - su-treatment
  - mh-treatment
  address:
    street: 215 West Commerce Street
    city: Altus
    state: ok
    zip: '73522'
  place: '4001700'
  geo:
    lat: 34.63916
    lng: -99.33605
  phone: 580-480-0650
  website: https://ok.gov/odmhsas
  sources:
  - samhsa/findtreatment
  verified:
    'on': '2026-07-19'
    method: api
- id: ok/altus/june-bailey-head-start
  name: June Bailey Head Start
  categories:
  - child-care
  address:
    street: 201 S Lee St
    city: Altus
    state: ok
    zip: '73521'
  place: '4001700'
  geo:
    lat: 34.63674
    lng: -99.33659
  phone: 580-477-7739
  sources:
  - acf/head-start-locations
  verified:
    'on': '2026-07-19'
    method: api
- id: ok/altus/shortgrass-community-health-center-altus
  name: Shortgrass Community Health Center Altus
  categories:
  - community-health-center
  address:
    street: 101 S Hudson St
    city: Altus
    state: ok
    zip: '73521'
  place: '4001700'
  geo:
    lat: 34.63749
    lng: -99.33565
  phone: 580-688-2800
  external_ids:
    bphc: BPS-H80-038388
  sources:
  - hrsa/health-center-sites
  verified:
    'on': '2026-07-19'
    method: api
- id: ok/altus/wilson-head-start
  name: Wilson Head Start
  categories:
  - child-care
  address:
    street: 905 N Willard St
    city: Altus
    state: ok
    zip: '73521'
  place: '4001700'
  geo:
    lat: 34.64651
    lng: -99.3379
  phone: 580-480-1155
  sources:
  - acf/head-start-locations
  verified:
    'on': '2026-07-19'
    method: api
