- id: ok/henryetta/calvary-baptist-church-noncongregate-n150
  name: Calvary Baptist Church Noncongregate(N150)
  categories:
  - meal-program
  address: {street: 112 W Gentry, city: Henryetta, state: ok, zip: '74437'}
  description: Free summer meals for kids and teens (2026 season) — sponsored by COMMUNITY FOOD BANK OF
    EASTERN OKLAHOMA.
  place: '4033750'
  geo: {lat: 35.443, lng: -95.98219}
  phone: (918) 319-9808
  external_ids: {usda_master: Cycle 06_OK_SFSP_0486}
  sources:
  - usda/summer-meal-sites
  verified: {'on': '2026-07-19', method: api}
- id: ok/henryetta/east-central-oklahoma-family-health-center-inc
  name: East Central Oklahoma Family Health Center, Inc.
  categories:
  - community-health-center
  cost: sliding-scale
  address: {street: 1102 W Main St, city: Henryetta, state: ok, zip: '74437'}
  place: '4033750'
  geo: {lat: 35.43978, lng: -95.99496}
  phone: 918-652-0842
  website: https://www.ecohc.org
  external_ids: {bphc: BPS-H80-011618}
  sources:
  - hrsa/health-center-sites
  verified: {'on': '2026-07-19', method: api}
- id: ok/henryetta/east-central-oklahoma-family-health-center-inc-2
  name: East Central Oklahoma Family Health Center, Inc.
  categories:
  - community-health-center
  cost: sliding-scale
  address: {street: E Shurden Industrial Blvd, city: Henryetta, state: ok, zip: '74437'}
  place: '4033750'
  geo: {lat: 35.46202, lng: -95.95761}
  phone: 405-452-3151
  website: https://www.ecofhc.org
  external_ids: {bphc: BPS-H80-017930}
  sources:
  - hrsa/health-center-sites
  verified: {'on': '2026-07-19', method: api}
- id: ok/henryetta/henryetta-church-of-christ
  name: Henryetta Church of Christ
  org: ok/food-bank-of-eastern-oklahoma
  categories:
  - food-pantry
  address: {street: 413 W. Broadway, city: Henryetta, state: ok, zip: '74437'}
  place: '4033750'
  geo: {lat: 35.43851, lng: -95.98656}
  external_ids: {ok-food-bank-of-eastern-oklahoma: '6461'}
  sources:
  - foodbank/ok-food-bank-of-eastern-oklahoma
  verified: {'on': '2026-07-21', method: api}
- id: ok/henryetta/henryetta-head-start
  name: Henryetta Head Start
  categories:
  - child-care
  address: {street: 100 W Clegern St, city: Henryetta, state: ok, zip: '74437'}
  description: Head Start early childhood program — 17 funded slots; operated by United Community Action
    Program, Inc..
  place: '4033750'
  geo: {lat: 35.42664, lng: -95.98254}
  phone: 918-652-8092
  sources:
  - acf/head-start-locations
  verified: {'on': '2026-07-19', method: api}
- id: ok/henryetta/housing-authority-of-the-city-of-henryetta
  name: Housing Authority Of The City Of Henryetta
  categories:
  - housing-assistance
  address: {street: 1708 W Ragan St, city: Henryetta, state: ok, zip: '74437'}
  description: Public housing and Housing Choice Voucher agency
  place: '4033750'
  geo: {lat: 35.43682, lng: -96.00328}
  phone: 918-652-9651
  sources:
  - hud/resource-locator
  verified: {'on': '2026-07-19', method: api}
