- id: ok/owasso/ator-es-110
  name: Ator Es(110)
  categories:
  - meal-program
  address: {street: 1500 N Ash, city: Owasso, state: ok, zip: '74055'}
  description: Free summer meals for kids and teens (2026 season) — sponsored by OWASSO.
  place: '4056650'
  geo: {lat: 36.28154, lng: -95.85386}
  phone: (918) 269-6505
  external_ids: {usda_master: Cycle 04_OK_SFSP_0459}
  sources:
  - usda/summer-meal-sites
  verified: {'on': '2026-07-19', method: api}
- id: ok/owasso/hs-track-field-n2
  name: Hs Track Field(N2)
  categories:
  - meal-program
  address: {street: 12901 E 86Th N, city: Owasso, state: ok, zip: '74055'}
  description: Free summer meals for kids and teens (2026 season) — sponsored by OWASSO.
  place: '4056650'
  geo: {lat: 36.27858, lng: -95.8283}
  phone: (918) 850-2797
  external_ids: {usda_master: Cycle 04_OK_SFSP_0462}
  sources:
  - usda/summer-meal-sites
  verified: {'on': '2026-07-19', method: api}
- id: ok/owasso/neighbors-in-need
  name: Neighbors in Need
  org: ok/food-bank-of-eastern-oklahoma
  categories:
  - food-pantry
  address: {street: 708 N. Main, city: Owasso, state: ok, zip: '74055'}
  place: '4056650'
  geo: {lat: 36.27454, lng: -95.85528}
  external_ids: {ok-food-bank-of-eastern-oklahoma: '6507'}
  sources:
  - foodbank/ok-food-bank-of-eastern-oklahoma
  verified: {'on': '2026-07-21', method: api}
- id: ok/owasso/owasso-community-resources
  name: Owasso Community Resources
  org: ok/food-bank-of-eastern-oklahoma
  categories:
  - food-pantry
  address: {street: '109 N. Birch, Suite 109', city: Owasso, state: ok, zip: '74055'}
  place: '4056650'
  geo: {lat: 36.2679, lng: -95.85283}
  external_ids: {ok-food-bank-of-eastern-oklahoma: '6517'}
  sources:
  - foodbank/ok-food-bank-of-eastern-oklahoma
  verified: {'on': '2026-07-21', method: api}
- id: ok/owasso/owasso-hs-715
  name: Owasso Hs(715)
  categories:
  - meal-program
  address: {street: 12901 E 86Th N, city: Owasso, state: ok, zip: '74055'}
  description: Free summer meals for kids and teens (2026 season) — sponsored by OWASSO.
  place: '4056650'
  geo: {lat: 36.27858, lng: -95.8283}
  phone: (918) 272-8886
  external_ids: {usda_master: Cycle 04_OK_SFSP_0460}
  sources:
  - usda/summer-meal-sites
  verified: {'on': '2026-07-19', method: api}
- id: ok/owasso/owasso-ymca-n115
  name: Owasso Ymca(N115)
  categories:
  - meal-program
  address: {street: 8300 N Owasso Expressway, city: Owasso, state: ok, zip: '74055'}
  description: Free summer meals for kids and teens (2026 season) — sponsored by COMMUNITY FOOD BANK OF
    EASTERN OKLAHOMA.
  place: '4056650'
  geo: {lat: 36.27339, lng: -95.8477}
  phone: (918) 272-9622
  external_ids: {usda_master: Cycle 04_OK_SFSP_0468}
  sources:
  - usda/summer-meal-sites
  verified: {'on': '2026-07-19', method: api}
- id: ok/owasso/tcchd-owasso-wic-clinic
  name: TCCHD - Owasso WIC Clinic
  categories:
  - food
  - family-support
  description: 'WIC clinic — Special Supplemental Nutrition Program for Women, Infants, and Children:
    healthy food benefits, nutrition counseling, and breastfeeding support for pregnant and postpartum
    parents and children under 5.'
  address: {street: '8361 N Owasso Expy, Ste C', city: Owasso, state: ok, zip: '74055'}
  geo: {lat: 36.27517, lng: -95.84695}
  place: '4056650'
  phone: 918-582-9355
  external_ids: {wic: 'ok-osdh:104'}
  sources:
  - wic/ok-osdh
  verified: {'on': '2026-07-20', method: api}
- id: ok/owasso/the-mission-center
  name: The Mission Center
  org: ok/food-bank-of-eastern-oklahoma
  categories:
  - food-pantry
  address: {street: 11341 N. Garnett Rd., city: Owasso, state: ok, zip: '74055'}
  place: '4056650'
  geo: {lat: 36.31936, lng: -95.84693}
  external_ids: {ok-food-bank-of-eastern-oklahoma: '6551'}
  sources:
  - foodbank/ok-food-bank-of-eastern-oklahoma
  verified: {'on': '2026-07-21', method: api}
