- id: ok/stigler/carl-albert-community-mental-health-center
  name: Carl Albert Community Mental Health Center
  categories:
  - su-treatment
  - mh-treatment
  address:
    street: 1407 NE D Street
    city: Stigler
    state: ok
    zip: '74462'
  place: '4070250'
  geo:
    lat: 35.2585
    lng: -95.10978
  phone: 918-967-8491
  website: https://oklahoma.gov/odmhsas.html
  sources:
  - samhsa/findtreatment
  verified:
    'on': '2026-07-19'
    method: api
- id: ok/stigler/housing-authority-of-the-city-of-stigler
  name: Housing Authority Of The City Of Stigler
  categories:
  - housing-assistance
  address:
    street: 200 SE B St
    city: Stigler
    state: ok
    zip: '74462'
  description: Public housing (Low-Rent) agency
  place: '4070250'
  geo:
    lat: 35.25178
    lng: -95.12499
  phone: 918-967-2631
  sources:
  - hud/resource-locator
  verified:
    'on': '2026-07-19'
    method: api
- id: ok/stigler/hwc-adventure-head-start-stigler
  name: HWC-Adventure Head Start Stigler
  categories:
  - community-health-center
  address:
    street: 1505 E Main St, Unit B
    city: Stigler
    state: ok
    zip: '74462'
  place: '4070250'
  geo:
    lat: 35.25809
    lng: -95.10739
  phone: 800-640-9741
  external_ids:
    bphc: BPS-H80-041420
  sources:
  - hrsa/health-center-sites
  verified:
    'on': '2026-07-19'
    method: api
- id: ok/stigler/hwc-adventure-head-start-stigler-2
  name: HWC Adventure Head Start - Stigler
  categories:
  - child-care
  address:
    street: 1302 E Central Ave
    city: Stigler
    state: ok
    zip: '74462'
  place: '4070250'
  geo:
    lat: 35.24649
    lng: -95.11017
  sources:
  - acf/head-start-locations
  verified:
    'on': '2026-07-19'
    method: api
- id: ok/stigler/hwc-stigler
  name: HWC - Stigler
  categories:
  - community-health-center
  address:
    street: 1505 E Main St
    city: Stigler
    state: ok
    zip: '74462'
  place: '4070250'
  geo:
    lat: 35.25809
    lng: -95.10742
  phone: 918-967-3368
  external_ids:
    bphc: BPS-H80-029819
  sources:
  - hrsa/health-center-sites
  verified:
    'on': '2026-07-19'
    method: api
- id: ok/stigler/stigler-community-center-noncongregate-n32
  name: Stigler Community Center Noncongregate(N32)
  categories:
  - meal-program
  address:
    street: 2208 E Main St
    city: Stigler
    state: ok
    zip: '74462'
  description: Free summer meals for kids and teens (2026 season) — sponsored by CHOCTAW NATION OF OKLAHOMA.
  place: '4070250'
  geo:
    lat: 35.26072
    lng: -95.09236
  phone: (580) 740-1497
  external_ids:
    usda_master: Cycle 04_OK_SFSP_0018
  sources:
  - usda/summer-meal-sites
  verified:
    'on': '2026-07-19'
    method: api
- id: ok/stigler/stigler-es-105
  name: Stigler Es(105)
  categories:
  - meal-program
  address:
    street: 302 Ne 5Th
    city: Stigler
    state: ok
    zip: '74462'
  description: Free summer meals for kids and teens (2026 season) — sponsored by STIGLER.
  place: '4070250'
  geo:
    lat: 35.25518
    lng: -95.12038
  phone: (918) 967-8835
  external_ids:
    usda_master: Cycle 04_OK_SFSP_0085
  sources:
  - usda/summer-meal-sites
  verified:
    'on': '2026-07-19'
    method: api
- id: ok/stigler/stigler-head-start
  name: Stigler Head Start
  categories:
  - child-care
  address:
    street: 208 S City Lake Rd
    city: Stigler
    state: ok
    zip: '74462'
  place: '4070250'
  geo:
    lat: 35.25527
    lng: -95.09733
  phone: 918-967-2897
  sources:
  - acf/head-start-locations
  verified:
    'on': '2026-07-19'
    method: api
- id: ok/stigler/stigler-health-and-wellness-center
  name: Stigler Health and Wellness Center
  categories:
  - su-treatment
  - mh-treatment
  address:
    street: 1505 East Main Street
    city: Stigler
    state: ok
    zip: '74462'
  place: '4070250'
  geo:
    lat: 35.25812
    lng: -95.10743
  phone: 918-967-3368
  website: https://www.healthwellnessok.com
  sources:
  - samhsa/findtreatment
  verified:
    'on': '2026-07-19'
    method: api
- id: ok/stigler/stigler-health-wellness-center-noncongregate-n19
  name: Stigler Health & Wellness Center Noncongregate(N193)
  categories:
  - meal-program
  address:
    street: 1505 E Main St
    city: Stigler
    state: ok
    zip: '74462'
  description: Free summer meals for kids and teens (2026 season) — sponsored by COMMUNITY FOOD BANK OF
    EASTERN OKLAHOMA.
  place: '4070250'
  geo:
    lat: 35.25695
    lng: -95.10651
  phone: (800) 640-9741
  external_ids:
    usda_master: Cycle 06_OK_SFSP_0519
  sources:
  - usda/summer-meal-sites
  verified:
    'on': '2026-07-19'
    method: api
- id: ok/stigler/stigler-hs-705
  name: Stigler Hs(705)
  categories:
  - meal-program
  address:
    street: 1111 North West 7Th
    city: Stigler
    state: ok
    zip: '74462'
  description: Free summer meals for kids and teens (2026 season) — sponsored by STIGLER.
  place: '4070250'
  geo:
    lat: 35.26406
    lng: -95.13255
  phone: (918) 967-8835
  external_ids:
    usda_master: Cycle 04_OK_SFSP_0087
  sources:
  - usda/summer-meal-sites
  verified:
    'on': '2026-07-19'
    method: api
- id: ok/stigler/stigler-ms-505
  name: Stigler Ms(505)
  categories:
  - meal-program
  address:
    street: 1001 Nw 7Th Street
    city: Stigler
    state: ok
    zip: '74462'
  description: Free summer meals for kids and teens (2026 season) — sponsored by STIGLER.
  place: '4070250'
  geo:
    lat: 35.26242
    lng: -95.13251
  phone: (918) 967-8835
  external_ids:
    usda_master: Cycle 04_OK_SFSP_0086
  sources:
  - usda/summer-meal-sites
  verified:
    'on': '2026-07-19'
    method: api
