- id: ok/stigler/carl-albert-community-mental-health-center
  name: Carl Albert Community Mental Health Center
  categories:
  - su-treatment
  - mh-treatment
  address:
    street: 1407 NE D Street
    city: Stigler
    state: ok
    zip: '74462'
  place: '4070250'
  geo:
    lat: 35.2585
    lng: -95.10978
  phone: 918-967-8491
  website: https://oklahoma.gov/odmhsas.html
  sources:
  - samhsa/findtreatment
  verified:
    'on': '2026-07-19'
    method: api
- id: ok/stigler/housing-authority-of-the-city-of-stigler
  name: Housing Authority Of The City Of Stigler
  categories:
  - housing-assistance
  address: {street: 200 SE B St, city: Stigler, state: ok, zip: '74462'}
  description: Public housing (Low-Rent) agency
  place: '4070250'
  geo: {lat: 35.25178, lng: -95.12499}
  phone: 918-967-2631
  sources:
  - hud/resource-locator
  verified: {'on': '2026-07-19', method: api}
- id: ok/stigler/hwc-adventure-head-start-stigler
  name: HWC-Adventure Head Start Stigler
  categories:
  - community-health-center
  address:
    street: 1505 E Main St, Unit B
    city: Stigler
    state: ok
    zip: '74462'
  place: '4070250'
  geo:
    lat: 35.25809
    lng: -95.10739
  phone: 800-640-9741
  external_ids:
    bphc: BPS-H80-041420
  sources:
  - hrsa/health-center-sites
  verified:
    'on': '2026-07-19'
    method: api
- id: ok/stigler/hwc-adventure-head-start-stigler-2
  name: HWC Adventure Head Start - Stigler
  categories:
  - child-care
  address:
    street: 1302 E Central Ave
    city: Stigler
    state: ok
    zip: '74462'
  place: '4070250'
  geo:
    lat: 35.24649
    lng: -95.11017
  sources:
  - acf/head-start-locations
  verified:
    'on': '2026-07-19'
    method: api
- id: ok/stigler/hwc-stigler
  name: HWC - Stigler
  categories:
  - community-health-center
  address:
    street: 1505 E Main St
    city: Stigler
    state: ok
    zip: '74462'
  place: '4070250'
  geo:
    lat: 35.25809
    lng: -95.10742
  phone: 918-967-3368
  external_ids:
    bphc: BPS-H80-029819
  sources:
  - hrsa/health-center-sites
  verified:
    'on': '2026-07-19'
    method: api
- id: ok/stigler/stigler-head-start
  name: Stigler Head Start
  categories:
  - child-care
  address:
    street: 208 S City Lake Rd
    city: Stigler
    state: ok
    zip: '74462'
  place: '4070250'
  geo:
    lat: 35.25527
    lng: -95.09733
  phone: 918-967-2897
  sources:
  - acf/head-start-locations
  verified:
    'on': '2026-07-19'
    method: api
- id: ok/stigler/stigler-health-and-wellness-center
  name: Stigler Health and Wellness Center
  categories:
  - su-treatment
  - mh-treatment
  address:
    street: 1505 East Main Street
    city: Stigler
    state: ok
    zip: '74462'
  place: '4070250'
  geo:
    lat: 35.25812
    lng: -95.10743
  phone: 918-967-3368
  website: https://www.healthwellnessok.com
  sources:
  - samhsa/findtreatment
  verified:
    'on': '2026-07-19'
    method: api
