- id: ok/tulsa/advance-start-learning-center
  name: Advance Start Learning Center
  categories:
  - child-care
  address:
    street: 533 E 36th St N
    city: Tulsa
    state: ok
    zip: '74106'
  place: '4075000'
  geo:
    lat: 36.20685
    lng: -95.98733
  phone: 918-231-0947
  sources:
  - acf/head-start-locations
  verified:
    'on': '2026-07-19'
    method: api
- id: ok/tulsa/briarglen
  name: Briarglen
  categories:
  - child-care
  address:
    street: 3303 S 121st East Ave
    city: Tulsa
    state: ok
    zip: '74146'
  place: '4075000'
  geo:
    lat: 36.11448
    lng: -95.84099
  phone: 918-938-6600
  sources:
  - acf/head-start-locations
  verified:
    'on': '2026-07-19'
    method: api
- id: ok/tulsa/calm-center
  name: Calm Center
  categories:
  - su-treatment
  - mh-treatment
  address:
    street: 6126 East 32nd Place
    city: Tulsa
    state: ok
    zip: '74135'
  place: '4075000'
  geo:
    lat: 36.1159
    lng: -95.90668
  phone: 918-394-2256
  website: https://www.crsok.org
  sources:
  - samhsa/findtreatment
  verified:
    'on': '2026-07-19'
    method: api
- id: ok/tulsa/community-health-connection-inc-ellen-ochoa
  name: Community Health Connection, Inc. - Ellen Ochoa
  categories:
  - community-health-center
  address:
    street: 12020 E 31st St
    city: Tulsa
    state: ok
    zip: '74146'
  place: '4075000'
  geo:
    lat: 36.11891
    lng: -95.84257
  phone: 918-622-0641
  website: https://www.communityhealthconnection.org
  external_ids:
    bphc: BPS-H80-030544
  sources:
  - hrsa/health-center-sites
  verified:
    'on': '2026-07-19'
    method: api
- id: ok/tulsa/community-health-connection-rosa-parks-clinic
  name: Community Health Connection Rosa Parks Clinic
  categories:
  - community-health-center
  address:
    street: 13702 E 46th Pl
    city: Tulsa
    state: ok
    zip: '74134'
  place: '4075000'
  geo:
    lat: 36.09625
    lng: -95.82249
  phone: 918-622-0641
  website: https://www.communityhealthconnection.org
  external_ids:
    bphc: BPS-H80-028077
  sources:
  - hrsa/health-center-sites
  verified:
    'on': '2026-07-19'
    method: api
- id: ok/tulsa/counseling-and-recovery-services-of-ok
  name: Counseling and Recovery Services of OK
  categories:
  - su-treatment
  - mh-treatment
  address:
    street: 1323 East 71st Street
    city: Tulsa
    state: ok
    zip: '74136'
  place: '4075000'
  geo:
    lat: 36.06241
    lng: -95.97405
  phone: 918-492-2554
  website: https://www.crsok.org
  sources:
  - samhsa/findtreatment
  verified:
    'on': '2026-07-19'
    method: api
- id: ok/tulsa/crossover-health-services-at-36th-street
  name: Crossover Health Services at 36th Street
  categories:
  - community-health-center
  address:
    street: 940 E 36th St N
    city: Tulsa
    state: ok
    zip: '74106'
  place: '4075000'
  geo:
    lat: 36.20555
    lng: -95.97911
  phone: 918-398-9460
  website: https://crossoverhealthservices.org
  external_ids:
    bphc: BPS-LAL-039404
  sources:
  - hrsa/health-center-sites
  verified:
    'on': '2026-07-19'
    method: api
- id: ok/tulsa/crossover-health-services-at-56th-street
  name: Crossover Health Services at 56th Street
  categories:
  - community-health-center
  address:
    street: 5635 N Martin Luther King Jr Blvd
    city: Tulsa
    state: ok
    zip: '74126'
  place: '4075000'
  geo:
    lat: 36.23637
    lng: -95.99201
  phone: 918-398-9460
  website: https://crossoverhealthservices.org
  external_ids:
    bphc: BPS-LAL-039403
  sources:
  - hrsa/health-center-sites
  verified:
    'on': '2026-07-19'
    method: api
- id: ok/tulsa/disney
  name: Disney
  categories:
  - child-care
  address:
    street: 11610 E 25th St
    city: Tulsa
    state: ok
    zip: '74129'
  place: '4075000'
  geo:
    lat: 36.12753
    lng: -95.84657
  phone: 918-439-9608
  sources:
  - acf/head-start-locations
  verified:
    'on': '2026-07-19'
    method: api
- id: ok/tulsa/ecdc-reed
  name: ECDC Reed
  categories:
  - child-care
  address:
    street: 10908 E 5th St
    city: Tulsa
    state: ok
    zip: '74128'
  place: '4075000'
  geo:
    lat: 36.1538
    lng: -95.8546
  phone: 918-935-3101
  sources:
  - acf/head-start-locations
  verified:
    'on': '2026-07-19'
    method: api
- id: ok/tulsa/educare-i-kendall-whittier
  name: Educare I-Kendall Whittier
  categories:
  - child-care
  address:
    street: 2511 E 5th Pl
    city: Tulsa
    state: ok
    zip: '74104'
  place: '4075000'
  geo:
    lat: 36.15301
    lng: -95.95545
  phone: 918-779-6233
  sources:
  - acf/head-start-locations
  verified:
    'on': '2026-07-19'
    method: api
- id: ok/tulsa/eugene-field
  name: Eugene Field
  categories:
  - child-care
  address:
    street: 1120 W 22nd St
    city: Tulsa
    state: ok
    zip: '74107'
  place: '4075000'
  geo:
    lat: 36.13163
    lng: -96.00479
  phone: 918-340-5600
  sources:
  - acf/head-start-locations
  verified:
    'on': '2026-07-19'
    method: api
- id: ok/tulsa/family-and-childrens-services-apache-office
  name: Family and Childrens Services Apache Office
  categories:
  - su-treatment
  - mh-treatment
  address:
    street: 240 East Apache
    city: Tulsa
    state: ok
    zip: '74106'
  place: '4075000'
  geo:
    lat: 36.19087
    lng: -95.9919
  phone: 918-587-9471
  website: https://www.fcsok.org
  sources:
  - samhsa/findtreatment
  verified:
    'on': '2026-07-19'
    method: api
- id: ok/tulsa/family-and-childrens-services-crisiscare-center
  name: Family and Childrens Services CrisisCare Center
  categories:
  - su-treatment
  - mh-treatment
  address:
    street: 1055 South Houston Avenue
    city: Tulsa
    state: ok
    zip: '74127'
  place: '4075000'
  geo:
    lat: 36.14663
    lng: -95.99726
  phone: 918-587-9471
  website: https://www.fcsok.org
  sources:
  - samhsa/findtreatment
  verified:
    'on': '2026-07-19'
    method: api
- id: ok/tulsa/family-and-childrens-services-east-tulsa-office
  name: Family and Childrens Services East Tulsa Office
  categories:
  - su-treatment
  - mh-treatment
  address:
    street: 12710 East 48 Street South
    city: Tulsa
    state: ok
    zip: '74146'
  place: '4075000'
  geo:
    lat: 36.09461
    lng: -95.78813
  phone: 918-587-9471
  website: https://www.fcsok.org
  sources:
  - samhsa/findtreatment
  verified:
    'on': '2026-07-19'
    method: api
- id: ok/tulsa/family-and-childrens-services-osage-hills-office
  name: Family and Childrens Services Osage Hills Office
  categories:
  - su-treatment
  - mh-treatment
  address:
    street: 1 West 36th Street North
    city: Tulsa
    state: ok
    zip: '74106'
  place: '4075000'
  geo:
    lat: 36.20662
    lng: -95.99586
  phone: 918-587-9471
  website: https://www.fcsok.org
  sources:
  - samhsa/findtreatment
  verified:
    'on': '2026-07-19'
    method: api
- id: ok/tulsa/family-and-childrens-services-salvation-army-off
  name: Family and Childrens Services Salvation Army Office
  categories:
  - su-treatment
  - mh-treatment
  address:
    street: 102 North Denver Avenue
    city: Tulsa
    state: ok
    zip: '74103'
  place: '4075000'
  geo:
    lat: 36.15636
    lng: -95.99764
  phone: 918-587-9471
  website: https://www.fcsok.org
  sources:
  - samhsa/findtreatment
  verified:
    'on': '2026-07-19'
    method: api
- id: ok/tulsa/family-and-childrens-services-sarah-and-john-gra
  name: Family and Childrens Services Sarah and John Graves Center
  categories:
  - su-treatment
  - mh-treatment
  address:
    street: 2325 South Harvard Avenue
    city: Tulsa
    state: ok
    zip: '74114'
  place: '4075000'
  geo:
    lat: 36.12826
    lng: -95.93964
  phone: 918-587-9471
  website: https://www.fcsok.org
  sources:
  - samhsa/findtreatment
  verified:
    'on': '2026-07-19'
    method: api
- id: ok/tulsa/family-and-childrens-services-sheridan-office
  name: Family and Childrens Services Sheridan Office
  categories:
  - su-treatment
  - mh-treatment
  address:
    street: 2029 South Sheridan Road
    city: Tulsa
    state: ok
    zip: '74112'
  place: '4075000'
  geo:
    lat: 36.13464
    lng: -95.90265
  phone: 918-587-9471
  website: https://www.fcsok.org
  sources:
  - samhsa/findtreatment
  verified:
    'on': '2026-07-19'
    method: api
- id: ok/tulsa/frost
  name: Frost
  categories:
  - child-care
  address:
    street: 203 W 28th St N
    city: Tulsa
    state: ok
    zip: '74106'
  place: '4075000'
  geo:
    lat: 36.19509
    lng: -95.99822
  phone: 918-556-0319
  sources:
  - acf/head-start-locations
  verified:
    'on': '2026-07-19'
    method: api
- id: ok/tulsa/grand-lake-mental-health-center-tulsa-county-off
  name: Grand Lake Mental Health Center Tulsa County Office
  categories:
  - su-treatment
  - mh-treatment
  address:
    street: 6128 East 38th Street
    city: Tulsa
    state: ok
    zip: '74135'
  place: '4075000'
  geo:
    lat: 36.10852
    lng: -95.90831
  phone: 844-458-2100
  website: https://www.grandmh.com
  sources:
  - samhsa/findtreatment
  verified:
    'on': '2026-07-19'
    method: api
- id: ok/tulsa/housing-authority-of-the-city-of-tulsa
  name: Housing Authority Of The City Of Tulsa
  categories:
  - housing-assistance
  address: {street: 415 E Independence St, city: Tulsa, state: ok, zip: '74106'}
  description: Public housing and Housing Choice Voucher agency
  place: '4075000'
  geo: {lat: 36.16622, lng: -95.99115}
  phone: 918-582-0021
  sources:
  - hud/resource-locator
  verified: {'on': '2026-07-19', method: api}
- id: ok/tulsa/human-skills-and-resources-inc
  name: Human Skills and Resources Inc
  categories:
  - su-treatment
  - mh-treatment
  address:
    street: 2140 South Harvard Avenue
    city: Tulsa
    state: ok
    zip: '74114'
  place: '4075000'
  geo:
    lat: 36.13169
    lng: -95.9407
  phone: 918-747-6377
  website: https://www.humanskills.org
  sources:
  - samhsa/findtreatment
  verified:
    'on': '2026-07-19'
    method: api
- id: ok/tulsa/hwc-provider-tulsa
  name: HWC Provider + Tulsa
  categories:
  - community-health-center
  address:
    street: 7485 E 46th Pl STE B
    city: Tulsa
    state: ok
    zip: '74145'
  place: '4075000'
  geo:
    lat: 36.09649
    lng: -95.89155
  phone: 539-200-0415
  external_ids:
    bphc: BPS-H80-038110
  sources:
  - hrsa/health-center-sites
  verified:
    'on': '2026-07-19'
    method: api
- id: ok/tulsa/k-w-clinical-construction-project
  name: K-W- Clinical Construction Project
  categories:
  - community-health-center
  address:
    street: 2321 E 3rd St
    city: Tulsa
    state: ok
    zip: '74104'
  place: '4075000'
  geo:
    lat: 36.1569
    lng: -95.95887
  phone: 918-622-0641
  website: https://www.communityhealthconnection.org
  external_ids:
    bphc: BPS-H80-010128
  sources:
  - hrsa/health-center-sites
  verified:
    'on': '2026-07-19'
    method: api
- id: ok/tulsa/keetoowah-cherokee-trt-servs
  name: Keetoowah Cherokee Trt Servs
  categories:
  - su-treatment
  address:
    street: 2727 East Admiral Place
    city: Tulsa
    state: ok
    zip: '74110'
  place: '4075000'
  geo:
    lat: 36.16111
    lng: -95.95045
  phone: 918-301-1500
  website: https://www.echotabehavioralhealth.com
  sources:
  - samhsa/findtreatment
  verified:
    'on': '2026-07-19'
    method: api
- id: ok/tulsa/mcclure
  name: McClure
  categories:
  - child-care
  address:
    street: 6150 S Yorktown Ave
    city: Tulsa
    state: ok
    zip: '74136'
  place: '4075000'
  geo:
    lat: 36.07449
    lng: -95.96292
  phone: 918-747-7123
  sources:
  - acf/head-start-locations
  verified:
    'on': '2026-07-19'
    method: api
- id: ok/tulsa/morton-comprehensive-health-center
  name: Morton Comprehensive Health Center
  categories:
  - community-health-center
  address:
    street: 1334 N Lansing Ave
    city: Tulsa
    state: ok
    zip: '74106'
  place: '4075000'
  geo:
    lat: 36.17451
    lng: -95.98158
  phone: 918-587-2171
  website: https://www.mortonhealth.org
  external_ids:
    bphc: BPS-H80-005523
  sources:
  - hrsa/health-center-sites
  verified:
    'on': '2026-07-19'
    method: api
- id: ok/tulsa/morton-comprehensive-health-services-at-f-cs-apa
  name: Morton Comprehensive Health Services at F&CS Apache
  categories:
  - community-health-center
  address:
    street: 240 E Apache St
    city: Tulsa
    state: ok
    zip: '74106'
  place: '4075000'
  geo:
    lat: 36.19086
    lng: -95.99189
  phone: 918-587-2171
  external_ids:
    bphc: BPS-H80-040150
  sources:
  - hrsa/health-center-sites
  verified:
    'on': '2026-07-19'
    method: api
- id: ok/tulsa/morton-east-health-center
  name: Morton East Health Center
  categories:
  - community-health-center
  address:
    street: 11511 E 21st St
    city: Tulsa
    state: ok
    zip: '74129'
  place: '4075000'
  geo:
    lat: 36.13394
    lng: -95.84788
  phone: 918-439-4422
  website: https://www.mortonhealth.org
  external_ids:
    bphc: BPS-H80-009974
  sources:
  - hrsa/health-center-sites
  verified:
    'on': '2026-07-19'
    method: api
- id: ok/tulsa/morton-family-children-s-health-center
  name: Morton Family & Children's Health Center
  categories:
  - community-health-center
  address:
    street: 2325 S Harvard Ave
    city: Tulsa
    state: ok
    zip: '74114'
  place: '4075000'
  geo:
    lat: 36.1282
    lng: -95.9397
  phone: 918-295-6100
  external_ids:
    bphc: BPS-H80-010619
  sources:
  - hrsa/health-center-sites
  verified:
    'on': '2026-07-19'
    method: api
- id: ok/tulsa/morton-midtown-homeless-health-center
  name: Morton Midtown Homeless Health Center
  categories:
  - community-health-center
  address:
    street: 102 N Denver Ave
    city: Tulsa
    state: ok
    zip: '74103'
  place: '4075000'
  geo:
    lat: 36.15637
    lng: -95.99767
  phone: 918-295-6942
  website: https://www.mortonhealth.org
  external_ids:
    bphc: BPS-H80-004670
  sources:
  - hrsa/health-center-sites
  verified:
    'on': '2026-07-19'
    method: api
- id: ok/tulsa/morton-west-tulsa-health-center
  name: Morton West Tulsa Health Center
  categories:
  - community-health-center
  address:
    street: 6116 W 11th St
    city: Tulsa
    state: ok
    zip: '74127'
  place: '4075000'
  geo:
    lat: 36.14442
    lng: -96.06496
  phone: 918-587-2171
  external_ids:
    bphc: BPS-H80-017581
  sources:
  - hrsa/health-center-sites
  verified:
    'on': '2026-07-19'
    method: api
- id: ok/tulsa/nact-tisdale
  name: NACT Tisdale
  categories:
  - child-care
  address:
    street: 4132 W Cameron St
    city: Tulsa
    state: ok
    zip: '74127'
  place: '4075000'
  geo:
    lat: 36.15753
    lng: -96.03988
  phone: 918-833-8860
  sources:
  - acf/head-start-locations
  verified:
    'on': '2026-07-19'
    method: api
- id: ok/tulsa/nact-west-campus
  name: NACT West Campus
  categories:
  - child-care
  address:
    street: 1740 W 41st St
    city: Tulsa
    state: ok
    zip: '74107'
  place: '4075000'
  geo:
    lat: 36.1043
    lng: -96.01182
  phone: 918-446-7939
  sources:
  - acf/head-start-locations
  verified:
    'on': '2026-07-19'
    method: api
- id: ok/tulsa/oklahoma-treatment-services-llc
  name: Oklahoma Treatment Services LLC
  categories:
  - su-treatment
  address:
    street: 3445 South Sheridan Road East
    city: Tulsa
    state: ok
    zip: '74145'
  place: '4075000'
  geo:
    lat: 36.11334
    lng: -95.90317
  phone: 918-610-3366
  website: https://oktreatment.com
  sources:
  - samhsa/findtreatment
  verified:
    'on': '2026-07-19'
    method: api
- id: ok/tulsa/osu-addiction-recovery-clinic
  name: OSU Addiction Recovery Clinic
  categories:
  - su-treatment
  address:
    street: 5310 East 31st Street
    city: Tulsa
    state: ok
    zip: '74135'
  place: '4075000'
  geo:
    lat: 36.1182
    lng: -95.91679
  phone: 918-561-1890
  website: https://osumedicine.com/services/addiction-recovery-clinic/
  sources:
  - samhsa/findtreatment
  verified:
    'on': '2026-07-19'
    method: api
- id: ok/tulsa/osu-behavioral-medicine
  name: OSU Behavioral Medicine
  categories:
  - su-treatment
  - mh-treatment
  address:
    street: 5310 East 31st Street
    city: Tulsa
    state: ok
    zip: '74135'
  place: '4075000'
  geo:
    lat: 36.11817
    lng: -95.91679
  phone: 918-236-4000
  website: https://
  sources:
  - samhsa/findtreatment
  verified:
    'on': '2026-07-19'
    method: api
- id: ok/tulsa/our-giving-box
  name: Our Giving Box
  categories:
  - food-pantry
  place: '4075000'
  geo:
    lat: 36.11423
    lng: -95.92411
  external_ids:
    lfp: '1125'
  sources:
  - littlefreepantry/map
  verified:
    'on': '2026-07-19'
    method: scrape
- id: ok/tulsa/reed
  name: Reed
  categories:
  - child-care
  address:
    street: 10940 E 5th St
    city: Tulsa
    state: ok
    zip: '74128'
  place: '4075000'
  geo:
    lat: 36.15291
    lng: -95.85415
  phone: 918-437-1495
  sources:
  - acf/head-start-locations
  verified:
    'on': '2026-07-19'
    method: api
- id: ok/tulsa/resonance-center-for-women
  name: Resonance Center for Women
  categories:
  - su-treatment
  address:
    street: 1608 South Elwood Avenue
    city: Tulsa
    state: ok
    zip: '74119'
  place: '4075000'
  geo:
    lat: 36.13944
    lng: -95.99402
  phone: 918-587-3888
  website: https://www.resonancetulsa.org
  sources:
  - samhsa/findtreatment
  verified:
    'on': '2026-07-19'
    method: api
- id: ok/tulsa/rosa-parks-ecec
  name: Rosa Parks ECEC
  categories:
  - child-care
  address:
    street: 13804 E 46th Pl
    city: Tulsa
    state: ok
    zip: '74134'
  place: '4075000'
  geo:
    lat: 36.09624
    lng: -95.82234
  phone: 918-286-0660
  sources:
  - acf/head-start-locations
  verified:
    'on': '2026-07-19'
    method: api
- id: ok/tulsa/skelly
  name: Skelly
  categories:
  - child-care
  address:
    street: 8811 E 31st St
    city: Tulsa
    state: ok
    zip: '74145'
  place: '4075000'
  geo:
    lat: 36.11894
    lng: -95.87777
  phone: 918-949-3400
  sources:
  - acf/head-start-locations
  verified:
    'on': '2026-07-19'
    method: api
- id: ok/tulsa/tulsa
  name: Tulsa
  categories:
  - child-care
  address:
    street: 8601 S Union Ave
    city: Tulsa
    state: ok
    zip: '74132'
  place: '4075000'
  geo:
    lat: 36.03753
    lng: -96.01025
  phone: 918-296-0357
  sources:
  - acf/head-start-locations
  verified:
    'on': '2026-07-19'
    method: api
- id: ok/tulsa/tulsa-behavioral-medicine-clinic
  name: Tulsa Behavioral Medicine Clinic
  categories:
  - mh-treatment
  address:
    street: 10159 East 11th Street
    city: Tulsa
    state: ok
    zip: '74128'
  place: '4075000'
  geo:
    lat: 36.14922
    lng: -95.86215
  phone: 888-397-8387
  website: https://www.va.gov/eastern-oklahoma-health-care/locations/tulsa-eleventh-street-va-clinic/
  sources:
  - samhsa/findtreatment
  verified:
    'on': '2026-07-19'
    method: api
- id: ok/tulsa/tulsa-comprehensive-treatment-center-mission-tre
  name: Tulsa Comprehensive Treatment Center Mission Treatment Centers Inc
  categories:
  - su-treatment
  address:
    street: 5550 South Garnett Road
    city: Tulsa
    state: ok
    zip: '74146'
  place: '4075000'
  geo:
    lat: 36.08441
    lng: -95.85129
  phone: 918-665-2501
  website: https://www.ctcprograms.com/location/tulsa-comprehensive-treatment-center/
  sources:
  - samhsa/findtreatment
  verified:
    'on': '2026-07-19'
    method: api
- id: ok/tulsa/tulsa-educare-2-hawthorne
  name: Tulsa Educare 2 - Hawthorne
  categories:
  - child-care
  address:
    street: 3420 N Peoria Ave
    city: Tulsa
    state: ok
    zip: '74106'
  place: '4075000'
  geo:
    lat: 36.20415
    lng: -95.97674
  phone: 918-508-2250
  sources:
  - acf/head-start-locations
  verified:
    'on': '2026-07-19'
    method: api
- id: ok/tulsa/tulsa-educare-3-macarthur
  name: Tulsa Educare 3 - MacArthur
  categories:
  - child-care
  address:
    street: 2190 S 67th East Ave
    city: Tulsa
    state: ok
    zip: '74129'
  place: '4075000'
  geo:
    lat: 36.13025
    lng: -95.9016
  phone: 539-832-8200
  sources:
  - acf/head-start-locations
  verified:
    'on': '2026-07-19'
    method: api
- id: ok/tulsa/tulsa-educare-4-celia-clinton
  name: Tulsa Educare 4-Celia Clinton
  categories:
  - child-care
  address:
    street: 3110 East Seminole Street North
    city: Tulsa
    state: ok
    zip: '74110'
  place: '4075000'
  geo:
    lat: 36.18075
    lng: -95.94341
  phone: 918-960-2300
  sources:
  - acf/head-start-locations
  verified:
    'on': '2026-07-19'
    method: api
- id: ok/tulsa/tulsa-va-outpatient-clinic
  name: Tulsa VA Outpatient Clinic
  categories:
  - su-treatment
  - mh-treatment
  address:
    street: 8921 South Mingo Road
    city: Tulsa
    state: ok
    zip: '74133'
  place: '4075000'
  geo:
    lat: 36.03431
    lng: -95.8657
  phone: 888-397-8387
  website: https://
  sources:
  - samhsa/findtreatment
  verified:
    'on': '2026-07-19'
    method: api
- id: ok/tulsa/valley-hope-of-tulsa
  name: Valley Hope of Tulsa
  categories:
  - su-treatment
  address:
    street: 7718 East 91st Street
    city: Tulsa
    state: ok
    zip: '74133'
  place: '4075000'
  geo:
    lat: 36.0311
    lng: -95.89004
  phone: 785-877-5111
  website: https://valleyhope.org
  sources:
  - samhsa/findtreatment
  verified:
    'on': '2026-07-19'
    method: api
- id: ok/tulsa/womens-justice-center
  name: Womens Justice Center
  categories:
  - su-treatment
  - mh-treatment
  address:
    street: 808 South Peoria Avenue
    city: Tulsa
    state: ok
    zip: '74120'
  place: '4075000'
  geo:
    lat: 36.14994
    lng: -95.97591
  phone: 918-600-3841
  website: https://www.fcsok.org
  sources:
  - samhsa/findtreatment
  verified:
    'on': '2026-07-19'
    method: api
- id: ok/tulsa/youth-services-tulsa
  name: Youth Services Tulsa
  categories:
  - community-health-center
  address:
    street: 1001 E 3rd St
    city: Tulsa
    state: ok
    zip: '74120'
  place: '4075000'
  geo:
    lat: 36.15675
    lng: -95.9795
  phone: 918-622-0641
  external_ids:
    bphc: BPS-H80-038541
  sources:
  - hrsa/health-center-sites
  verified:
    'on': '2026-07-19'
    method: api
