- id: wy/gillette/campbell-county-health-behavioral-health-service
  name: Campbell County Health Behavioral Health Services/Outpatient
  categories:
  - su-treatment
  - mh-treatment
  address:
    street: 501 South Burma Avenue
    city: Gillette
    state: wy
    zip: '82716'
  place: '5631855'
  geo:
    lat: 44.29006
    lng: -105.51813
  phone: 307-688-5000 x5025
  website: https://www.cchwyo.org
  sources:
  - samhsa/findtreatment
  verified:
    'on': '2026-07-19'
    method: api
- id: wy/gillette/children-s-developmental-services-of-campbell-co
  name: Children's Developmental Services of Campbell County
  categories:
  - child-care
  address:
    street: 1801 S 4J Rd
    city: Gillette
    state: wy
    zip: '82718'
  place: '5631855'
  geo:
    lat: 44.27801
    lng: -105.5097
  phone: 307-682-2392
  sources:
  - acf/head-start-locations
  verified:
    'on': '2026-07-19'
    method: api
- id: wy/gillette/gillette-little-free-pantries
  name: Gillette Little Free Pantries
  categories:
  - food-pantry
  place: '5631855'
  geo:
    lat: 44.2906
    lng: -105.502
  external_ids:
    lfp: '531'
  sources:
  - littlefreepantry/map
  verified:
    'on': '2026-07-19'
    method: scrape
- id: wy/gillette/personal-frontiers-inc
  name: Personal Frontiers Inc
  categories:
  - su-treatment
  - mh-treatment
  address:
    street: 310 South Miller Avenue
    city: Gillette
    state: wy
    zip: '82716'
  place: '5631855'
  geo:
    lat: 44.29162
    lng: -105.49563
  phone: 307-686-1189
  website: https://www.personalfrontiers.org
  sources:
  - samhsa/findtreatment
  verified:
    'on': '2026-07-19'
    method: api
- id: wy/gillette/volunteers-of-america-northern-rockies-gillette
  name: Volunteers of America Northern Rockies Gillette Clinic
  categories:
  - su-treatment
  - mh-treatment
  address:
    street: 2200 Foothills Boulevard
    city: Gillette
    state: wy
    zip: '82716'
  place: '5631855'
  geo:
    lat: 44.30167
    lng: -105.53214
  phone: 307-257-7180
  website: https://www.voanr.org
  sources:
  - samhsa/findtreatment
  verified:
    'on': '2026-07-19'
    method: api
- id: wy/gillette/wyoming-child-and-family-development-gillette
  name: Wyoming Child and Family Development - Gillette
  categories:
  - child-care
  address:
    street: 601 Running W Dr
    city: Gillette
    state: wy
    zip: '82718'
  place: '5631855'
  geo:
    lat: 44.25383
    lng: -105.51093
  phone: 307-682-4214
  sources:
  - acf/head-start-locations
  verified:
    'on': '2026-07-19'
    method: api
