- id: wy/laramie/albany-community-health-clinic
  name: Albany Community Health Clinic
  categories:
  - community-health-center
  address:
    street: 2710 Harney St STE 202-204
    city: Laramie
    state: wy
    zip: '82072'
  place: '5645050'
  geo:
    lat: 41.32073
    lng: -105.5615
  phone: 307-766-3313
  website: https://www.albanycommunityhealthclinic.com
  external_ids:
    bphc: BPS-H80-037249
  sources:
  - hrsa/health-center-sites
  verified:
    'on': '2026-07-19'
    method: api
- id: wy/laramie/cathedral-home-for-children
  name: Cathedral Home for Children
  categories:
  - su-treatment
  - mh-treatment
  address:
    street: 4989 North 3rd Street
    city: Laramie
    state: wy
    zip: '82072'
  place: '5645050'
  geo:
    lat: 41.3534
    lng: -105.58904
  phone: 307-745-8997
  website: https://www.cathedralhome.org
  sources:
  - samhsa/findtreatment
  verified:
    'on': '2026-07-19'
    method: api
- id: wy/laramie/feeding-laramie-valley
  name: Feeding Laramie Valley
  categories:
  - meal-program
  address: {street: 968 N. 9Th Street, city: Laramie, state: wy, zip: '82072'}
  description: Free summer meals for kids and teens (2026 season) — sponsored by Feeding Laramie Valley
    - Action Resources International.
  place: '5645050'
  geo: {lat: 41.32088, lng: -105.58471}
  phone: (307) 399-3815
  external_ids: {usda_master: Cycle 02_WY_SFSP_0012}
  sources:
  - usda/summer-meal-sites
  verified: {'on': '2026-07-19', method: api}
- id: wy/laramie/head-start-of-laramie
  name: Head Start of Laramie
  categories:
  - child-care
  address:
    street: 365 W Grand Ave
    city: Laramie
    state: wy
    zip: '82072'
  place: '5645050'
  geo:
    lat: 41.31193
    lng: -105.60041
  phone: 307-742-6792
  sources:
  - acf/head-start-locations
  verified:
    'on': '2026-07-19'
    method: api
- id: wy/laramie/trinity-campus-cabinet
  name: Trinity Campus Cabinet
  categories:
  - food-pantry
  place: '5645050'
  geo:
    lat: 41.31255
    lng: -105.58813
  external_ids:
    lfp: '521'
  sources:
  - littlefreepantry/map
  verified:
    'on': '2026-07-19'
    method: scrape
- id: wy/laramie/velma-linford-elementary
  name: Velma Linford Elementary
  categories:
  - meal-program
  address: {street: 120 S Johnson St, city: Laramie, state: wy, zip: '82070'}
  description: 'Free summer meals for kids and teens (2026 season) — sponsored by Albany CSD #1.'
  place: '5645050'
  geo: {lat: 41.31256, lng: -105.62631}
  phone: (307) 721-6400
  external_ids: {usda_master: Cycle 03_WY_SFSP_0001}
  sources:
  - usda/summer-meal-sites
  verified: {'on': '2026-07-19', method: api}
- id: wy/laramie/volunteers-of-america-northern-rockies-laramie-c
  name: Volunteers of America Northern Rockies Laramie Clinic
  categories:
  - su-treatment
  - mh-treatment
  address:
    street: 1263 North 15th Street
    city: Laramie
    state: wy
    zip: '82072'
  place: '5645050'
  geo:
    lat: 41.32253
    lng: -105.57504
  phone: 307-745-8915
  website: https://www.voanr.org
  sources:
  - samhsa/findtreatment
  verified:
    'on': '2026-07-19'
    method: api
- id: wy/laramie/west-side-little-free-pantry
  name: West Side Little Free Pantry
  categories:
  - food-pantry
  place: '5645050'
  geo:
    lat: 41.31193
    lng: -105.60043
  external_ids:
    lfp: '5036'
  sources:
  - littlefreepantry/map
  verified:
    'on': '2026-07-19'
    method: scrape
