- id: wy/torrington/city-park
  name: City Park
  categories:
  - meal-program
  address: {street: 21St Ave And West C Street, city: Torrington, state: wy, zip: '82240'}
  description: 'Free summer meals for kids and teens (2026 season) — sponsored by Goshen CSD #1.'
  place: '5677530'
  geo: {lat: 42.06504, lng: -104.1888}
  phone: (307) 532-2171
  external_ids: {usda_master: Cycle 04_WY_SFSP_0018}
  sources:
  - usda/summer-meal-sites
  verified: {'on': '2026-07-19', method: api}
- id: wy/torrington/jirdon-park
  name: Jirdon Park
  categories:
  - meal-program
  address: {street: 701 E 25Th Ave, city: Torrington, state: wy, zip: '82240'}
  description: 'Free summer meals for kids and teens (2026 season) — sponsored by Goshen CSD #1.'
  place: '5677530'
  geo: {lat: 42.06895, lng: -104.17595}
  phone: (307) 532-2171
  external_ids: {usda_master: Cycle 04_WY_SFSP_0019}
  sources:
  - usda/summer-meal-sites
  verified: {'on': '2026-07-19', method: api}
- id: wy/torrington/pioneer-park
  name: Pioneer Park
  categories:
  - meal-program
  address: {street: 15Th Ave And West D Street, city: Torrington, state: wy, zip: '82240'}
  description: 'Free summer meals for kids and teens (2026 season) — sponsored by Goshen CSD #1.'
  place: '5677530'
  geo: {lat: 42.05997, lng: -104.19021}
  phone: (307) 532-2171
  external_ids: {usda_master: Cycle 04_WY_SFSP_0020}
  sources:
  - usda/summer-meal-sites
  verified: {'on': '2026-07-19', method: api}
- id: wy/torrington/trail-elementary
  name: Trail Elementary
  categories:
  - meal-program
  address: {street: 1601 East M, city: Torrington, state: wy, zip: '82240'}
  description: 'Free summer meals for kids and teens (2026 season) — sponsored by Goshen CSD #1.'
  place: '5677530'
  geo: {lat: 42.06041, lng: -104.16813}
  phone: (307) 532-2171
  external_ids: {usda_master: Cycle 04_WY_SFSP_0016}
  sources:
  - usda/summer-meal-sites
  verified: {'on': '2026-07-19', method: api}
- id: wy/torrington/volunteers-of-america-northern-rockies-torringto
  name: Volunteers of America Northern Rockies Torrington Clinic
  categories:
  - su-treatment
  - mh-treatment
  address:
    street: 501 Albany Avenue
    city: Torrington
    state: wy
    zip: '82240'
  place: '5677530'
  geo:
    lat: 42.08356
    lng: -104.19269
  phone: 307-532-4091
  website: https://www.voanr.org
  sources:
  - samhsa/findtreatment
  verified:
    'on': '2026-07-19'
    method: api
- id: wy/torrington/wyoming-child-and-family-development-lincoln-inf
  name: Wyoming Child and Family Development - Lincoln Infant Toddler Center
  categories:
  - child-care
  address:
    street: 436 E 22nd Ave
    street2: Unit C
    city: Torrington
    state: wy
    zip: '82240'
  place: '5677530'
  geo:
    lat: 42.06604
    lng: -104.1798
  phone: 307-534-4720
  sources:
  - acf/head-start-locations
  verified:
    'on': '2026-07-19'
    method: api
- id: wy/torrington/wyoming-child-and-family-development-tlc
  name: Wyoming Child and Family Development - TLC
  categories:
  - child-care
  address:
    street: 3110 W C St
    city: Torrington
    state: wy
    zip: '82240'
  place: '5677530'
  geo:
    lat: 42.07591
    lng: -104.18874
  phone: 307-532-7068
  sources:
  - acf/head-start-locations
  verified:
    'on': '2026-07-19'
    method: api
