- id: wa/brewster/brewster
  name: Brewster
  categories:
  - child-care
  address:
    street: 601 West Cliff
    city: Brewster
    state: wa
    zip: '98812'
  place: '5307835'
  geo:
    lat: 48.09247
    lng: -119.78162
  phone: 509-689-0413
  sources:
  - acf/head-start-locations
  verified:
    'on': '2026-07-19'
    method: api
- id: wa/brewster/brewster-boys-girls-club
  name: Brewster Boys & Girls Club
  categories:
  - meal-program
  address: {street: 601 W. Cliff Avenue, city: Brewster, state: wa, zip: '98812'}
  description: Free summer meals for kids and teens (2026 season) — sponsored by Boys & Girls Club of
    Snohomish County.
  place: '5307835'
  geo: {lat: 48.09226, lng: -119.78468}
  phone: (509) 689-1192
  external_ids: {usda_master: Cycle 08_WA_SFSP_0069}
  sources:
  - usda/summer-meal-sites
  verified: {'on': '2026-07-19', method: api}
- id: wa/brewster/fhc-brewster-dental-clinic
  name: FHC Brewster Dental Clinic
  categories:
  - community-health-center
  cost: sliding-scale
  address:
    street: 101 N 6th St
    city: Brewster
    state: wa
    zip: '98812'
  place: '5307835'
  geo:
    lat: 48.09959
    lng: -119.78557
  phone: 509-422-7601
  website: http://www.myfamilyhealth.org/
  external_ids:
    bphc: BPS-H80-009054
  sources:
  - hrsa/health-center-sites
  verified:
    'on': '2026-07-19'
    method: api
- id: wa/brewster/fhc-brewster-jay-avenue-medical-clinic
  name: FHC Brewster Jay Avenue Medical Clinic
  categories:
  - community-health-center
  cost: sliding-scale
  address:
    street: 525 Jay Ave
    city: Brewster
    state: wa
    zip: '98812'
  place: '5307835'
  geo:
    lat: 48.09987
    lng: -119.78342
  phone: 509-689-3455
  website: http://www.myfamilyhealth.org/
  external_ids:
    bphc: BPS-H80-002582
  sources:
  - hrsa/health-center-sites
  verified:
    'on': '2026-07-19'
    method: api
- id: wa/brewster/fhc-brewster-school-district
  name: FHC - Brewster School District
  categories:
  - community-health-center
  cost: sliding-scale
  address:
    street: 503 S 7th St
    city: Brewster
    state: wa
    zip: '98812'
  place: '5307835'
  geo:
    lat: 48.09418
    lng: -119.7878
  phone: 509-689-3418
  external_ids:
    bphc: BPS-H80-038187
  sources:
  - hrsa/health-center-sites
  verified:
    'on': '2026-07-19'
    method: api
