- id: wa/centralia/cascade-community-healthcare
  name: Cascade Community Healthcare
  categories:
  - mh-treatment
  address:
    street: 2428 West Reynolds Avenue
    city: Centralia
    state: wa
    zip: '98531'
  place: '5311160'
  geo:
    lat: 46.73477
    lng: -122.983
  phone: 360-330-9044
  website: https://cascadecommunityhealthcare.org/
  sources:
  - samhsa/findtreatment
  verified:
    'on': '2026-07-19'
    method: api
- id: wa/centralia/cascade-community-healthcare-evaluation-and-trea
  name: Cascade Community Healthcare Evaluation and Treatment Center
  categories:
  - su-treatment
  - mh-treatment
  address:
    street: 3510 Steelhammer Lane
    city: Centralia
    state: wa
    zip: '98531'
  place: '5311160'
  geo:
    lat: 46.73419
    lng: -123.00334
  phone: 360-623-8020
  website: https://www.cascadementalhealth.org
  sources:
  - samhsa/findtreatment
  verified:
    'on': '2026-07-19'
    method: api
- id: wa/centralia/centralia-center-west
  name: Centralia Center West
  categories:
  - child-care
  address:
    street: 701 Pioneer Way
    city: Centralia
    state: wa
    zip: '98531'
  place: '5311160'
  geo:
    lat: 46.72288
    lng: -122.98405
  phone: 360-807-4813
  sources:
  - acf/head-start-locations
  verified:
    'on': '2026-07-19'
    method: api
- id: wa/centralia/centralia-first-united-methodist-church
  name: Centralia First United Methodist Church
  categories:
  - food-pantry
  place: '5311160'
  geo:
    lat: 46.71341
    lng: -122.96291
  external_ids:
    lfp: '119'
  sources:
  - littlefreepantry/map
  verified:
    'on': '2026-07-19'
    method: scrape
- id: wa/centralia/community-integrated-health-services-adult-servi
  name: Community Integrated Health Services Adult Services
  categories:
  - su-treatment
  - mh-treatment
  address:
    street: 1616 South Gold Street
    city: Centralia
    state: wa
    zip: '98531'
  place: '5311160'
  geo:
    lat: 46.69696
    lng: -122.95678
  phone: 360-261-6930
  website: https://CIhealthservices.com
  sources:
  - samhsa/findtreatment
  verified:
    'on': '2026-07-19'
    method: api
- id: wa/centralia/community-integrated-health-services-youth-servi
  name: Community Integrated Health Services Youth Services
  categories:
  - su-treatment
  - mh-treatment
  address:
    street: 1707 Cooks Hill Road
    city: Centralia
    state: wa
    zip: '98531'
  place: '5311160'
  geo:
    lat: 46.71412
    lng: -122.98212
  phone: 360-261-6930
  website: https://CIhealthservices.com
  sources:
  - samhsa/findtreatment
  verified:
    'on': '2026-07-19'
    method: api
- id: wa/centralia/core-health-centralia
  name: CORE Health Centralia
  categories:
  - su-treatment
  - mh-treatment
  address:
    street: 1126 South Gold Street
    city: Centralia
    state: wa
    zip: '98531'
  place: '5311160'
  geo:
    lat: 46.70372
    lng: -122.9558
  phone: 360-807-3144
  website: https://www.corehealthwa.org
  sources:
  - samhsa/findtreatment
  verified:
    'on': '2026-07-19'
    method: api
- id: wa/centralia/valley-view-health-center-centralia
  name: Valley View Health Center - Centralia
  categories:
  - community-health-center
  address:
    street: 1800 Cooks Hill Rd, Ste F
    city: Centralia
    state: wa
    zip: '98531'
  place: '5311160'
  geo:
    lat: 46.71371
    lng: -122.98382
  phone: 360-669-0335
  website: https://vvhc.org/
  external_ids:
    bphc: BPS-H80-033031
  sources:
  - hrsa/health-center-sites
  verified:
    'on': '2026-07-19'
    method: api
- id: wa/centralia/valley-view-health-center-centralia-pediatric-de
  name: Valley View Health Center Centralia Pediatric Dental
  categories:
  - community-health-center
  address:
    street: 711 Harrison Ave
    city: Centralia
    state: wa
    zip: '98531'
  place: '5311160'
  geo:
    lat: 46.72423
    lng: -122.97267
  phone: 360-736-5405
  website: https://www.vvhc.org
  external_ids:
    bphc: BPS-H80-024677
  sources:
  - hrsa/health-center-sites
  verified:
    'on': '2026-07-19'
    method: api
- id: wa/centralia/valley-view-health-center-walk-in-clinic
  name: Valley View Health Center - Walk-In Clinic
  categories:
  - community-health-center
  address:
    street: 1800 Cooks Hill Rd, Ste G
    city: Centralia
    state: wa
    zip: '98531'
  place: '5311160'
  geo:
    lat: 46.71371
    lng: -122.98382
  phone: 360-736-3042
  external_ids:
    bphc: BPS-H80-013024
  sources:
  - hrsa/health-center-sites
  verified:
    'on': '2026-07-19'
    method: api
