- id: wa/ellensburg/central-washington-university-wildcat-pantry
  name: Central Washington University Wildcat Pantry
  categories:
  - food-pantry
  place: '5321240'
  geo:
    lat: 47.00605
    lng: -120.54334
  external_ids:
    lfp: '5733'
  sources:
  - littlefreepantry/map
  verified:
    'on': '2026-07-19'
    method: scrape
- id: wa/ellensburg/chcw-ellensburg-medical-and-dental-services
  name: CHCW - Ellensburg Medical and Dental Services
  categories:
  - community-health-center
  address:
    street: 521 E Mountain View Ave
    city: Ellensburg
    state: wa
    zip: '98926'
  place: '5321240'
  geo:
    lat: 46.98494
    lng: -120.54036
  phone: 509-962-1414
  website: https://www.chcw.org
  external_ids:
    bphc: BPS-H80-008565
  sources:
  - hrsa/health-center-sites
  verified:
    'on': '2026-07-19'
    method: api
- id: wa/ellensburg/chcw-ellensburg-services
  name: CHCW - Ellensburg Services
  categories:
  - community-health-center
  address:
    street: 607 E Mountain View Ave
    city: Ellensburg
    state: wa
    zip: '98926'
  place: '5321240'
  geo:
    lat: 46.98462
    lng: -120.5396
  phone: 509-962-7077
  website: https://www.chcw.org
  external_ids:
    bphc: BPS-H80-017555
  sources:
  - hrsa/health-center-sites
  verified:
    'on': '2026-07-19'
    method: api
- id: wa/ellensburg/fish-community-food-bank
  name: FISH Community Food Bank
  categories:
  - food-pantry
  place: '5321240'
  geo:
    lat: 47.02719
    lng: -120.53749
  external_ids:
    lfp: '5732'
  sources:
  - littlefreepantry/map
  verified:
    'on': '2026-07-19'
    method: scrape
- id: wa/ellensburg/kittitas-early-head-start
  name: Kittitas Early Head Start
  categories:
  - child-care
  address:
    street: 220 E Helena Ave
    city: Ellensburg
    state: wa
    zip: '98926'
  place: '5321240'
  geo:
    lat: 47.01339
    lng: -120.54449
  phone: 509-454-2488
  sources:
  - acf/head-start-locations
  verified:
    'on': '2026-07-19'
    method: api
- id: wa/ellensburg/kittitas-seedlings-center
  name: Kittitas Seedlings Center
  categories:
  - child-care
  address:
    street: 220 E Helena Ave
    city: Ellensburg
    state: wa
    zip: '98926'
  place: '5321240'
  geo:
    lat: 47.01339
    lng: -120.54449
  phone: 509-454-2488
  sources:
  - acf/head-start-locations
  verified:
    'on': '2026-07-19'
    method: api
- id: wa/ellensburg/merit-resource-services-ellensburg
  name: MERIT Resource Services Ellensburg
  categories:
  - su-treatment
  address:
    street: 200 East 3rd Avenue
    city: Ellensburg
    state: wa
    zip: '98926'
  place: '5321240'
  geo:
    lat: 46.99426
    lng: -120.5454
  phone: 509-925-9821
  website: https://www.meritresources.org
  sources:
  - samhsa/findtreatment
  verified:
    'on': '2026-07-19'
    method: api
