- id: wa/federal-way/catholic-community-services-federal-way-day-cent
  name: Catholic Community Services Federal Way Day Center
  categories:
  - community-health-center
  address:
    street: 33505 13th Pl S
    city: Federal Way
    state: wa
    zip: '98003'
  place: '5323515'
  geo:
    lat: 47.30139
    lng: -122.3172
  phone: 206-323-6366
  external_ids:
    bphc: BPS-H80-036544
  sources:
  - hrsa/health-center-sites
  verified:
    'on': '2026-07-19'
    method: api
- id: wa/federal-way/college-for-kids-bilingual-daycare
  name: College for Kids Bilingual Daycare
  categories:
  - child-care
  address:
    street: 2520 SW 336th St
    city: Federal Way
    state: wa
    zip: '98023'
  place: '5323515'
  geo:
    lat: 47.30117
    lng: -122.366
  phone: 253-838-0914
  sources:
  - acf/head-start-locations
  verified:
    'on': '2026-07-19'
    method: api
- id: wa/federal-way/federal-way-public-hlth-ctr
  name: FEDERAL WAY PUBLIC HLTH CTR
  categories:
  - community-health-center
  address:
    street: 33431 13th Pl S
    city: Federal Way
    state: wa
    zip: '98003'
  place: '5323515'
  geo:
    lat: 47.30195
    lng: -122.31786
  phone: 206-296-8410
  website: http://www.kingcounty.gov/healthservices/health/locations/federalway.aspx
  external_ids:
    bphc: BPS-H80-000149
  sources:
  - hrsa/health-center-sites
  verified:
    'on': '2026-07-19'
    method: api
- id: wa/federal-way/healthpoint-federal-way
  name: HealthPoint Federal Way
  categories:
  - community-health-center
  address:
    street: 33431 13th Pl S
    city: Federal Way
    state: wa
    zip: '98003'
  place: '5323515'
  geo:
    lat: 47.30195
    lng: -122.31786
  phone: 253-874-7634
  website: https://www.healthpointchc.org
  external_ids:
    bphc: BPS-H80-000388
  sources:
  - hrsa/health-center-sites
  verified:
    'on': '2026-07-19'
    method: api
- id: wa/federal-way/healthpoint-taf-saghalie-campus-health-center
  name: HealthPoint TAF@Saghalie Campus Health Center
  categories:
  - community-health-center
  address:
    street: 33914 19th Ave SW
    city: Federal Way
    state: wa
    zip: '98023'
  place: '5323515'
  geo:
    lat: 47.29757
    lng: -122.355
  phone: 425-277-1311
  external_ids:
    bphc: BPS-H80-031733
  sources:
  - hrsa/health-center-sites
  verified:
    'on': '2026-07-19'
    method: api
- id: wa/federal-way/intercept-associates
  name: Intercept Associates
  categories:
  - su-treatment
  address:
    street: 30610 Pacific Highway South
    city: Federal Way
    state: wa
    zip: '98003'
  place: '5323515'
  geo:
    lat: 47.32724
    lng: -122.31161
  phone: 253-941-7555
  website: https://www.interceptassociates.com
  sources:
  - samhsa/findtreatment
  verified:
    'on': '2026-07-19'
    method: api
- id: wa/federal-way/light-of-christ-lutheran-church-and-garden
  name: Light of Christ Lutheran Church and Garden
  categories:
  - food-pantry
  place: '5323515'
  geo:
    lat: 47.29383
    lng: -122.36183
  external_ids:
    lfp: '2676'
  sources:
  - littlefreepantry/map
  verified:
    'on': '2026-07-19'
    method: scrape
- id: wa/federal-way/sea-mar-behavioral-health-federal-way-sea-mar-co
  name: Sea Mar Behavioral Health Federal Way/Sea Mar Community Hlth Ctr
  categories:
  - su-treatment
  - mh-treatment
  address:
    street: 31405 18th Avenue South
    city: Federal Way
    state: wa
    zip: '98003'
  place: '5323515'
  geo:
    lat: 47.27592
    lng: -122.28548
  phone: 253-681-6640
  website: https://www.seamar.org
  sources:
  - samhsa/findtreatment
  verified:
    'on': '2026-07-19'
    method: api
- id: wa/federal-way/sea-mar-chc-federal-way-18th-ave-s
  name: Sea Mar CHC - Federal Way 18th Ave S
  categories:
  - community-health-center
  address:
    street: 31405 18th Ave S
    city: Federal Way
    state: wa
    zip: '98003'
  place: '5323515'
  geo:
    lat: 47.32027
    lng: -122.31115
  phone: 253-681-6600
  website: http://www.seamar.org
  external_ids:
    bphc: BPS-H80-019240
  sources:
  - hrsa/health-center-sites
  verified:
    'on': '2026-07-19'
    method: api
- id: wa/federal-way/wapi-community-services-federal-way
  name: WAPI Community Services Federal Way
  categories:
  - su-treatment
  address:
    street: 28815 Pacific Highway South
    city: Federal Way
    state: wa
    zip: '98003'
  place: '5323515'
  geo:
    lat: 47.34301
    lng: -122.31298
  phone: 844-987-9274
  website: https://www.wapiseattle.org
  sources:
  - samhsa/findtreatment
  verified:
    'on': '2026-07-19'
    method: api
- id: wa/federal-way/wayside-united-church-of-christ-federal-way
  name: Wayside United Church of Christ Federal Way
  categories:
  - food-pantry
  place: '5323515'
  geo:
    lat: 47.32184
    lng: -122.36025
  external_ids:
    lfp: '2790'
  sources:
  - littlefreepantry/map
  verified:
    'on': '2026-07-19'
    method: scrape
