- id: wa/kent/healthpoint-kent
  name: HealthPoint Kent
  categories:
  - community-health-center
  address:
    street: 403 E Meeker St
    city: Kent
    state: wa
    zip: '98030'
  place: '5335415'
  geo:
    lat: 47.38187
    lng: -122.2294
  phone: 253-852-2866
  website: https://www.healthpointchc.org
  external_ids:
    bphc: BPS-H80-000832
  sources:
  - hrsa/health-center-sites
  verified:
    'on': '2026-07-19'
    method: api
- id: wa/kent/healthpoint-kent-urgent-care
  name: HealthPoint Kent Urgent Care
  categories:
  - community-health-center
  address:
    street: 219 State Ave N
    city: Kent
    state: wa
    zip: '98030'
  place: '5335415'
  geo:
    lat: 47.38297
    lng: -122.23012
  phone: 253-372-3602
  website: https://www.healthpointchc.org
  external_ids:
    bphc: BPS-H80-024939
  sources:
  - hrsa/health-center-sites
  verified:
    'on': '2026-07-19'
    method: api
- id: wa/kent/kent-comprehensive-treatment-center
  name: Kent Comprehensive Treatment Center
  categories:
  - su-treatment
  address:
    street: 21851 84th Avenue South
    city: Kent
    state: wa
    zip: '98032'
  place: '5335415'
  geo:
    lat: 47.40511
    lng: -122.22853
  phone: 425-687-7082 x201
  website: https://www.ctcprograms.com/location/kent-comprehensive-treatment-center/
  sources:
  - samhsa/findtreatment
  verified:
    'on': '2026-07-19'
    method: api
- id: wa/kent/kent-public-health-center
  name: Kent Public Health Center
  categories:
  - community-health-center
  address:
    street: 25742 104th Ave SE
    city: Kent
    state: wa
    zip: '98030'
  place: '5335415'
  geo:
    lat: 47.37088
    lng: -122.20074
  phone: 206-477-6950
  external_ids:
    bphc: BPS-H80-013991
  sources:
  - hrsa/health-center-sites
  verified:
    'on': '2026-07-19'
    method: api
- id: wa/kent/kent-public-health-center-birch-creek
  name: KENT PUBLIC HEALTH CENTER-Birch Creek
  categories:
  - community-health-center
  address:
    street: 13111 SE 274th St
    city: Kent
    state: wa
    zip: '98030'
  place: '5335415'
  geo:
    lat: 47.35556
    lng: -122.16637
  phone: 206-296-4930
  website: http://www.metrokc.gov/health/locations/springwood.htm
  external_ids:
    bphc: BPS-H80-000978
  sources:
  - hrsa/health-center-sites
  verified:
    'on': '2026-07-19'
    method: api
- id: wa/kent/kent-ymca
  name: Kent YMCA
  categories:
  - food-pantry
  place: '5335415'
  geo:
    lat: 47.38021
    lng: -122.19678
  external_ids:
    lfp: '5931'
  sources:
  - littlefreepantry/map
  verified:
    'on': '2026-07-19'
    method: scrape
- id: wa/kent/kyfs-kent-family-center
  name: KYFS KENT FAMILY CENTER
  categories:
  - child-care
  address:
    street: 13111 SE 274th St
    city: Kent
    state: wa
    zip: '98030'
  place: '5335415'
  geo:
    lat: 47.3557
    lng: -122.16618
  phone: 253-630-9590
  sources:
  - acf/head-start-locations
  verified:
    'on': '2026-07-19'
    method: api
- id: wa/kent/kyfs-kent-valley-elc
  name: KYFS KENT VALLEY ELC
  categories:
  - child-care
  address:
    street: 317 4th Ave S
    city: Kent
    state: wa
    zip: '98032'
  place: '5335415'
  geo:
    lat: 47.37971
    lng: -122.23804
  phone: 253-373-7600
  sources:
  - acf/head-start-locations
  verified:
    'on': '2026-07-19'
    method: api
- id: wa/kent/kyfs-springbrook
  name: KYFS SPRINGBROOK
  categories:
  - child-care
  address:
    street: 20035 100th Ave SE
    city: Kent
    state: wa
    zip: '98031'
  place: '5335415'
  geo:
    lat: 47.42103
    lng: -122.20939
  phone: 253-373-7485
  sources:
  - acf/head-start-locations
  verified:
    'on': '2026-07-19'
    method: api
- id: wa/kent/recovery-place-kent
  name: Recovery Place Kent
  categories:
  - su-treatment
  - mh-treatment
  address:
    street: 515 Washington Avenue South
    city: Kent
    state: wa
    zip: '98032'
  place: '5335415'
  geo:
    lat: 47.37785
    lng: -122.24734
  phone: 253-833-7444
  website: https://www.valleycities.org
  sources:
  - samhsa/findtreatment
  verified:
    'on': '2026-07-19'
    method: api
- id: wa/kent/sea-mar-behavioral-health-kent-sea-mar-community
  name: Sea Mar Behavioral Health Kent/Sea Mar Community Health Centers
  categories:
  - mh-treatment
  address:
    street: 25028 104th Avenue SE
    city: Kent
    state: wa
    zip: '98030'
  place: '5335415'
  geo:
    lat: 47.37712
    lng: -122.20176
  phone: 206-764-8019
  website: https://www.seamar.org/king-bh-kent.html
  sources:
  - samhsa/findtreatment
  verified:
    'on': '2026-07-19'
    method: api
- id: wa/kent/sea-mar-chc-kent-104th-ave-se
  name: Sea Mar CHC - Kent 104th Ave SE
  categories:
  - community-health-center
  address:
    street: 25028 104th Ave SE
    city: Kent
    state: wa
    zip: '98030'
  place: '5335415'
  geo:
    lat: 47.37713
    lng: -122.20181
  phone: 206-764-8019
  external_ids:
    bphc: BPS-H80-021858
  sources:
  - hrsa/health-center-sites
  verified:
    'on': '2026-07-19'
    method: api
- id: wa/kent/sea-mar-chc-kent-233-2nd-ave-s
  name: Sea Mar CHC - Kent 233 2nd Ave. S.
  categories:
  - community-health-center
  address:
    street: 233 2nd Ave S
    city: Kent
    state: wa
    zip: '98032'
  place: '5335415'
  geo:
    lat: 47.38
    lng: -122.23519
  phone: 206-436-6380
  external_ids:
    bphc: BPS-H80-013855
  sources:
  - hrsa/health-center-sites
  verified:
    'on': '2026-07-19'
    method: api
- id: wa/kent/social-treatment-opportunity-programs-stop-kent
  name: Social Treatment Opportunity Programs (STOP) Kent
  categories:
  - su-treatment
  - mh-treatment
  address:
    street: 610 West Meeker Street
    city: Kent
    state: wa
    zip: '98032'
  place: '5335415'
  geo:
    lat: 47.38116
    lng: -122.2393
  phone: 253-234-1190
  website: https://STOPWA.COM
  sources:
  - samhsa/findtreatment
  verified:
    'on': '2026-07-19'
    method: api
- id: wa/kent/sound-kent
  name: Sound Kent
  categories:
  - su-treatment
  - mh-treatment
  address:
    street: 841 Central Avenue North
    city: Kent
    state: wa
    zip: '98032'
  place: '5335415'
  geo:
    lat: 47.38976
    lng: -122.23168
  phone: 206-901-2000
  website: https://www.sound.health
  sources:
  - samhsa/findtreatment
  verified:
    'on': '2026-07-19'
    method: api
- id: wa/kent/south-king-home-based
  name: South King Home Based
  categories:
  - child-care
  address:
    street: 212 5th Ave S
    city: Kent
    state: wa
    zip: '98032'
  place: '5335415'
  geo:
    lat: 47.38036
    lng: -122.23772
  phone: 253-854-0700
  sources:
  - acf/head-start-locations
  verified:
    'on': '2026-07-19'
    method: api
- id: wa/kent/therapeutic-health-services-kent-branch
  name: Therapeutic Health Services Kent Branch
  categories:
  - su-treatment
  - mh-treatment
  address:
    street: 24823 South Pacific Highway
    city: Kent
    state: wa
    zip: '98032'
  place: '5335415'
  geo:
    lat: 47.37781
    lng: -122.29975
  phone: 206-723-1980
  website: https://www.ths-wa.org
  sources:
  - samhsa/findtreatment
  verified:
    'on': '2026-07-19'
    method: api
