- id: wa/lacey/b-o-l-t-s-community-pantry
  name: B.O.L.T.S Community Pantry
  categories:
  - food-pantry
  place: '5336745'
  geo:
    lat: 47.03853
    lng: -122.83139
  external_ids:
    lfp: '2832'
  sources:
  - littlefreepantry/map
  verified:
    'on': '2026-07-19'
    method: scrape
- id: wa/lacey/hawks-prairie
  name: Hawks Prairie
  categories:
  - child-care
  address:
    street: 8220 Steilacoom Rd SE
    city: Lacey
    state: wa
    zip: '98503'
  place: '5336745'
  geo:
    lat: 47.04645
    lng: -122.76604
  phone: 360-438-8150
  sources:
  - acf/head-start-locations
  verified:
    'on': '2026-07-19'
    method: api
- id: wa/lacey/lacey-child-care-and-family-center
  name: Lacey Child Care and Family Center
  categories:
  - child-care
  address:
    street: 4540 Corporate Center Dr SE
    city: Lacey
    state: wa
    zip: '98503'
  place: '5336745'
  geo:
    lat: 46.99836
    lng: -122.82944
  phone: 360-407-5331
  sources:
  - acf/head-start-locations
  verified:
    'on': '2026-07-19'
    method: api
- id: wa/lacey/providence-behavioral-health-recovery
  name: Providence Behavioral Health/Recovery
  categories:
  - su-treatment
  - mh-treatment
  address:
    street: 4800 College Street SE
    city: Lacey
    state: wa
    zip: '98503'
  place: '5336745'
  geo:
    lat: 47.00447
    lng: -122.82122
  phone: 360-456-7575
  website: https://www.providence.org
  sources:
  - samhsa/findtreatment
  verified:
    'on': '2026-07-19'
    method: api
- id: wa/lacey/right-step-inc
  name: Right Step Inc
  categories:
  - su-treatment
  address:
    street: 3925 8th Avenue SE
    city: Lacey
    state: wa
    zip: '98503'
  place: '5336745'
  geo:
    lat: 47.04055
    lng: -122.83694
  phone: 360-923-9585
  website: https://www.TheRightStepInc.com
  sources:
  - samhsa/findtreatment
  verified:
    'on': '2026-07-19'
    method: api
- id: wa/lacey/sea-mar-chc-lacey-woodland-square-loop
  name: Sea Mar CHC - Lacey Woodland Square Loop
  categories:
  - community-health-center
  address:
    street: 669 Woodland Square Loop SE
    city: Lacey
    state: wa
    zip: '98503'
  place: '5336745'
  geo:
    lat: 47.04296
    lng: -122.82357
  phone: 360-359-4840
  website: https://www.seamar.org
  external_ids:
    bphc: BPS-H80-009600
  sources:
  - hrsa/health-center-sites
  verified:
    'on': '2026-07-19'
    method: api
