- id: wa/moses-lake/denise-schmidt-center
  name: Denise Schmidt Center
  categories:
  - child-care
  address:
    street: 1402 E Craig Street
    street2: Moses Lake
    city: Moses Lake
    state: wa
    zip: '98837'
  place: '5347245'
  geo:
    lat: 47.17886
    lng: -119.32487
  phone: 509-766-9877
  sources:
  - acf/head-start-locations
  verified:
    'on': '2026-07-19'
    method: api
- id: wa/moses-lake/ha-of-grant-county
  name: Ha Of Grant County
  categories:
  - housing-assistance
  address: {street: 1139 Larson Blvd, city: Moses Lake, state: wa, zip: '98837'}
  description: Public housing and Housing Choice Voucher agency
  place: '5347245'
  geo: {lat: 47.17643, lng: -119.32619}
  phone: 509-762-5541
  sources:
  - hud/resource-locator
  verified: {'on': '2026-07-19', method: api}
- id: wa/moses-lake/moses-lake-cdc
  name: Moses Lake CDC
  categories:
  - child-care
  address:
    street: 1109 S Juniper Dr
    city: Moses Lake
    state: wa
    zip: '98837'
  place: '5347245'
  geo:
    lat: 47.11941
    lng: -119.26587
  phone: 509-766-6440
  sources:
  - acf/head-start-locations
  verified:
    'on': '2026-07-19'
    method: api
- id: wa/moses-lake/moses-lake-community-health-center
  name: MOSES LAKE COMMUNITY HEALTH CENTER
  categories:
  - community-health-center
  address:
    street: 605 S Coolidge St
    city: Moses Lake
    state: wa
    zip: '98837'
  place: '5347245'
  geo:
    lat: 47.12917
    lng: -119.26182
  phone: 509-765-0674
  website: https://www.mlchc.org
  external_ids:
    bphc: BPS-H80-001599
  sources:
  - hrsa/health-center-sites
  verified:
    'on': '2026-07-19'
    method: api
- id: wa/moses-lake/renew-moses-lake-main
  name: Renew Moses Lake/Main
  categories:
  - su-treatment
  - mh-treatment
  address:
    street: 840 East Plum Street
    city: Moses Lake
    state: wa
    zip: '98837'
  place: '5347245'
  geo:
    lat: 47.1288
    lng: -119.26268
  phone: 509-765-9239 x5436
  website: https://www.grantcountywa.gov/761/Renew
  sources:
  - samhsa/findtreatment
  verified:
    'on': '2026-07-19'
    method: api
