- id: wa/moses-lake/carpenter-park
  name: Carpenter Park
  categories:
  - meal-program
  address: {street: 1522 Lee St, city: Moses Lake, state: wa, zip: '98837'}
  description: Free summer meals for kids and teens (2026 season) — sponsored by Moses Lake School District.
  place: '5347245'
  geo: {lat: 47.11722, lng: -119.29889}
  phone: (509) 764-3806
  external_ids: {usda_master: Cycle 04_WA_SFSP_0076}
  sources:
  - usda/summer-meal-sites
  verified: {'on': '2026-07-19', method: api}
- id: wa/moses-lake/columbia-basin-technical-school
  name: Columbia Basin Technical School
  categories:
  - meal-program
  address: {street: 900 E. Yonezawa, city: Moses Lake, state: wa, zip: '98837'}
  description: Free summer meals for kids and teens (2026 season) — sponsored by Moses Lake School District.
  place: '5347245'
  geo: {lat: 47.10474, lng: -119.26475}
  phone: (509) 793-7008
  external_ids: {usda_master: Cycle 04_WA_SFSP_0017}
  sources:
  - usda/summer-meal-sites
  verified: {'on': '2026-07-19', method: api}
- id: wa/moses-lake/denise-schmidt-center
  name: Denise Schmidt Center
  categories:
  - child-care
  address:
    street: 1402 E Craig Street
    street2: Moses Lake
    city: Moses Lake
    state: wa
    zip: '98837'
  place: '5347245'
  geo:
    lat: 47.17886
    lng: -119.32487
  phone: 509-766-9877
  sources:
  - acf/head-start-locations
  verified:
    'on': '2026-07-19'
    method: api
- id: wa/moses-lake/doolittle-dream-park
  name: Doolittle Dream Park
  categories:
  - meal-program
  address: {street: 1016 Vandenberg Loop, city: Moses Lake, state: wa, zip: '98837'}
  description: Free summer meals for kids and teens (2026 season) — sponsored by Boys & Girls Club of
    the Columbia Basin.
  place: '5347245'
  geo: {lat: 47.16974, lng: -119.3184}
  phone: (509) 707-0270
  external_ids: {usda_master: Cycle 07_WA_SFSP_0129}
  sources:
  - usda/summer-meal-sites
  verified: {'on': '2026-07-19', method: api}
- id: wa/moses-lake/garden-heights-elementary
  name: Garden Heights Elementary
  categories:
  - meal-program
  address: {street: 707 E Nelson Rd, city: Moses Lake, state: wa, zip: '98837'}
  description: Free summer meals for kids and teens (2026 season) — sponsored by Moses Lake School District.
  place: '5347245'
  geo: {lat: 47.11647, lng: -119.26559}
  phone: (509) 766-2651
  external_ids: {usda_master: Cycle 01_WA_SFSP_0009}
  sources:
  - usda/summer-meal-sites
  verified: {'on': '2026-07-19', method: api}
- id: wa/moses-lake/ha-of-grant-county
  name: Ha Of Grant County
  categories:
  - housing-assistance
  address:
    street: 1139 Larson Blvd
    city: Moses Lake
    state: wa
    zip: '98837'
  description: Public housing and Housing Choice Voucher agency
  place: '5347245'
  geo:
    lat: 47.17643
    lng: -119.32619
  phone: 509-762-5541
  sources:
  - hud/resource-locator
  verified:
    'on': '2026-07-19'
    method: api
- id: wa/moses-lake/knolls-vista-elementary-school
  name: Knolls Vista Elementary School
  categories:
  - meal-program
  address: {street: 454 W Ridge Rd, city: Moses Lake, state: wa, zip: '98837'}
  description: Free summer meals for kids and teens (2026 season) — sponsored by Moses Lake School District.
  place: '5347245'
  geo: {lat: 47.13466, lng: -119.28498}
  phone: (509) 793-7999
  external_ids: {usda_master: Cycle 01_WA_SFSP_0010}
  sources:
  - usda/summer-meal-sites
  verified: {'on': '2026-07-19', method: api}
- id: wa/moses-lake/knolls-vista-park
  name: Knolls Vista Park
  categories:
  - meal-program
  address: {street: 444 Knolls Vista Dr, city: Moses Lake, state: wa, zip: '98837'}
  description: Free summer meals for kids and teens (2026 season) — sponsored by Moses Lake School District.
  place: '5347245'
  geo: {lat: 47.1334, lng: -119.28628}
  phone: (509) 764-3806
  external_ids: {usda_master: Cycle 06_WA_SFSP_0163}
  sources:
  - usda/summer-meal-sites
  verified: {'on': '2026-07-19', method: api}
- id: wa/moses-lake/lakeview-park
  name: Lakeview Park
  categories:
  - meal-program
  address: {street: 423 S Beech St, city: Moses Lake, state: wa, zip: '98837'}
  description: Free summer meals for kids and teens (2026 season) — sponsored by Boys & Girls Club of
    the Columbia Basin.
  place: '5347245'
  geo: {lat: 47.12743, lng: -119.27886}
  phone: (509) 707-0270
  external_ids: {usda_master: Cycle 07_WA_SFSP_0247}
  sources:
  - usda/summer-meal-sites
  verified: {'on': '2026-07-19', method: api}
- id: wa/moses-lake/lakeview-terrace-elementary
  name: Lakeview Terrace Elementary
  categories:
  - meal-program
  address: {street: 780 S Clover Dr, city: Moses Lake, state: wa, zip: '98837'}
  description: Free summer meals for kids and teens (2026 season) — sponsored by Moses Lake School District.
  place: '5347245'
  geo: {lat: 47.12402, lng: -119.25715}
  phone: (509) 766-2653
  external_ids: {usda_master: Cycle 01_WA_SFSP_0011}
  sources:
  - usda/summer-meal-sites
  verified: {'on': '2026-07-19', method: api}
- id: wa/moses-lake/larson-heights-elementary
  name: Larson Heights Elementary
  categories:
  - meal-program
  address: {street: 700 E Sharon, city: Moses Lake, state: wa, zip: '98837'}
  description: Free summer meals for kids and teens (2026 season) — sponsored by Moses Lake School District.
  place: '5347245'
  geo: {lat: 47.11286, lng: -119.26659}
  phone: (509) 766-2655
  external_ids: {usda_master: Cycle 01_WA_SFSP_0012}
  sources:
  - usda/summer-meal-sites
  verified: {'on': '2026-07-19', method: api}
- id: wa/moses-lake/larson-rec-center
  name: Larson Rec Center
  categories:
  - meal-program
  address: {street: 610 W Yakima Ave, city: Moses Lake, state: wa, zip: '98837'}
  description: Free summer meals for kids and teens (2026 season) — sponsored by Moses Lake School District.
  place: '5347245'
  geo: {lat: 47.10444, lng: -119.30751}
  phone: (509) 764-3806
  external_ids: {usda_master: Cycle 06_WA_SFSP_0164}
  sources:
  - usda/summer-meal-sites
  verified: {'on': '2026-07-19', method: api}
- id: wa/moses-lake/longview-elementary
  name: Longview Elementary
  categories:
  - meal-program
  address: {street: 9783 Apple Rd, city: Moses Lake, state: wa, zip: '98837'}
  description: Free summer meals for kids and teens (2026 season) — sponsored by Moses Lake School District.
  place: '5347245'
  geo: {lat: 47.15229, lng: -119.28251}
  phone: (509) 766-2656
  external_ids: {usda_master: Cycle 01_WA_SFSP_0013}
  sources:
  - usda/summer-meal-sites
  verified: {'on': '2026-07-19', method: api}
- id: wa/moses-lake/maple-grove
  name: Maple Grove
  categories:
  - meal-program
  address: {street: 1008 W Aspen Rd, city: Moses Lake, state: wa, zip: '98837'}
  description: Free summer meals for kids and teens (2026 season) — sponsored by Moses Lake School District.
  place: '5347245'
  geo: {lat: 47.15237, lng: -119.29577}
  phone: (509) 164-3806
  external_ids: {usda_master: Cycle 06_WA_SFSP_0165}
  sources:
  - usda/summer-meal-sites
  verified: {'on': '2026-07-19', method: api}
- id: wa/moses-lake/maple-grove-park
  name: Maple Grove Park
  categories:
  - meal-program
  address: {street: 1008 W. Aspen Rd., city: Moses Lake, state: wa, zip: '98837'}
  description: Free summer meals for kids and teens (2026 season) — sponsored by Boys & Girls Club of
    the Columbia Basin.
  place: '5347245'
  geo: {lat: 47.15237, lng: -119.29577}
  phone: (509) 707-0270
  external_ids: {usda_master: Cycle 07_WA_SFSP_0276}
  sources:
  - usda/summer-meal-sites
  verified: {'on': '2026-07-19', method: api}
- id: wa/moses-lake/mcgraw-family-clubhouse
  name: Mcgraw Family Clubhouse
  categories:
  - meal-program
  address: {street: 425 N Paxson Dr., city: Moses Lake, state: wa, zip: '98837'}
  description: Free summer meals for kids and teens (2026 season) — sponsored by Boys & Girls Club of
    the Columbia Basin.
  place: '5347245'
  geo: {lat: 47.1351, lng: -119.29953}
  phone: (509) 764-9694
  external_ids: {usda_master: Cycle 07_WA_SFSP_0287}
  sources:
  - usda/summer-meal-sites
  verified: {'on': '2026-07-19', method: api}
- id: wa/moses-lake/midway-elementary
  name: Midway Elementary
  categories:
  - meal-program
  address: {street: 502 South C Street, city: Moses Lake, state: wa, zip: '98837'}
  description: Free summer meals for kids and teens (2026 season) — sponsored by Moses Lake School District.
  place: '5347245'
  geo: {lat: 47.12014, lng: -119.29046}
  phone: (509) 766-2657
  external_ids: {usda_master: Cycle 01_WA_SFSP_0014}
  sources:
  - usda/summer-meal-sites
  verified: {'on': '2026-07-19', method: api}
- id: wa/moses-lake/moses-lake-cdc
  name: Moses Lake CDC
  categories:
  - child-care
  address:
    street: 1109 S Juniper Dr
    city: Moses Lake
    state: wa
    zip: '98837'
  place: '5347245'
  geo:
    lat: 47.11941
    lng: -119.26587
  phone: 509-766-6440
  sources:
  - acf/head-start-locations
  verified:
    'on': '2026-07-19'
    method: api
- id: wa/moses-lake/moses-lake-community-health-center
  name: MOSES LAKE COMMUNITY HEALTH CENTER
  categories:
  - community-health-center
  address:
    street: 605 S Coolidge St
    city: Moses Lake
    state: wa
    zip: '98837'
  place: '5347245'
  geo:
    lat: 47.12917
    lng: -119.26182
  phone: 509-765-0674
  website: https://www.mlchc.org
  external_ids:
    bphc: BPS-H80-001599
  sources:
  - hrsa/health-center-sites
  verified:
    'on': '2026-07-19'
    method: api
- id: wa/moses-lake/moses-lake-high-school
  name: Moses Lake High School
  categories:
  - meal-program
  address: {street: 803 E. Sharon, city: Moses Lake, state: wa, zip: '98837'}
  description: Free summer meals for kids and teens (2026 season) — sponsored by Moses Lake School District.
  place: '5347245'
  geo: {lat: 47.1128, lng: -119.26559}
  phone: (509) 855-2163
  external_ids: {usda_master: Cycle 06_WA_SFSP_0068}
  sources:
  - usda/summer-meal-sites
  verified: {'on': '2026-07-19', method: api}
- id: wa/moses-lake/north-elementary
  name: North Elementary
  categories:
  - meal-program
  address: {street: 1200 Craig Dr, city: Moses Lake, state: wa, zip: '98837'}
  description: Free summer meals for kids and teens (2026 season) — sponsored by Moses Lake School District.
  place: '5347245'
  geo: {lat: 47.17384, lng: -119.32825}
  phone: (509) 766-2654
  external_ids: {usda_master: Cycle 01_WA_SFSP_0015}
  sources:
  - usda/summer-meal-sites
  verified: {'on': '2026-07-19', method: api}
- id: wa/moses-lake/north-elementary-school
  name: North Elementary School
  categories:
  - meal-program
  address: {street: 1200 W. Craig, city: Moses Lake, state: wa, zip: '98837'}
  description: Free summer meals for kids and teens (2026 season) — sponsored by Boys & Girls Club of
    the Columbia Basin.
  place: '5347245'
  geo: {lat: 47.17384, lng: -119.32825}
  phone: (509) 707-0270
  external_ids: {usda_master: Cycle 07_WA_SFSP_0317}
  sources:
  - usda/summer-meal-sites
  verified: {'on': '2026-07-19', method: api}
- id: wa/moses-lake/park-orchard-elementary-school
  name: Park Orchard Elementary School
  categories:
  - meal-program
  address: {street: 417 N. Paxson Drive, city: Moses Lake, state: wa, zip: '98837'}
  description: Free summer meals for kids and teens (2026 season) — sponsored by Moses Lake School District.
  place: '5347245'
  geo: {lat: 47.13509, lng: -119.29954}
  phone: (509) 766-2699
  external_ids: {usda_master: Cycle 01_WA_SFSP_0016}
  sources:
  - usda/summer-meal-sites
  verified: {'on': '2026-07-19', method: api}
- id: wa/moses-lake/peninsula-elementary
  name: Peninsula Elementary
  categories:
  - meal-program
  address: {street: 2406 W. Texas, city: Moses Lake, state: wa, zip: '98837'}
  description: Free summer meals for kids and teens (2026 season) — sponsored by Moses Lake School District.
  place: '5347245'
  geo: {lat: 47.10519, lng: -119.30351}
  phone: (509) 766-2658
  external_ids: {usda_master: Cycle 01_WA_SFSP_0017}
  sources:
  - usda/summer-meal-sites
  verified: {'on': '2026-07-19', method: api}
- id: wa/moses-lake/peninsula-park
  name: Peninsula Park
  categories:
  - meal-program
  address: {street: 244 W. Texas, city: Moses Lake, state: wa, zip: '98837'}
  description: Free summer meals for kids and teens (2026 season) — sponsored by Moses Lake School District.
  place: '5347245'
  geo: {lat: 47.10441, lng: -119.30419}
  phone: (509) 764-3806
  external_ids: {usda_master: Cycle 04_WA_SFSP_0134}
  sources:
  - usda/summer-meal-sites
  verified: {'on': '2026-07-19', method: api}
- id: wa/moses-lake/renew-moses-lake-main
  name: Renew Moses Lake/Main
  categories:
  - su-treatment
  - mh-treatment
  address:
    street: 840 East Plum Street
    city: Moses Lake
    state: wa
    zip: '98837'
  place: '5347245'
  geo:
    lat: 47.1288
    lng: -119.26268
  phone: 509-765-9239 x5436
  website: https://www.grantcountywa.gov/761/Renew
  sources:
  - samhsa/findtreatment
  verified:
    'on': '2026-07-19'
    method: api
- id: wa/moses-lake/sage-point-elementary-school
  name: Sage Point Elementary School
  categories:
  - meal-program
  address: {street: 4000 W Peninsula Dr., city: Moses Lake, state: wa, zip: '98837'}
  description: Free summer meals for kids and teens (2026 season) — sponsored by Moses Lake School District.
  place: '5347245'
  geo: {lat: 47.08977, lng: -119.31642}
  phone: (509) 766-2444
  external_ids: {usda_master: Cycle 01_WA_SFSP_0018}
  sources:
  - usda/summer-meal-sites
  verified: {'on': '2026-07-19', method: api}
- id: wa/moses-lake/teen-center
  name: Teen Center
  categories:
  - meal-program
  address: {street: 517 W 3Rd Ave, city: Moses Lake, state: wa, zip: '98837'}
  description: Free summer meals for kids and teens (2026 season) — sponsored by Boys & Girls Club of
    the Columbia Basin.
  place: '5347245'
  geo: {lat: 47.12744, lng: -119.28349}
  phone: (509) 707-0270
  external_ids: {usda_master: Cycle 07_WA_SFSP_0435}
  sources:
  - usda/summer-meal-sites
  verified: {'on': '2026-07-19', method: api}
