- id: wa/oak-harbor/compass-health-oak-harbor
  name: Compass Health Oak Harbor
  categories:
  - su-treatment
  - mh-treatment
  address:
    street: 230 SE Cabot Drive
    city: Oak Harbor
    state: wa
    zip: '98277'
  place: '5350360'
  geo:
    lat: 48.29653
    lng: -122.65402
  phone: 425-349-6200
  website: https://www.compasshealth.org
  sources:
  - samhsa/findtreatment
  verified:
    'on': '2026-07-19'
    method: api
- id: wa/oak-harbor/oak-harbor-early-learning-center
  name: Oak Harbor Early Learning Center
  categories:
  - child-care
  address:
    street: 1080 NE 7th Ave
    city: Oak Harbor
    state: wa
    zip: '98277'
  place: '5350360'
  geo:
    lat: 48.30405
    lng: -122.64492
  phone: 360-416-2506
  sources:
  - acf/head-start-locations
  verified:
    'on': '2026-07-19'
    method: api
- id: wa/oak-harbor/pioneer-human-services-ituha
  name: Pioneer Human Services ITUHA
  categories:
  - su-treatment
  - mh-treatment
  address:
    street: 275 NE 10th Avenue
    city: Oak Harbor
    state: wa
    zip: '98277'
  place: '5350360'
  geo:
    lat: 48.30649
    lng: -122.65505
  phone: 360-499-7011
  website: https://www.PioneerHumanServices.org
  sources:
  - samhsa/findtreatment
  verified:
    'on': '2026-07-19'
    method: api
- id: wa/oak-harbor/sea-mar-behavioral-health-oak-harbor
  name: Sea Mar Behavioral Health Oak Harbor
  categories:
  - su-treatment
  - mh-treatment
  address:
    street: 830 SE Ireland Street
    city: Oak Harbor
    state: wa
    zip: '98277'
  place: '5350360'
  geo:
    lat: 48.2916
    lng: -122.64611
  phone: 360-679-7676
  website: https://www.seamarchc.org
  sources:
  - samhsa/findtreatment
  verified:
    'on': '2026-07-19'
    method: api
- id: wa/oak-harbor/sea-mar-chc-oak-harbor-e-whidbey-ave
  name: Sea Mar CHC - Oak Harbor E. Whidbey Ave.
  categories:
  - community-health-center
  address:
    street: 926 E Whidbey Ave
    city: Oak Harbor
    state: wa
    zip: '98277'
  place: '5350360'
  geo:
    lat: 48.2985
    lng: -122.64662
  phone: 360-679-9216
  external_ids:
    bphc: BPS-H80-037200
  sources:
  - hrsa/health-center-sites
  verified:
    'on': '2026-07-19'
    method: api
- id: wa/oak-harbor/sea-mar-chc-oak-harbor-se-ireland-st
  name: Sea Mar CHC - Oak Harbor SE Ireland St.
  categories:
  - community-health-center
  address:
    street: 830 SE Ireland St
    city: Oak Harbor
    state: wa
    zip: '98277'
  place: '5350360'
  geo:
    lat: 48.29158
    lng: -122.64612
  phone: 360-679-7676
  external_ids:
    bphc: BPS-H80-034879
  sources:
  - hrsa/health-center-sites
  verified:
    'on': '2026-07-19'
    method: api
- id: wa/oak-harbor/sunrise-services-inc
  name: Sunrise Services Inc
  categories:
  - su-treatment
  - mh-treatment
  address:
    street: 530 NE Midway Boulevard
    city: Oak Harbor
    state: wa
    zip: '98277'
  place: '5350360'
  geo:
    lat: 48.30239
    lng: -122.64277
  phone: 360-544-3800
  website: https://sunriseservicesinc.com
  sources:
  - samhsa/findtreatment
  verified:
    'on': '2026-07-19'
    method: api
- id: wa/oak-harbor/whidbey-head-start
  name: Whidbey Head Start
  categories:
  - child-care
  address:
    street: 151 SE Midway Blvd
    city: Oak Harbor
    state: wa
    zip: '98277'
  place: '5350360'
  geo:
    lat: 48.29698
    lng: -122.64329
  phone: 360-679-4784
  sources:
  - acf/head-start-locations
  verified:
    'on': '2026-07-19'
    method: api
