- id: wa/point-roberts/east-5th-little-free-pantry
  name: East 5th Little Free Pantry
  categories:
  - food-pantry
  place: '5355015'
  geo:
    lat: 49.26561
    lng: -123.07221
  external_ids:
    lfp: '3260'
  sources:
  - littlefreepantry/map
  verified:
    'on': '2026-07-19'
    method: scrape
- id: wa/point-roberts/marpole-mini-pantry
  name: Marpole Mini Pantry
  categories:
  - food-pantry
  place: '5355015'
  geo:
    lat: 49.20573
    lng: -123.13916
  external_ids:
    lfp: '2360'
  sources:
  - littlefreepantry/map
  verified:
    'on': '2026-07-19'
    method: scrape
- id: wa/point-roberts/mcspadden-mini-pantry
  name: McSpadden Mini Pantry
  categories:
  - food-pantry
  place: '5355015'
  geo:
    lat: 49.26662
    lng: -123.06689
  external_ids:
    lfp: '1836'
  sources:
  - littlefreepantry/map
  verified:
    'on': '2026-07-19'
    method: scrape
- id: wa/point-roberts/nicks-nook
  name: Nicks Nook
  categories:
  - food-pantry
  place: '5355015'
  geo:
    lat: 49.1556
    lng: -122.90952
  external_ids:
    lfp: '2509'
  sources:
  - littlefreepantry/map
  verified:
    'on': '2026-07-19'
    method: scrape
- id: wa/point-roberts/pemberton-heights-mutual-aid-box
  name: Pemberton Heights Mutual Aid Box
  categories:
  - food-pantry
  place: '5355015'
  geo:
    lat: 49.32968
    lng: -123.10272
  external_ids:
    lfp: '5414'
  sources:
  - littlefreepantry/map
  verified:
    'on': '2026-07-19'
    method: scrape
