- id: wa/shelton/behavioral-health-resources-shelton
  name: Behavioral Health Resources Shelton
  categories:
  - su-treatment
  - mh-treatment
  address:
    street: 110 West K Street
    city: Shelton
    state: wa
    zip: '98584'
  place: '5363735'
  geo:
    lat: 47.22551
    lng: -123.12393
  phone: 360-426-1696
  website: https://www.bhr.org
  sources:
  - samhsa/findtreatment
  verified:
    'on': '2026-07-19'
    method: api
- id: wa/shelton/community-youth-services-shelton
  name: Community Youth Services Shelton
  categories:
  - su-treatment
  - mh-treatment
  address:
    street: 601 West Franklin Street
    city: Shelton
    state: wa
    zip: '98584'
  place: '5363735'
  geo:
    lat: 47.21393
    lng: -123.10591
  phone: 360-918-7860
  website: https://www.communityyouthservices.org
  sources:
  - samhsa/findtreatment
  verified:
    'on': '2026-07-19'
    method: api
- id: wa/shelton/consejo-counseling-and-referral-servs
  name: Consejo Counseling and Referral Servs
  categories:
  - su-treatment
  - mh-treatment
  address:
    street: 627 West Franklin Street
    city: Shelton
    state: wa
    zip: '98584'
  place: '5363735'
  geo:
    lat: 47.21396
    lng: -123.10697
  phone: 206-461-4880
  website: https://www.consejocounseling.org
  sources:
  - samhsa/findtreatment
  verified:
    'on': '2026-07-19'
    method: api
- id: wa/shelton/esd113-true-north-student-assistance-treatment-s
  name: ESD113/True North Student Assistance Treatment Services Mason County
  categories:
  - su-treatment
  - mh-treatment
  address:
    street: 807 West Pine Street
    city: Shelton
    state: wa
    zip: '98584'
  place: '5363735'
  geo:
    lat: 47.21555
    lng: -123.1086
  phone: 360-464-6867
  website: https://truenorth.esd113.org
  sources:
  - samhsa/findtreatment
  verified:
    'on': '2026-07-19'
    method: api
- id: wa/shelton/new-directions-counseling
  name: New Directions Counseling
  categories:
  - su-treatment
  - mh-treatment
  address:
    street: 506 West Franklin Street
    city: Shelton
    state: wa
    zip: '98584'
  place: '5363735'
  geo:
    lat: 47.21439
    lng: -123.10505
  phone: 360-427-5232
  website: https://www.newdirectionswa.com
  sources:
  - samhsa/findtreatment
  verified:
    'on': '2026-07-19'
    method: api
- id: wa/shelton/northwest-resources-ii-inc-shelton
  name: Northwest Resources II Inc Shelton
  categories:
  - su-treatment
  - mh-treatment
  address:
    street: 235 South 3rd Street
    city: Shelton
    state: wa
    zip: '98584'
  place: '5363735'
  geo:
    lat: 47.2115
    lng: -123.10309
  phone: 360-426-0890
  website: https://www.nwrii.com
  sources:
  - samhsa/findtreatment
  verified:
    'on': '2026-07-19'
    method: api
- id: wa/shelton/peninsula-community-health-services-franklin-str
  name: Peninsula Community Health Services - Franklin Street
  categories:
  - community-health-center
  address:
    street: 627 W Franklin St
    city: Shelton
    state: wa
    zip: '98584'
  place: '5363735'
  geo:
    lat: 47.21396
    lng: -123.10698
  phone: 360-377-3776
  website: https://www.pchsweb.org
  external_ids:
    bphc: BPS-H80-024981
  sources:
  - hrsa/health-center-sites
  verified:
    'on': '2026-07-19'
    method: api
- id: wa/shelton/squaxin-island-tribe-behavioral-health-outpatien
  name: Squaxin Island Tribe Behavioral Health Outpatient Program
  categories:
  - su-treatment
  - mh-treatment
  address:
    street: 100 SE Whitener Road
    city: Shelton
    state: wa
    zip: '98584'
  place: '5363735'
  geo:
    lat: 47.12772
    lng: -123.09502
  phone: 360-426-1582
  website: https://
  sources:
  - samhsa/findtreatment
  verified:
    'on': '2026-07-19'
    method: api
- id: wa/shelton/squaxin-island-tribe-early-head-start
  name: Squaxin Island Tribe Early Head Start
  categories:
  - child-care
  address:
    street: 3851 SE Old Olympic Hwy
    city: Shelton
    state: wa
    zip: '98584'
  place: '5363735'
  geo:
    lat: 47.12794
    lng: -123.0982
  phone: 360-426-1390
  sources:
  - acf/head-start-locations
  verified:
    'on': '2026-07-19'
    method: api
