- id: wa/wapato/merit-resource-services-wapato
  name: MERIT Resource Services Wapato
  categories:
  - su-treatment
  address:
    street: 312 West 2nd Street
    city: Wapato
    state: wa
    zip: '98951'
  place: '5376125'
  geo:
    lat: 46.44723
    lng: -120.42317
  phone: 509-877-7271
  website: https://www.meritresources.org
  sources:
  - samhsa/findtreatment
  verified:
    'on': '2026-07-19'
    method: api
- id: wa/wapato/parker-heights-cdc
  name: Parker Heights CDC
  categories:
  - child-care
  address:
    street: 5420 Konnowac Pass Rd
    city: Wapato
    state: wa
    zip: '98951'
  place: '5376125'
  geo:
    lat: 46.46654
    lng: -120.37599
  phone: 509-877-1258
  sources:
  - acf/head-start-locations
  verified:
    'on': '2026-07-19'
    method: api
- id: wa/wapato/parker-heights-idc
  name: Parker Heights IDC
  categories:
  - child-care
  address:
    street: 5420 Konnowac Pass Rd
    city: Wapato
    state: wa
    zip: '98951'
  place: '5376125'
  geo:
    lat: 46.46654
    lng: -120.37599
  phone: 509-877-1258
  sources:
  - acf/head-start-locations
  verified:
    'on': '2026-07-19'
    method: api
- id: wa/wapato/wapato-cdc
  name: Wapato CDC
  categories:
  - child-care
  address:
    street: 5420 Honnowac Pass Rd
    city: Wapato
    state: wa
    zip: '98951'
  place: '5376125'
  geo:
    lat: 46.46636
    lng: -120.37538
  phone: 509-877-3092
  sources:
  - acf/head-start-locations
  verified:
    'on': '2026-07-19'
    method: api
- id: wa/wapato/wapato-head-start
  name: Wapato Head Start
  categories:
  - child-care
  address:
    street: 1240 Campbell Rd
    city: Wapato
    state: wa
    zip: '98951'
  place: '5376125'
  geo:
    lat: 46.44452
    lng: -120.4394
  phone: 509-985-3414
  sources:
  - acf/head-start-locations
  verified:
    'on': '2026-07-19'
    method: api
- id: wa/wapato/wapato-idc
  name: Wapato IDC
  categories:
  - child-care
  address:
    street: 5420 Konnowac Pass Rd
    city: Wapato
    state: wa
    zip: '98951'
  place: '5376125'
  geo:
    lat: 46.46636
    lng: -120.37538
  phone: 509-877-3092
  sources:
  - acf/head-start-locations
  verified:
    'on': '2026-07-19'
    method: api
- id: wa/wapato/wapato-mid-valley-clinic
  name: Wapato Mid-Valley Clinic
  categories:
  - community-health-center
  address:
    street: 620 W 1st St
    city: Wapato
    state: wa
    zip: '98951'
  place: '5376125'
  geo:
    lat: 46.4483
    lng: -120.4272
  phone: 509-877-4111
  website: https://www.yvfwc.com
  external_ids:
    bphc: BPS-H80-007894
  sources:
  - hrsa/health-center-sites
  verified:
    'on': '2026-07-19'
    method: api
