- id: wa/wapato/apas-goudy-community-center
  name: Apas Goudy Community Center
  categories:
  - meal-program
  address:
    street: 518 Larena Lane
    city: Wapato
    state: wa
    zip: '98951'
  description: Free summer meals for kids and teens (2026 season) — sponsored by The Campbell Farm.
  place: '5376125'
  geo:
    lat: 46.4428
    lng: -120.41262
  phone: (509) 388-3426
  external_ids:
    usda_master: Cycle 09_WA_SFSP_0029
  sources:
  - usda/summer-meal-sites
  verified:
    'on': '2026-07-19'
    method: api
- id: wa/wapato/merit-resource-services-wapato
  name: MERIT Resource Services Wapato
  categories:
  - su-treatment
  address:
    street: 312 West 2nd Street
    city: Wapato
    state: wa
    zip: '98951'
  place: '5376125'
  geo:
    lat: 46.44723
    lng: -120.42317
  phone: 509-877-7271
  website: https://www.meritresources.org
  sources:
  - samhsa/findtreatment
  verified:
    'on': '2026-07-19'
    method: api
- id: wa/wapato/parker-heights-cdc
  name: Parker Heights CDC
  categories:
  - child-care
  address:
    street: 5420 Konnowac Pass Rd
    city: Wapato
    state: wa
    zip: '98951'
  place: '5376125'
  geo:
    lat: 46.46654
    lng: -120.37599
  phone: 509-877-1258
  sources:
  - acf/head-start-locations
  verified:
    'on': '2026-07-19'
    method: api
- id: wa/wapato/parker-heights-idc
  name: Parker Heights IDC
  categories:
  - child-care
  address:
    street: 5420 Konnowac Pass Rd
    city: Wapato
    state: wa
    zip: '98951'
  place: '5376125'
  geo:
    lat: 46.46654
    lng: -120.37599
  phone: 509-877-1258
  sources:
  - acf/head-start-locations
  verified:
    'on': '2026-07-19'
    method: api
- id: wa/wapato/the-campbell-farm
  name: The Campbell Farm
  categories:
  - meal-program
  address:
    street: 2527 Campbell Road
    city: Wapato
    state: wa
    zip: '98951'
  description: Free summer meals for kids and teens (2026 season) — sponsored by The Campbell Farm.
  place: '5376125'
  geo:
    lat: 46.42566
    lng: -120.4382
  phone: (509) 388-3426
  external_ids:
    usda_master: Cycle 09_WA_SFSP_0749
  sources:
  - usda/summer-meal-sites
  verified:
    'on': '2026-07-19'
    method: api
- id: wa/wapato/wapato-cdc
  name: Wapato CDC
  categories:
  - child-care
  address:
    street: 5420 Honnowac Pass Rd
    city: Wapato
    state: wa
    zip: '98951'
  place: '5376125'
  geo:
    lat: 46.46636
    lng: -120.37538
  phone: 509-877-3092
  sources:
  - acf/head-start-locations
  verified:
    'on': '2026-07-19'
    method: api
- id: wa/wapato/wapato-head-start
  name: Wapato Head Start
  categories:
  - child-care
  address:
    street: 1240 Campbell Rd
    city: Wapato
    state: wa
    zip: '98951'
  place: '5376125'
  geo:
    lat: 46.44452
    lng: -120.4394
  phone: 509-985-3414
  sources:
  - acf/head-start-locations
  verified:
    'on': '2026-07-19'
    method: api
- id: wa/wapato/wapato-high-school
  name: Wapato High School
  categories:
  - meal-program
  address:
    street: 1202 South Camas Avenue
    city: Wapato
    state: wa
    zip: '98951'
  description: Free summer meals for kids and teens (2026 season) — sponsored by Wapato School District.
  place: '5376125'
  geo:
    lat: 46.43826
    lng: -120.42146
  phone: (509) 877-5021
  external_ids:
    usda_master: Cycle 04_WA_SFSP_0137
  sources:
  - usda/summer-meal-sites
  verified:
    'on': '2026-07-19'
    method: api
- id: wa/wapato/wapato-idc
  name: Wapato IDC
  categories:
  - child-care
  address:
    street: 5420 Konnowac Pass Rd
    city: Wapato
    state: wa
    zip: '98951'
  place: '5376125'
  geo:
    lat: 46.46636
    lng: -120.37538
  phone: 509-877-3092
  sources:
  - acf/head-start-locations
  verified:
    'on': '2026-07-19'
    method: api
- id: wa/wapato/wapato-mid-valley-clinic
  name: Wapato Mid-Valley Clinic
  categories:
  - community-health-center
  address:
    street: 620 W 1st St
    city: Wapato
    state: wa
    zip: '98951'
  place: '5376125'
  geo:
    lat: 46.4483
    lng: -120.4272
  phone: 509-877-4111
  website: https://www.yvfwc.com
  external_ids:
    bphc: BPS-H80-007894
  sources:
  - hrsa/health-center-sites
  verified:
    'on': '2026-07-19'
    method: api
