- id: ny/amityville/amityville-head-start-center
  name: Amityville Head Start Center
  categories:
  - child-care
  address:
    street: 48 Cedar Rd
    city: Amityville
    state: ny
    zip: '11701'
  place: '3602044'
  geo:
    lat: 40.71039
    lng: -73.40723
  phone: 631-842-8484
  sources:
  - acf/head-start-locations
  verified:
    'on': '2026-07-19'
    method: api
- id: ny/amityville/long-island-home-south-oaks-hospital
  name: Long Island Home South Oaks Hospital
  categories:
  - su-treatment
  - mh-treatment
  address:
    street: 400 Sunrise Highway
    city: Amityville
    state: ny
    zip: '11701'
  place: '3602044'
  geo:
    lat: 40.68519
    lng: -73.42221
  phone: 631-264-4000
  website: https://southoaks.northwell.edu/
  sources:
  - samhsa/findtreatment
  verified:
    'on': '2026-07-19'
    method: api
- id: ny/amityville/marks-of-excellence
  name: Marks of Excellence
  categories:
  - child-care
  address:
    street: 455 Albany Ave
    city: Amityville
    state: ny
    zip: '11701'
  place: '3602044'
  geo:
    lat: 40.69899
    lng: -73.40921
  phone: 631-758-5200
  sources:
  - acf/head-start-locations
  verified:
    'on': '2026-07-19'
    method: api
- id: ny/amityville/ontrack-south-oaks-hospital
  name: OnTrack South Oaks Hospital
  categories:
  - su-treatment
  - mh-treatment
  address:
    street: 400 Sunrise Highway
    city: Amityville
    state: ny
    zip: '11701'
  place: '3602044'
  geo:
    lat: 40.68599
    lng: -73.42141
  phone: 631-608-5531
  website: https://redcap.northwell.edu/surveys/?s=33MCF97XDX
  sources:
  - samhsa/findtreatment
  verified:
    'on': '2026-07-19'
    method: api
- id: ny/amityville/south-oaks-child-adol-oupt-servs-long-island-hom
  name: South Oaks Child/Adol Oupt Servs Long Island Home
  categories:
  - su-treatment
  - mh-treatment
  address:
    street: 400 Sunrise Highway
    city: Amityville
    state: ny
    zip: '11701'
  place: '3602044'
  geo:
    lat: 40.68452
    lng: -73.42261
  phone: 631-608-5900
  website: https://southoaks.northwell.edu/
  sources:
  - samhsa/findtreatment
  verified:
    'on': '2026-07-19'
    method: api
- id: ny/amityville/south-oaks-hospital-inpatient-detox
  name: South Oaks Hospital Inpatient Detox
  categories:
  - su-treatment
  address:
    street: 400 Sunrise Highway
    city: Amityville
    state: ny
    zip: '11701'
  place: '3602044'
  geo:
    lat: 40.6859
    lng: -73.42318
  phone: 631-264-4000
  website: https://southoaks.northwell.edu
  sources:
  - samhsa/findtreatment
  verified:
    'on': '2026-07-19'
    method: api
- id: ny/amityville/south-oaks-hospital-inpatient-rehabilitation
  name: South Oaks Hospital Inpatient Rehabilitation
  categories:
  - su-treatment
  address:
    street: 400 Sunrise Highway
    city: Amityville
    state: ny
    zip: '11701'
  place: '3602044'
  geo:
    lat: 40.68467
    lng: -73.42259
  phone: 631-264-4000
  website: https://southoaks.northwell.edu/
  sources:
  - samhsa/findtreatment
  verified:
    'on': '2026-07-19'
    method: api
- id: ny/amityville/south-oaks-partial-hospital-prog-long-island-hom
  name: South Oaks Partial Hospital Prog Long Island Home
  categories:
  - su-treatment
  - mh-treatment
  address:
    city: Amityville
    state: ny
    zip: '11701'
  place: '3602044'
  phone: 631-608-5340
  website: https://southoaks.northwell.edu/
  sources:
  - samhsa/findtreatment
  verified:
    'on': '2026-07-19'
    method: api
- id: ny/amityville/sun-river-health-amityville
  name: Sun River Health Amityville
  categories:
  - community-health-center
  address:
    street: 1080 Sunrise Hwy
    city: Amityville
    state: ny
    zip: '11701'
  place: '3602044'
  geo:
    lat: 40.68952
    lng: -73.41075
  phone: 631-716-9026
  external_ids:
    bphc: BPS-H80-013893
  sources:
  - hrsa/health-center-sites
  verified:
    'on': '2026-07-19'
    method: api
