- id: ny/amsterdam/amsterdam
  name: Amsterdam
  categories:
  - child-care
  address:
    street: 208 Truax Rd
    city: Amsterdam
    state: ny
    zip: '12010'
  place: '3602066'
  geo:
    lat: 42.92718
    lng: -74.14849
  phone: 518-842-8225
  sources:
  - acf/head-start-locations
  verified:
    'on': '2026-07-19'
    method: api
- id: ny/amsterdam/amsterdam-housing-authority
  name: Amsterdam Housing Authority
  categories:
  - housing-assistance
  address:
    street: 52 Division St
    city: Amsterdam
    state: ny
    zip: '12010'
  description: Public housing and Housing Choice Voucher agency
  place: '3602066'
  geo:
    lat: 42.94019
    lng: -74.19512
  phone: 518-842-2894
  sources:
  - hud/resource-locator
  verified:
    'on': '2026-07-19'
    method: api
- id: ny/amsterdam/hometown-health-centers-at-amsterdam
  name: Hometown Health Centers at Amsterdam
  categories:
  - community-health-center
  address:
    street: 67 Division St
    city: Amsterdam
    state: ny
    zip: '12010'
  place: '3602066'
  geo:
    lat: 42.94127
    lng: -74.19551
  phone: 518-370-1441
  external_ids:
    bphc: BPS-H80-014177
  sources:
  - hrsa/health-center-sites
  verified:
    'on': '2026-07-19'
    method: api
- id: ny/amsterdam/saint-marys-healthcare-act-team
  name: Saint Marys Healthcare ACT Team
  categories:
  - su-treatment
  - mh-treatment
  address:
    street: 446 B Guy Park Avenue
    city: Amsterdam
    state: ny
    zip: '12010'
  place: '3602066'
  geo:
    lat: 42.95372
    lng: -74.21805
  phone: 518-770-7827
  website: https://
  sources:
  - samhsa/findtreatment
  verified:
    'on': '2026-07-19'
    method: api
- id: ny/amsterdam/saint-marys-healthcare-cmhac-inpatient-unit
  name: Saint Marys Healthcare CMHAC Inpatient Unit
  categories:
  - mh-treatment
  address:
    street: 427 Guy Park Avenue
    city: Amsterdam
    state: ny
    zip: '12010'
  place: '3602066'
  geo:
    lat: 42.9546
    lng: -74.2166
  phone: 518-842-1900
  website: https://www.smha.org
  sources:
  - samhsa/findtreatment
  verified:
    'on': '2026-07-19'
    method: api
- id: ny/amsterdam/saint-marys-healthcare-cop
  name: Saint Marys Healthcare COP
  categories:
  - su-treatment
  address:
    street: 4988 State Highway 30
    city: Amsterdam
    state: ny
    zip: '12010'
  place: '3602066'
  geo:
    lat: 42.95909
    lng: -74.18727
  phone: 518-843-4410
  website: https://
  sources:
  - samhsa/findtreatment
  verified:
    'on': '2026-07-19'
    method: api
- id: ny/amsterdam/saint-marys-healthcare-counseling-services
  name: Saint Marys Healthcare Counseling Services
  categories:
  - su-treatment
  - mh-treatment
  address:
    street: 4988 State Highway 30
    city: Amsterdam
    state: ny
    zip: '12010'
  place: '3602066'
  geo:
    lat: 42.95909
    lng: -74.18727
  phone: 518-841-7341
  website: https://www.smha.org
  sources:
  - samhsa/findtreatment
  verified:
    'on': '2026-07-19'
    method: api
- id: ny/amsterdam/saint-marys-healthcare-youth-act-team
  name: Saint Marys Healthcare Youth Act Team
  categories:
  - su-treatment
  - mh-treatment
  address:
    street: 446 B Guy Park Avenue
    city: Amsterdam
    state: ny
    zip: '12010'
  place: '3602066'
  geo:
    lat: 42.95372
    lng: -74.21805
  phone: 518-842-1900
  website: https://
  sources:
  - samhsa/findtreatment
  verified:
    'on': '2026-07-19'
    method: api
- id: ny/amsterdam/veterns-park
  name: Veterns Park
  categories:
  - meal-program
  address: {street: 161 Locust Ave, city: Amsterdam, state: ny, zip: '12010'}
  description: Free summer meals for kids and teens (2026 season) — sponsored by Amsterdam City SD.
  place: '3602066'
  geo: {lat: 42.94605, lng: -74.18217}
  phone: (518) 918-8135
  external_ids: {usda_master: Cycle 08_NY_SFSP_1159}
  sources:
  - usda/summer-meal-sites
  verified: {'on': '2026-07-19', method: api}
