- id: ny/buffalo/1461-academy
  name: 1461 Academy
  categories:
  - child-care
  address:
    street: 1461 Main St
    city: Buffalo
    state: ny
    zip: '14209'
  place: '3611000'
  geo:
    lat: 42.91338
    lng: -78.8647
  phone: 716-878-0220
  sources:
  - acf/head-start-locations
  verified:
    'on': '2026-07-19'
    method: api
- id: ny/buffalo/1500-broadway-behavioral-health-clinic
  name: 1500 Broadway Behavioral Health Clinic
  categories:
  - su-treatment
  - mh-treatment
  address:
    street: 1500 Broadway
    city: Buffalo
    state: ny
    zip: '14212'
  place: '3611000'
  geo:
    lat: 42.89652
    lng: -78.81944
  phone: 716-895-6700
  website: https://
  sources:
  - samhsa/findtreatment
  verified:
    'on': '2026-07-19'
    method: api
- id: ny/buffalo/235-delaware-ave
  name: 235 Delaware Ave
  categories:
  - food-pantry
  place: '3611000'
  geo:
    lat: 42.89092
    lng: -78.87617
  external_ids:
    lfp: '1313'
  sources:
  - littlefreepantry/map
  verified:
    'on': '2026-07-19'
    method: scrape
- id: ny/buffalo/933-elmwood
  name: 933 Elmwood
  categories:
  - food-pantry
  place: '3611000'
  geo:
    lat: 42.9226
    lng: -78.87668
  external_ids:
    lfp: '1312'
  sources:
  - littlefreepantry/map
  verified:
    'on': '2026-07-19'
    method: scrape
- id: ny/buffalo/advancement-office
  name: Advancement Office
  categories:
  - community-health-center
  address:
    street: 233 W Ferry St
    city: Buffalo
    state: ny
    zip: '14213'
  place: '3611000'
  geo:
    lat: 42.91518
    lng: -78.89303
  phone: 716-886-0771
  external_ids:
    bphc: BPS-H80-030517
  sources:
  - hrsa/health-center-sites
  verified:
    'on': '2026-07-19'
    method: api
- id: ny/buffalo/baker-hall-dba-olv-human-services-oupt-clinic
  name: Baker Hall DBA OLV Human Services/Oupt Clinic
  categories:
  - su-treatment
  - mh-treatment
  address:
    street: 790 Ridge Road
    city: Buffalo
    state: ny
    zip: '14218'
  place: '3611000'
  geo:
    lat: 42.82645
    lng: -78.82274
  phone: 716-828-9651
  website: https://www.olvhumanservices.org
  sources:
  - samhsa/findtreatment
  verified:
    'on': '2026-07-19'
    method: api
- id: ny/buffalo/beacon-center-outpatient-clinic-1
  name: Beacon Center Outpatient Clinic 1
  categories:
  - su-treatment
  address:
    street: 3354 Sheridan Drive
    city: Buffalo
    state: ny
    zip: '14226'
  place: '3611000'
  geo:
    lat: 42.98093
    lng: -78.80942
  phone: 716-831-1937
  website: https://www.beaconcenter.net
  sources:
  - samhsa/findtreatment
  verified:
    'on': '2026-07-19'
    method: api
- id: ny/buffalo/beacon-center-outpatient-clinic-2
  name: Beacon Center Outpatient Clinic 2
  categories:
  - su-treatment
  address:
    street: 295 Main Street
    city: Buffalo
    state: ny
    zip: '14203'
  place: '3611000'
  geo:
    lat: 42.88243
    lng: -78.87449
  phone: 716-853-0243
  website: https://www.beaconcenter.net
  sources:
  - samhsa/findtreatment
  verified:
    'on': '2026-07-19'
    method: api
- id: ny/buffalo/bestself-behavioral-health-delaware-summer-clini
  name: BestSelf Behavioral Health Delaware Summer Clinic
  categories:
  - su-treatment
  - mh-treatment
  address:
    street: 768 Delaware Avenue
    city: Buffalo
    state: ny
    zip: '14209'
  place: '3611000'
  geo:
    lat: 42.90513
    lng: -78.87304
  phone: 716-882-3151
  website: https://www.bestselfwny.org
  sources:
  - samhsa/findtreatment
  verified:
    'on': '2026-07-19'
    method: api
- id: ny/buffalo/bestself-behavioral-health-franklin-recovery-pro
  name: BestSelf Behavioral Health Franklin Recovery PROS
  categories:
  - su-treatment
  - mh-treatment
  address:
    street: 254 Franklin Street
    city: Buffalo
    state: ny
    zip: '14202'
  place: '3611000'
  geo:
    lat: 42.89106
    lng: -78.87529
  phone: 716-852-1117 x1143
  website: https://www.bestselfwny.org
  sources:
  - samhsa/findtreatment
  verified:
    'on': '2026-07-19'
    method: api
- id: ny/buffalo/bestself-behavioral-health-genesee-adams
  name: Bestself Behavioral Health Genesee Adams
  categories:
  - su-treatment
  - mh-treatment
  address:
    street: 695 Genesee Street
    city: Buffalo
    state: ny
    zip: '14211'
  place: '3611000'
  geo:
    lat: 42.89722
    lng: -78.85076
  phone: 716-710-5151
  website: https://www.bestselfwny.org
  sources:
  - samhsa/findtreatment
  verified:
    'on': '2026-07-19'
    method: api
- id: ny/buffalo/bestself-behavioral-health-inc-act-aspire
  name: Bestself Behavioral Health Inc ACT Aspire
  categories:
  - su-treatment
  - mh-treatment
  address:
    street: 1050 Niagara Street
    city: Buffalo
    state: ny
    zip: '14213'
  place: '3611000'
  geo:
    lat: 42.91214
    lng: -78.90072
  phone: 716-842-0440
  website: https://www.bestselfwny.org
  sources:
  - samhsa/findtreatment
  verified:
    'on': '2026-07-19'
    method: api
- id: ny/buffalo/bestself-behavioral-health-inc-act-empower-young
  name: Bestself Behavioral Health Inc ACT Empower/Young Adult ACT
  categories:
  - su-treatment
  - mh-treatment
  address:
    street: 1050 Niagara Street
    city: Buffalo
    state: ny
    zip: '14213'
  place: '3611000'
  geo:
    lat: 42.91214
    lng: -78.90072
  phone: 716-842-0440
  website: https://www.bestselfwny.org
  sources:
  - samhsa/findtreatment
  verified:
    'on': '2026-07-19'
    method: api
- id: ny/buffalo/bestself-behavioral-health-inc-act-impact
  name: Bestself Behavioral Health Inc ACT Impact
  categories:
  - su-treatment
  - mh-treatment
  address:
    street: 1050 Niagara Street
    city: Buffalo
    state: ny
    zip: '14213'
  place: '3611000'
  geo:
    lat: 42.91214
    lng: -78.90072
  phone: 716-842-0440
  website: https://www.bestselfwny.org
  sources:
  - samhsa/findtreatment
  verified:
    'on': '2026-07-19'
    method: api
- id: ny/buffalo/bestself-behavioral-health-inc-act-renew
  name: Bestself Behavioral Health Inc ACT Renew
  categories:
  - su-treatment
  - mh-treatment
  address:
    street: 1050 Niagara Street
    city: Buffalo
    state: ny
    zip: '14213'
  place: '3611000'
  geo:
    lat: 42.91214
    lng: -78.90072
  phone: 716-842-0440
  website: https://www.bestselfwny.org
  sources:
  - samhsa/findtreatment
  verified:
    'on': '2026-07-19'
    method: api
- id: ny/buffalo/bestself-behavioral-health-lower-west-side
  name: BestSelf Behavioral Health Lower West Side
  categories:
  - su-treatment
  - mh-treatment
  address:
    street: 1050 Niagara Street
    city: Buffalo
    state: ny
    zip: '14213'
  place: '3611000'
  geo:
    lat: 42.91214
    lng: -78.90072
  phone: 716-884-0700
  website: https://www.bestselfwny.org
  sources:
  - samhsa/findtreatment
  verified:
    'on': '2026-07-19'
    method: api
- id: ny/buffalo/bestself-behavioral-health-university-branch
  name: BestSelf Behavioral Health University Branch
  categories:
  - su-treatment
  - mh-treatment
  address:
    street: 3350 Main Street
    city: Buffalo
    state: ny
    zip: '14214'
  place: '3611000'
  geo:
    lat: 42.95474
    lng: -78.82237
  phone: 716-835-4011
  website: https://www.bestselfwny.org
  sources:
  - samhsa/findtreatment
  verified:
    'on': '2026-07-19'
    method: api
- id: ny/buffalo/blessing-box-at-lafayette-church
  name: Blessing Box at Lafayette Church
  categories:
  - food-pantry
  place: '3611000'
  geo:
    lat: 42.92095
    lng: -78.87652
  external_ids:
    lfp: '1687'
  sources:
  - littlefreepantry/map
  verified:
    'on': '2026-07-19'
    method: scrape
- id: ny/buffalo/bpn-academy
  name: BPN Academy
  categories:
  - child-care
  address:
    street: 3149 Bailey Ave
    city: Buffalo
    state: ny
    zip: '14215'
  place: '3611000'
  geo:
    lat: 42.94075
    lng: -78.81322
  phone: 716-393-9909
  sources:
  - acf/head-start-locations
  verified:
    'on': '2026-07-19'
    method: api
- id: ny/buffalo/buffalo-central-library-comfort-station-little-f
  name: 'Buffalo Central Library Comfort Station: Little Free Pantry for Families'
  categories:
  - food-pantry
  place: '3611000'
  geo:
    lat: 42.88529
    lng: -78.87175
  external_ids:
    lfp: '2781'
  sources:
  - littlefreepantry/map
  verified:
    'on': '2026-07-19'
    method: scrape
- id: ny/buffalo/buffalo-community-fridge
  name: Buffalo Community Fridge
  categories:
  - food-pantry
  place: '3611000'
  geo:
    lat: 42.91498
    lng: -78.8547
  external_ids:
    lfp: '1868'
  sources:
  - littlefreepantry/map
  verified:
    'on': '2026-07-19'
    method: scrape
- id: ny/buffalo/buffalo-municipal-housing-authority
  name: Buffalo Municipal Housing Authority
  categories:
  - housing-assistance
  address: {street: 300 Perry St, city: Buffalo, state: ny, zip: '14204'}
  description: Public housing and Housing Choice Voucher agency
  place: '3611000'
  geo: {lat: 42.87428, lng: -78.86618}
  phone: 716-855-6711
  sources:
  - hud/resource-locator
  verified: {'on': '2026-07-19', method: api}
- id: ny/buffalo/buffalo-psychiatric-center
  name: Buffalo Psychiatric Center
  categories:
  - su-treatment
  - mh-treatment
  address:
    street: 400 Forest Avenue
    city: Buffalo
    state: ny
    zip: '14213'
  place: '3611000'
  geo:
    lat: 42.92904
    lng: -78.88016
  phone: 716-885-2261 x2003
  website: https://omh.ny.gov/omhwb/facilities/bupc/
  sources:
  - samhsa/findtreatment
  verified:
    'on': '2026-07-19'
    method: api
- id: ny/buffalo/casa-di-vita-residential-reintegration
  name: Casa Di Vita Residential Reintegration
  categories:
  - su-treatment
  address:
    street: 200 Albany Street
    city: Buffalo
    state: ny
    zip: '14213'
  place: '3611000'
  geo:
    lat: 42.91313
    lng: -78.89405
  phone: 716-882-2108
  website: https://www.cazenoviarecovery.org
  sources:
  - samhsa/findtreatment
  verified:
    'on': '2026-07-19'
    method: api
- id: ny/buffalo/catholic-charities-of-buffalo-monsignor-carr-ins
  name: Catholic Charities of Buffalo Monsignor Carr Institute Cheektowaga
  categories:
  - su-treatment
  - mh-treatment
  address:
    street: 2875 Union Road
    city: Buffalo
    state: ny
    zip: '14227'
  place: '3611000'
  geo:
    lat: 42.89059
    lng: -78.75205
  phone: 716-685-9087
  website: https://www.ccwny.org
  sources:
  - samhsa/findtreatment
  verified:
    'on': '2026-07-19'
    method: api
- id: ny/buffalo/catholic-charities-of-buffalo-monsignor-carr-ins-2
  name: Catholic Charities of Buffalo Monsignor Carr Institute Humboldt
  categories:
  - su-treatment
  - mh-treatment
  address:
    street: 76 West Humboldt Parkway
    city: Buffalo
    state: ny
    zip: '14214'
  place: '3611000'
  geo:
    lat: 42.93011
    lng: -78.85372
  phone: 716-835-9745
  website: https://www.ccwny.org
  sources:
  - samhsa/findtreatment
  verified:
    'on': '2026-07-19'
    method: api
- id: ny/buffalo/cazenovia-manor-residential-rehabilitation
  name: Cazenovia Manor Residential Rehabilitation
  categories:
  - su-treatment
  address:
    street: 486 North Legion Drive
    city: Buffalo
    state: ny
    zip: '14210'
  place: '3611000'
  geo:
    lat: 42.85319
    lng: -78.8111
  phone: 716-822-8932
  website: https://www.cazenoviarecovery.org
  sources:
  - samhsa/findtreatment
  verified:
    'on': '2026-07-19'
    method: api
- id: ny/buffalo/central-center
  name: Central Center
  categories:
  - child-care
  address:
    street: 89 Military Rd
    city: Buffalo
    state: ny
    zip: '14207'
  place: '3611000'
  geo:
    lat: 42.93911
    lng: -78.89199
  phone: 716-875-1506
  sources:
  - acf/head-start-locations
  verified:
    'on': '2026-07-19'
    method: api
- id: ny/buffalo/chcb-benwood
  name: CHCB Benwood
  categories:
  - community-health-center
  address:
    street: 34 Benwood Ave
    city: Buffalo
    state: ny
    zip: '14214'
  place: '3611000'
  geo:
    lat: 42.94198
    lng: -78.8342
  phone: 716-986-9199
  website: https://www.chcb.net
  external_ids:
    bphc: BPS-H80-010603
  sources:
  - hrsa/health-center-sites
  verified:
    'on': '2026-07-19'
    method: api
- id: ny/buffalo/chcb-bfnc
  name: CHCB-BFNC
  categories:
  - community-health-center
  address:
    street: 421 Monroe Street
    city: Buffalo
    state: ny
    zip: '14212'
  place: '3611000'
  geo:
    lat: 42.89176
    lng: -78.85173
  phone: 716-986-9199
  external_ids:
    bphc: BPS-H80-033973
  sources:
  - hrsa/health-center-sites
  verified:
    'on': '2026-07-19'
    method: api
- id: ny/buffalo/child-and-family-services
  name: Child and Family Services
  categories:
  - mh-treatment
  address:
    street: 330 Delaware Avenue
    city: Buffalo
    state: ny
    zip: '14202'
  place: '3611000'
  geo:
    lat: 42.89328
    lng: -78.87628
  phone: 716-842-2750
  website: https://cfsbny.org
  sources:
  - samhsa/findtreatment
  verified:
    'on': '2026-07-19'
    method: api
- id: ny/buffalo/child-and-family-services-2
  name: Child and Family Services
  categories:
  - mh-treatment
  address:
    street: 3901 Genesee Street
    city: Buffalo
    state: ny
    zip: '14225'
  place: '3611000'
  geo:
    lat: 42.92917
    lng: -78.74111
  phone: 716-842-2750
  website: https://cfsbny.org
  sources:
  - samhsa/findtreatment
  verified:
    'on': '2026-07-19'
    method: api
- id: ny/buffalo/child-and-family-services-lee-randall-jones-chil
  name: Child and Family Services Lee Randall Jones Childrens Residence
  categories:
  - su-treatment
  - mh-treatment
  address:
    street: 824 Delaware Avenue
    city: Buffalo
    state: ny
    zip: '14209'
  place: '3611000'
  phone: 716-894-1981
  website: https://www.cfsbny.org/programs/residential
  sources:
  - samhsa/findtreatment
  verified:
    'on': '2026-07-19'
    method: api
- id: ny/buffalo/city-of-buffalo
  name: City Of Buffalo
  categories:
  - housing-assistance
  address: {street: 470 Franklin St, city: Buffalo, state: ny, zip: '14202'}
  description: Housing Choice Voucher (Section 8) agency
  place: '3611000'
  geo: {lat: 42.89863, lng: -78.87277}
  phone: 716-882-0063
  sources:
  - hud/resource-locator
  verified: {'on': '2026-07-19', method: api}
- id: ny/buffalo/city-of-north-tonawanda
  name: City Of North Tonawanda
  categories:
  - housing-assistance
  address: {street: 2393 Main St, city: Buffalo, state: ny, zip: '14214'}
  description: Housing Choice Voucher (Section 8) agency
  place: '3611000'
  geo: {lat: 42.93441, lng: -78.84456}
  phone: 716-884-7791
  sources:
  - hud/resource-locator
  verified: {'on': '2026-07-19', method: api}
- id: ny/buffalo/community-health-center-of-cheektowaga
  name: Community Health Center of Cheektowaga
  categories:
  - community-health-center
  address:
    street: 934 Cleveland Dr
    city: Buffalo
    state: ny
    zip: '14225'
  place: '3611000'
  geo:
    lat: 42.94552
    lng: -78.76491
  phone: 716-986-9199
  external_ids:
    bphc: BPS-H80-017634
  sources:
  - hrsa/health-center-sites
  verified:
    'on': '2026-07-19'
    method: api
- id: ny/buffalo/deuxanges-center-inc
  name: Deuxanges Center Inc.
  categories:
  - child-care
  address:
    street: 921 Niagara St
    city: Buffalo
    state: ny
    zip: '14213'
  place: '3611000'
  geo:
    lat: 42.90834
    lng: -78.89839
  phone: 716-768-8275
  sources:
  - acf/head-start-locations
  verified:
    'on': '2026-07-19'
    method: api
- id: ny/buffalo/dewitt-center
  name: Dewitt Center
  categories:
  - child-care
  address:
    street: 368 Dewitt St
    city: Buffalo
    state: ny
    zip: '14213'
  place: '3611000'
  geo:
    lat: 42.9269
    lng: -78.89466
  phone: 716-424-0571
  sources:
  - acf/head-start-locations
  verified:
    'on': '2026-07-19'
    method: api
- id: ny/buffalo/dewitt-street-free-pantry
  name: Dewitt Street Free Pantry
  categories:
  - food-pantry
  place: '3611000'
  geo:
    lat: 42.92058
    lng: -78.89517
  external_ids:
    lfp: '4006'
  sources:
  - littlefreepantry/map
  verified:
    'on': '2026-07-19'
    method: scrape
- id: ny/buffalo/dewitt-street-pantry
  name: Dewitt Street Pantry
  categories:
  - food-pantry
  place: '3611000'
  geo:
    lat: 42.92055
    lng: -78.895
  external_ids:
    lfp: '4304'
  sources:
  - littlefreepantry/map
  verified:
    'on': '2026-07-19'
    method: scrape
- id: ny/buffalo/eckhardts-academy
  name: Eckhardts Academy
  categories:
  - child-care
  address:
    street: 950 Broadway St
    city: Buffalo
    state: ny
    zip: '14212'
  place: '3611000'
  geo:
    lat: 42.8932
    lng: -78.83974
  phone: 716-819-8696
  sources:
  - acf/head-start-locations
  verified:
    'on': '2026-07-19'
    method: api
- id: ny/buffalo/ehs-inc-evergreen-health-services-mh-omh-op
  name: EHS Inc Evergreen Health Services MH OMH OP
  categories:
  - su-treatment
  - mh-treatment
  address:
    street: 206 South Elmwood Avenue
    city: Buffalo
    state: ny
    zip: '14201'
  place: '3611000'
  geo:
    lat: 42.89082
    lng: -78.87866
  phone: 716-847-2441
  website: https://www.evergreenhs.org
  sources:
  - samhsa/findtreatment
  verified:
    'on': '2026-07-19'
    method: api
- id: ny/buffalo/ehs-inc-evergreen-health-services-sup-op
  name: EHS Inc Evergreen Health Services SUP OP
  categories:
  - su-treatment
  address:
    street: 206 South Elmwood Avenue
    city: Buffalo
    state: ny
    zip: '14201'
  place: '3611000'
  geo:
    lat: 42.89082
    lng: -78.87866
  phone: 716-847-2441
  website: https://www.evergreenhs.org
  sources:
  - samhsa/findtreatment
  verified:
    'on': '2026-07-19'
    method: api
- id: ny/buffalo/endeavor-health-services-behavioral-health-clini
  name: Endeavor Health Services Behavioral Health Clinic
  categories:
  - su-treatment
  - mh-treatment
  address:
    street: 608 William Street
    city: Buffalo
    state: ny
    zip: '14206'
  place: '3611000'
  geo:
    lat: 42.88542
    lng: -78.84839
  phone: 716-895-6700
  website: https://www.ehsny.org
  sources:
  - samhsa/findtreatment
  verified:
    'on': '2026-07-19'
    method: api
- id: ny/buffalo/endeavor-health-services-behavioral-health-clini-2
  name: Endeavor Health Services Behavioral Health Clinic
  categories:
  - su-treatment
  - mh-treatment
  address:
    street: 1131 Broadway Street
    city: Buffalo
    state: ny
    zip: '14212'
  place: '3611000'
  geo:
    lat: 42.89402
    lng: -78.83288
  phone: 716-896-7350
  website: https://www.ehsny.org
  sources:
  - samhsa/findtreatment
  verified:
    'on': '2026-07-19'
    method: api
- id: ny/buffalo/endeavor-health-services-behavioral-health-clini-3
  name: Endeavor Health Services Behavioral Health Clinic
  categories:
  - su-treatment
  address:
    street: 1526 Walden Avenue
    city: Buffalo
    state: ny
    zip: '14225'
  place: '3611000'
  geo:
    lat: 42.90744
    lng: -78.78169
  phone: 716-895-6700
  website: https://www.ehsny.org
  sources:
  - samhsa/findtreatment
  verified:
    'on': '2026-07-19'
    method: api
- id: ny/buffalo/endeavor-health-services-occbhc-behavioral-healt
  name: Endeavor Health Services OCCBHC Behavioral Health Clinic
  categories:
  - su-treatment
  - mh-treatment
  address:
    street: 1131 Broadway Street
    city: Buffalo
    state: ny
    zip: '14212'
  place: '3611000'
  geo:
    lat: 42.89403
    lng: -78.83282
  phone: 716-896-7350
  website: https://www.ehsny.org
  sources:
  - samhsa/findtreatment
  verified:
    'on': '2026-07-19'
    method: api
- id: ny/buffalo/endeavor-health-services-urban-family-practice
  name: Endeavor Health Services Urban Family Practice
  categories:
  - su-treatment
  - mh-treatment
  address:
    street: 564 Niagara Street
    city: Buffalo
    state: ny
    zip: '14201'
  place: '3611000'
  geo:
    lat: 42.89879
    lng: -78.89026
  phone: 716-895-6700
  website: https://www.ehsny.org
  sources:
  - samhsa/findtreatment
  verified:
    'on': '2026-07-19'
    method: api
- id: ny/buffalo/erie-county-medical-center-corporation-adult-and
  name: Erie County Medical Center Corporation Adult and Family Clinic
  categories:
  - mh-treatment
  address:
    street: 462 Grider Street
    city: Buffalo
    state: ny
    zip: '14215'
  place: '3611000'
  geo:
    lat: 42.92808
    lng: -78.83141
  phone: 716-898-3000
  website: https://www.ecmc.edu
  sources:
  - samhsa/findtreatment
  verified:
    'on': '2026-07-19'
    method: api
- id: ny/buffalo/erie-county-medical-center-corporation-outpatien
  name: Erie County Medical Center Corporation Outpatient
  categories:
  - su-treatment
  - mh-treatment
  address:
    street: 1285 Main Street
    city: Buffalo
    state: ny
    zip: '14209'
  place: '3611000'
  geo:
    lat: 42.90846
    lng: -78.8662
  phone: 716-961-6944
  website: https://www.ecmc.edu
  sources:
  - samhsa/findtreatment
  verified:
    'on': '2026-07-19'
    method: api
- id: ny/buffalo/erie-county-medical-center-cpep
  name: Erie County Medical Center CPEP
  categories:
  - su-treatment
  - mh-treatment
  address:
    street: 462 Grider Street
    city: Buffalo
    state: ny
    zip: '14215'
  place: '3611000'
  geo:
    lat: 42.92454
    lng: -78.83262
  phone: 716-898-3000
  website: https://www.ecmc.edu
  sources:
  - samhsa/findtreatment
  verified:
    'on': '2026-07-19'
    method: api
- id: ny/buffalo/erie-county-medical-center-partial-hospital-prog
  name: Erie County Medical Center Partial Hospital Program
  categories:
  - mh-treatment
  address:
    street: 462 Grider Street
    city: Buffalo
    state: ny
    zip: '14215'
  place: '3611000'
  geo:
    lat: 42.92454
    lng: -78.83262
  phone: 716-898-3000
  website: https://www.ecmc.edu
  sources:
  - samhsa/findtreatment
  verified:
    'on': '2026-07-19'
    method: api
- id: ny/buffalo/evergreen-health-bailey-ave
  name: Evergreen Health - Bailey Ave.
  categories:
  - community-health-center
  address:
    street: 3297 Bailey Ave
    city: Buffalo
    state: ny
    zip: '14215'
  place: '3611000'
  geo:
    lat: 42.94458
    lng: -78.81364
  phone: 716-847-2441
  website: https://www.evergreenhs.org
  external_ids:
    bphc: BPS-LAL-031687
  sources:
  - hrsa/health-center-sites
  verified:
    'on': '2026-07-19'
    method: api
- id: ny/buffalo/evergreen-health-elmwood-ave
  name: Evergreen Health - Elmwood Ave.
  categories:
  - community-health-center
  address:
    street: 206 S Elmwood Ave
    city: Buffalo
    state: ny
    zip: '14201'
  place: '3611000'
  geo:
    lat: 42.89095
    lng: -78.87859
  phone: 716-847-2441
  website: https://www.evergreenhs.org
  external_ids:
    bphc: BPS-LAL-031685
  sources:
  - hrsa/health-center-sites
  verified:
    'on': '2026-07-19'
    method: api
- id: ny/buffalo/evergreen-health-evergreen-commons
  name: Evergreen Health - Evergreen Commons
  categories:
  - community-health-center
  address:
    street: 67 Prospect Ave
    city: Buffalo
    state: ny
    zip: '14201'
  place: '3611000'
  geo:
    lat: 42.89134
    lng: -78.88108
  phone: 716-847-2441
  website: https://www.evergreenhs.org
  external_ids:
    bphc: BPS-LAL-031698
  sources:
  - hrsa/health-center-sites
  verified:
    'on': '2026-07-19'
    method: api
- id: ny/buffalo/evergreen-health-hertel-ave
  name: Evergreen Health - Hertel Ave.
  categories:
  - community-health-center
  address:
    street: 800 Hertel Ave
    city: Buffalo
    state: ny
    zip: '14207'
  place: '3611000'
  geo:
    lat: 42.94842
    lng: -78.87957
  phone: 716-847-2441
  website: https://www.evergreenhs.org
  external_ids:
    bphc: BPS-LAL-033019
  sources:
  - hrsa/health-center-sites
  verified:
    'on': '2026-07-19'
    method: api
- id: ny/buffalo/evergreen-health-hertel-ave-pharmacy
  name: Evergreen Health - Hertel Ave. Pharmacy
  categories:
  - community-health-center
  address:
    street: 800 Hertel Ave
    city: Buffalo
    state: ny
    zip: '14207'
  place: '3611000'
  geo:
    lat: 42.94842
    lng: -78.87957
  phone: 716-847-2441
  external_ids:
    bphc: BPS-LAL-036183
  sources:
  - hrsa/health-center-sites
  verified:
    'on': '2026-07-19'
    method: api
- id: ny/buffalo/evergreen-health-watkins-building
  name: Evergreen Health - Watkins Building
  categories:
  - community-health-center
  address:
    street: 170 W Chippewa St
    city: Buffalo
    state: ny
    zip: '14201'
  place: '3611000'
  geo:
    lat: 42.89096
    lng: -78.87931
  phone: 716-847-2441
  website: https://www.evergreenhs.org
  external_ids:
    bphc: BPS-LAL-031699
  sources:
  - hrsa/health-center-sites
  verified:
    'on': '2026-07-19'
    method: api
- id: ny/buffalo/family-help-center
  name: Family Help Center
  categories:
  - child-care
  address:
    street: 60 Dingens St
    city: Buffalo
    state: ny
    zip: '14206'
  place: '3611000'
  geo:
    lat: 42.87806
    lng: -78.81344
  phone: 716-822-5037
  sources:
  - acf/head-start-locations
  verified:
    'on': '2026-07-19'
    method: api
- id: ny/buffalo/farber-lakes-behavioral-health-clinic
  name: Farber Lakes Behavioral Health Clinic
  categories:
  - su-treatment
  - mh-treatment
  address:
    street: 531 Lakes Drive
    city: Buffalo
    state: ny
    zip: '14221'
  place: '3611000'
  geo:
    lat: 42.96395
    lng: -78.73781
  phone: 716-895-6700
  website: https://
  sources:
  - samhsa/findtreatment
  verified:
    'on': '2026-07-19'
    method: api
- id: ny/buffalo/ferry-head-start-academy
  name: Ferry Head Start Academy
  categories:
  - child-care
  address:
    street: 909 E Ferry St
    city: Buffalo
    state: ny
    zip: '14211'
  place: '3611000'
  geo:
    lat: 42.91451
    lng: -78.83044
  phone: 716-348-3322
  sources:
  - acf/head-start-locations
  verified:
    'on': '2026-07-19'
    method: api
- id: ny/buffalo/first-friends
  name: First Friends
  categories:
  - child-care
  address:
    street: 1553 Harlem Rd
    city: Buffalo
    state: ny
    zip: '14206'
  place: '3611000'
  geo:
    lat: 42.88548
    lng: -78.78416
  sources:
  - acf/head-start-locations
  verified:
    'on': '2026-07-19'
    method: api
- id: ny/buffalo/gateway-longview-inc
  name: Gateway Longview Inc
  categories:
  - su-treatment
  - mh-treatment
  address:
    street: '- - -'
    city: Buffalo
    state: ny
    zip: '14201'
  place: '3611000'
  geo:
    lat: 42.8954
    lng: -78.8862
  phone: 716-783-3221
  website: https://www.gateway-longview.org
  sources:
  - samhsa/findtreatment
  verified:
    'on': '2026-07-19'
    method: api
- id: ny/buffalo/greenwood-residences-inc
  name: Greenwood Residences Inc
  categories:
  - mh-treatment
  address:
    street: 389 Elmwood Avenue
    city: Buffalo
    state: ny
    zip: '14224'
  place: '3611000'
  phone: 716-827-4060
  website: https://
  sources:
  - samhsa/findtreatment
  verified:
    'on': '2026-07-19'
    method: api
- id: ny/buffalo/holy-cross-main
  name: Holy Cross Main
  categories:
  - child-care
  address:
    street: 150 Maryland St
    city: Buffalo
    state: ny
    zip: '14201'
  place: '3611000'
  geo:
    lat: 42.895
    lng: -78.88672
  phone: 716-852-8373
  sources:
  - acf/head-start-locations
  verified:
    'on': '2026-07-19'
    method: api
- id: ny/buffalo/hope-refugee-drop-in-center
  name: Hope Refugee Drop-In Center
  categories:
  - community-health-center
  address:
    street: 248 W Ferry St
    city: Buffalo
    state: ny
    zip: '14213'
  place: '3611000'
  geo:
    lat: 42.91525
    lng: -78.89243
  phone: 716-881-0539
  website: https://www.jrchc.org
  external_ids:
    bphc: BPS-H80-030516
  sources:
  - hrsa/health-center-sites
  verified:
    'on': '2026-07-19'
    method: api
- id: ny/buffalo/horizon-health-services-inc-bailey-recovery-cent
  name: Horizon Health Services Inc Bailey Recovery Center
  categories:
  - su-treatment
  - mh-treatment
  address:
    street: 3020 Bailey Avenue
    city: Buffalo
    state: ny
    zip: '14215'
  place: '3611000'
  geo:
    lat: 42.93707
    lng: -78.81393
  phone: 716-833-3622
  website: https://www.horizon-health.org
  sources:
  - samhsa/findtreatment
  verified:
    'on': '2026-07-19'
    method: api
- id: ny/buffalo/horizon-health-services-inc-broadway-recovery-ce
  name: Horizon Health Services Inc Broadway Recovery Center
  categories:
  - su-treatment
  - mh-treatment
  address:
    street: 77 Broadway
    city: Buffalo
    state: ny
    zip: '14203'
  place: '3611000'
  geo:
    lat: 42.88603
    lng: -78.86967
  phone: 716-834-6401
  website: https://www.horizon-health.org
  sources:
  - samhsa/findtreatment
  verified:
    'on': '2026-07-19'
    method: api
- id: ny/buffalo/horizon-health-services-inc-hertel-recovery-cent
  name: Horizon Health Services Inc Hertel Recovery Center
  categories:
  - su-treatment
  - mh-treatment
  address:
    street: 699 Hertel Avenue
    city: Buffalo
    state: ny
    zip: '14207'
  place: '3611000'
  geo:
    lat: 42.94716
    lng: -78.88294
  phone: 716-831-1977
  website: https://www.horizon-health.org
  sources:
  - samhsa/findtreatment
  verified:
    'on': '2026-07-19'
    method: api
- id: ny/buffalo/horizon-health-services-inc-union-losson-recover
  name: Horizon Health Services Inc Union Losson Recovery Center
  categories:
  - su-treatment
  - mh-treatment
  address:
    street: 2563 Union Road
    city: Buffalo
    state: ny
    zip: '14227'
  place: '3611000'
  geo:
    lat: 42.88134
    lng: -78.75327
  phone: 716-668-7622
  website: https://www.horizon-health.org
  sources:
  - samhsa/findtreatment
  verified:
    'on': '2026-07-19'
    method: api
- id: ny/buffalo/jericho-road-chc-barton
  name: Jericho Road CHC (Barton)
  categories:
  - community-health-center
  address:
    street: 184 Barton St
    city: Buffalo
    state: ny
    zip: '14213'
  place: '3611000'
  geo:
    lat: 42.9179
    lng: -78.89466
  phone: 716-881-6191
  website: https://www.jrchc.org
  external_ids:
    bphc: BPS-H80-013172
  sources:
  - hrsa/health-center-sites
  verified:
    'on': '2026-07-19'
    method: api
- id: ny/buffalo/jericho-road-community-health-center-breckenridg
  name: Jericho Road Community Health Center Breckenridge
  categories:
  - community-health-center
  address:
    street: 182 Breckenridge St
    city: Buffalo
    state: ny
    zip: '14213'
  place: '3611000'
  geo:
    lat: 42.91697
    lng: -78.89488
  phone: 716-348-3011
  external_ids:
    bphc: BPS-H80-032831
  sources:
  - hrsa/health-center-sites
  verified:
    'on': '2026-07-19'
    method: api
- id: ny/buffalo/jericho-road-community-health-center-broadway
  name: Jericho Road Community Health Center (Broadway)
  categories:
  - community-health-center
  address:
    street: 1021 Broadway St
    city: Buffalo
    state: ny
    zip: '14212'
  place: '3611000'
  geo:
    lat: 42.89298
    lng: -78.83655
  phone: 716-529-3020
  external_ids:
    bphc: BPS-H80-022311
  sources:
  - hrsa/health-center-sites
  verified:
    'on': '2026-07-19'
    method: api
- id: ny/buffalo/jericho-road-community-health-center-city-missio
  name: Jericho Road Community Health Center (City Mission)
  categories:
  - community-health-center
  address:
    street: 100 E Tupper St
    city: Buffalo
    state: ny
    zip: '14203'
  place: '3611000'
  geo:
    lat: 42.89291
    lng: -78.86856
  phone: 716-881-6191
  external_ids:
    bphc: BPS-H80-030713
  sources:
  - hrsa/health-center-sites
  verified:
    'on': '2026-07-19'
    method: api
- id: ny/buffalo/jericho-road-community-health-center-doat-street
  name: Jericho Road Community Health Center-Doat Street
  categories:
  - community-health-center
  address:
    street: 21 Doat St
    city: Buffalo
    state: ny
    zip: '14211'
  place: '3611000'
  geo:
    lat: 42.90933
    lng: -78.81906
  phone: 716-881-6191
  external_ids:
    bphc: BPS-H80-032610
  sources:
  - hrsa/health-center-sites
  verified:
    'on': '2026-07-19'
    method: api
- id: ny/buffalo/jericho-road-community-health-center-vive-shelte
  name: Jericho Road Community Health Center Vive Shelter
  categories:
  - community-health-center
  address:
    street: 1500 Main St
    city: Buffalo
    state: ny
    zip: '14209'
  place: '3611000'
  geo:
    lat: 42.91413
    lng: -78.86496
  phone: 716-340-3000
  external_ids:
    bphc: BPS-H80-040090
  sources:
  - hrsa/health-center-sites
  verified:
    'on': '2026-07-19'
    method: api
- id: ny/buffalo/jewish-fam-servs-of-western-new-york
  name: Jewish Fam Servs of Western New York
  categories:
  - su-treatment
  - mh-treatment
  address:
    street: 1170 Main Street
    city: Buffalo
    state: ny
    zip: '14209'
  place: '3611000'
  geo:
    lat: 42.90549
    lng: -78.86878
  phone: 716-883-1914
  website: https://www.jfsbuffalo.org
  sources:
  - samhsa/findtreatment
  verified:
    'on': '2026-07-19'
    method: api
- id: ny/buffalo/kidz-zone
  name: Kidz Zone
  categories:
  - child-care
  address:
    street: 2680 Main St
    city: Buffalo
    state: ny
    zip: '14214'
  place: '3611000'
  geo:
    lat: 42.94054
    lng: -78.83813
  phone: 716-835-5439
  sources:
  - acf/head-start-locations
  verified:
    'on': '2026-07-19'
    method: api
- id: ny/buffalo/lighthouse-center-inc
  name: LIghthouse Center, Inc.
  categories:
  - child-care
  address:
    street: 1166 Jefferson Ave
    street2: Ste E
    city: Buffalo
    state: ny
    zip: '14208'
  place: '3611000'
  geo:
    lat: 42.90703
    lng: -78.85411
  phone: 716-436-2004
  sources:
  - acf/head-start-locations
  verified:
    'on': '2026-07-19'
    method: api
- id: ny/buffalo/memorial-temple-early-head-start-academy
  name: Memorial Temple Early Head Start Academy
  categories:
  - child-care
  address:
    street: 800 Sycamore St
    city: Buffalo
    state: ny
    zip: '14212'
  place: '3611000'
  geo:
    lat: 42.89706
    lng: -78.8419
  phone: 716-894-0616
  sources:
  - acf/head-start-locations
  verified:
    'on': '2026-07-19'
    method: api
- id: ny/buffalo/mh-servs-erie-co-se-corp-v-dba-spectrum-h-servs
  name: MH Servs Erie Co SE Corp V DBA Spectrum H Servs Human Servs ACT
  categories:
  - su-treatment
  - mh-treatment
  address:
    street: 2040 Seneca Street
    city: Buffalo
    state: ny
    zip: '14210'
  place: '3611000'
  geo:
    lat: 42.85657
    lng: -78.8107
  phone: 716-662-2040
  website: https://shswny.org/
  sources:
  - samhsa/findtreatment
  verified:
    'on': '2026-07-19'
    method: api
- id: ny/buffalo/monsignor-carr-institute-satellite-clinic
  name: Monsignor Carr Institute Satellite Clinic
  categories:
  - su-treatment
  - mh-treatment
  address:
    street: 20 Rich Street
    city: Buffalo
    state: ny
    zip: '14211'
  place: '3611000'
  geo:
    lat: 42.90165
    lng: -78.84277
  phone: 716-277-9378
  website: https://www.ccwny.org
  sources:
  - samhsa/findtreatment
  verified:
    'on': '2026-07-19'
    method: api
- id: ny/buffalo/neighborhood-health-center-blasdell
  name: Neighborhood Health Center Blasdell
  categories:
  - community-health-center
  address:
    street: 4233 Lake Ave
    city: Buffalo
    state: ny
    zip: '14219'
  place: '3611000'
  geo:
    lat: 42.79709
    lng: -78.82231
  phone: 716-875-2904
  external_ids:
    bphc: BPS-H80-019451
  sources:
  - hrsa/health-center-sites
  verified:
    'on': '2026-07-19'
    method: api
- id: ny/buffalo/neighborhood-health-center-bridgeview
  name: Neighborhood Health Center Bridgeview
  categories:
  - community-health-center
  address:
    street: 1050 Niagara St
    city: Buffalo
    state: ny
    zip: '14213'
  place: '3611000'
  geo:
    lat: 42.91216
    lng: -78.90044
  phone: 716-710-4399
  external_ids:
    bphc: BPS-H80-034026
  sources:
  - hrsa/health-center-sites
  verified:
    'on': '2026-07-19'
    method: api
- id: ny/buffalo/neighborhood-health-center-mattina
  name: Neighborhood Health Center Mattina
  categories:
  - community-health-center
  address:
    street: 300 Niagara St
    city: Buffalo
    state: ny
    zip: '14201'
  place: '3611000'
  geo:
    lat: 42.89206
    lng: -78.88399
  phone: 716-875-2904
  website: https://nwbchcc.org
  external_ids:
    bphc: BPS-H80-010915
  sources:
  - hrsa/health-center-sites
  verified:
    'on': '2026-07-19'
    method: api
- id: ny/buffalo/neighborhood-health-center-mobile
  name: Neighborhood Health Center Mobile
  categories:
  - community-health-center
  address:
    street: 155 Lawn Ave
    city: Buffalo
    state: ny
    zip: '14207'
  place: '3611000'
  geo:
    lat: 42.95026
    lng: -78.88793
  phone: 716-875-2904
  external_ids:
    bphc: BPS-H80-027505
  sources:
  - hrsa/health-center-sites
  verified:
    'on': '2026-07-19'
    method: api
- id: ny/buffalo/neighborhood-health-center-northwest
  name: Neighborhood Health Center Northwest
  categories:
  - community-health-center
  address:
    street: 155 Lawn Ave
    city: Buffalo
    state: ny
    zip: '14207'
  place: '3611000'
  geo:
    lat: 42.95026
    lng: -78.88793
  phone: 716-875-2904
  website: https://www.nwbchcc.org
  external_ids:
    bphc: BPS-H80-002077
  sources:
  - hrsa/health-center-sites
  verified:
    'on': '2026-07-19'
    method: api
- id: ny/buffalo/neighborhood-health-center-riverway
  name: Neighborhood Health Center Riverway
  categories:
  - community-health-center
  address:
    street: 1569 Niagara St
    city: Buffalo
    state: ny
    zip: '14213'
  place: '3611000'
  geo:
    lat: 42.92731
    lng: -78.89719
  phone: 716-427-7000
  website: https://www.nhcwny.org
  external_ids:
    bphc: BPS-H80-034881
  sources:
  - hrsa/health-center-sites
  verified:
    'on': '2026-07-19'
    method: api
- id: ny/buffalo/north-buffalo-center
  name: North Buffalo Center
  categories:
  - child-care
  address:
    street: 203 Sanders Rd
    city: Buffalo
    state: ny
    zip: '14216'
  place: '3611000'
  geo:
    lat: 42.95669
    lng: -78.86224
  phone: 716-464-7771
  sources:
  - acf/head-start-locations
  verified:
    'on': '2026-07-19'
    method: api
- id: ny/buffalo/northern-erie-clinical-services-outpatient
  name: Northern Erie Clinical Services Outpatient
  categories:
  - su-treatment
  address:
    street: 2005 Sheridan Drive
    city: Buffalo
    state: ny
    zip: '14223'
  place: '3611000'
  geo:
    lat: 42.9804
    lng: -78.86015
  phone: 716-874-5536
  website: https://www.ecmc.edu
  sources:
  - samhsa/findtreatment
  verified:
    'on': '2026-07-19'
    method: api
- id: ny/buffalo/northwest-center
  name: Northwest Center
  categories:
  - child-care
  address:
    street: 155 Lawn Ave
    city: Buffalo
    state: ny
    zip: '14207'
  place: '3611000'
  geo:
    lat: 42.95028
    lng: -78.88802
  phone: 716-877-5022
  sources:
  - acf/head-start-locations
  verified:
    'on': '2026-07-19'
    method: api
- id: ny/buffalo/olv-human-services-residential-treatment-facilit
  name: OLV Human Services Residential Treatment Facility
  categories:
  - su-treatment
  - mh-treatment
  address:
    street: 150 Martin Road
    city: Buffalo
    state: ny
    zip: '14218'
  place: '3611000'
  geo:
    lat: 42.81839
    lng: -78.81853
  phone: 716-828-9491
  website: https://www.olvhumanservices.org
  sources:
  - samhsa/findtreatment
  verified:
    'on': '2026-07-19'
    method: api
- id: ny/buffalo/palmerton-place-rrh
  name: Palmerton Place RRh
  categories:
  - su-treatment
  - mh-treatment
  address:
    street: 920 Harlem Road
    city: Buffalo
    state: ny
    zip: '14224'
  place: '3611000'
  geo:
    lat: 42.86823
    lng: -78.78832
  phone: 716-842-0440
  website: https://www.ked.org/
  sources:
  - samhsa/findtreatment
  verified:
    'on': '2026-07-19'
    method: api
- id: ny/buffalo/preston-healthcare
  name: Preston Healthcare
  categories:
  - su-treatment
  - mh-treatment
  address:
    street: 626 North French Road
    city: Buffalo
    state: ny
    zip: '14228'
  place: '3611000'
  geo:
    lat: 43.03654
    lng: -78.80105
  phone: 716-564-3600
  website: https://prestonianhealth.com
  sources:
  - samhsa/findtreatment
  verified:
    'on': '2026-07-19'
    method: api
- id: ny/buffalo/promesa-inc
  name: Promesa Inc
  categories:
  - su-treatment
  - mh-treatment
  address:
    street: 254 Virginia Street
    city: Buffalo
    state: ny
    zip: '14201'
  place: '3611000'
  geo:
    lat: 42.8951
    lng: -78.88204
  phone: 716-768-4040 x107
  website: https://www.acacianetwork.org
  sources:
  - samhsa/findtreatment
  verified:
    'on': '2026-07-19'
    method: api
- id: ny/buffalo/promesa-inc-cop
  name: PROMESA Inc COP
  categories:
  - su-treatment
  - mh-treatment
  address:
    street: 254 Virginia Street
    city: Buffalo
    state: ny
    zip: '14201'
  place: '3611000'
  geo:
    lat: 42.8951
    lng: -78.88204
  phone: 716-768-4040
  website: https://www.acacianetwork.org
  sources:
  - samhsa/findtreatment
  verified:
    'on': '2026-07-19'
    method: api
- id: ny/buffalo/promesa-inc-methadone-clinic-2
  name: PROMESA Inc Methadone Clinic 2
  categories:
  - su-treatment
  - mh-treatment
  address:
    street: 254 Virginia Street
    city: Buffalo
    state: ny
    zip: '14201'
  place: '3611000'
  geo:
    lat: 42.8951
    lng: -78.88204
  phone: 716-768-4040 x107
  website: https://www.acacianetwork.org
  sources:
  - samhsa/findtreatment
  verified:
    'on': '2026-07-19'
    method: api
- id: ny/buffalo/puddle-jumpers
  name: Puddle Jumpers
  categories:
  - child-care
  address:
    street: 2422 Delaware Ave
    city: Buffalo
    state: ny
    zip: '14216'
  place: '3611000'
  geo:
    lat: 42.95004
    lng: -78.86925
  phone: 716-877-3700
  sources:
  - acf/head-start-locations
  verified:
    'on': '2026-07-19'
    method: api
- id: ny/buffalo/queen-city-early-childhood-center
  name: Queen City Early Childhood Center
  categories:
  - child-care
  address:
    street: 3242 Main St
    city: Buffalo
    state: ny
    zip: '14214'
  place: '3611000'
  geo:
    lat: 42.95244
    lng: -78.8251
  phone: 716-833-0138
  sources:
  - acf/head-start-locations
  verified:
    'on': '2026-07-19'
    method: api
- id: ny/buffalo/seneca-babcock-community-association-inc-hennepi
  name: Seneca Babcock Community Association Inc - Hennepin
  categories:
  - child-care
  address:
    street: 24 Ludington St
    city: Buffalo
    state: ny
    zip: '14206'
  place: '3611000'
  geo:
    lat: 42.88744
    lng: -78.8133
  phone: 716-436-4519
  sources:
  - acf/head-start-locations
  verified:
    'on': '2026-07-19'
    method: api
- id: ny/buffalo/sisters-health-center-amherst-pathways
  name: Sisters Health Center Amherst Pathways
  categories:
  - su-treatment
  address:
    street: 210 John Glenn Drive
    city: Buffalo
    state: ny
    zip: '14228'
  place: '3611000'
  geo:
    lat: 43.02813
    lng: -78.80579
  phone: 716-862-2059
  website: https://chsbuffalo.org
  sources:
  - samhsa/findtreatment
  verified:
    'on': '2026-07-19'
    method: api
- id: ny/buffalo/sisters-health-center-amherst-star-program
  name: Sisters Health Center Amherst STAR Program
  categories:
  - su-treatment
  address:
    street: 210 John Glenn Drive
    city: Buffalo
    state: ny
    zip: '14228'
  place: '3611000'
  geo:
    lat: 43.02813
    lng: -78.80579
  phone: 716-862-2059
  website: https://www.chsbuffalo.org
  sources:
  - samhsa/findtreatment
  verified:
    'on': '2026-07-19'
    method: api
- id: ny/buffalo/sisters-of-charity-hospital-buffalo-inpatient-re
  name: Sisters of Charity Hospital Buffalo Inpatient Rehabilitation
  categories:
  - su-treatment
  address:
    street: 2605 Harlem Road
    city: Buffalo
    state: ny
    zip: '14225'
  place: '3611000'
  phone: 716-298-2127
  website: https://chsbuffalo.org
  sources:
  - samhsa/findtreatment
  verified:
    'on': '2026-07-19'
    method: api
- id: ny/buffalo/sisters-of-charity-hospital-pathways-buffalo
  name: Sisters of Charity Hospital Pathways Buffalo
  categories:
  - su-treatment
  address:
    street: 158 Holden Street
    city: Buffalo
    state: ny
    zip: '14214'
  place: '3611000'
  geo:
    lat: 42.93723
    lng: -78.83534
  phone: 716-862-1330
  website: https://chsbuffalo.org
  sources:
  - samhsa/findtreatment
  verified:
    'on': '2026-07-19'
    method: api
- id: ny/buffalo/sisters-of-charity-hospital-star-saint-vincent
  name: Sisters of Charity Hospital STAR Saint Vincent
  categories:
  - su-treatment
  address:
    street: 1500 Broadway Street
    city: Buffalo
    state: ny
    zip: '14212'
  place: '3611000'
  geo:
    lat: 42.89652
    lng: -78.81944
  phone: 716-862-2059
  website: https://www.chsbuffalo.org
  sources:
  - samhsa/findtreatment
  verified:
    'on': '2026-07-19'
    method: api
- id: ny/buffalo/south-buffalo-counseling-center-occbhc
  name: South Buffalo Counseling Center OCCBHC
  categories:
  - su-treatment
  - mh-treatment
  address:
    street: 2412 Seneca Street
    city: Buffalo
    state: ny
    zip: '14210'
  place: '3611000'
  geo:
    lat: 42.849
    lng: -78.80062
  phone: 716-566-6507
  website: https://shswny.org
  sources:
  - samhsa/findtreatment
  verified:
    'on': '2026-07-19'
    method: api
- id: ny/buffalo/spectrum-health-and-human-services-southtowns-co
  name: Spectrum Health and Human Services Southtowns Counseling Services
  categories:
  - su-treatment
  address:
    street: 326 Orchard Park Road
    city: Buffalo
    state: ny
    zip: '14224'
  place: '3611000'
  geo:
    lat: 42.83678
    lng: -78.78676
  phone: 716-828-0560
  website: https://shswny.org
  sources:
  - samhsa/findtreatment
  verified:
    'on': '2026-07-19'
    method: api
- id: ny/buffalo/spectrum-health-occbhc
  name: Spectrum Health OCCBHC
  categories:
  - su-treatment
  - mh-treatment
  address:
    street: 1298 Main Street
    city: Buffalo
    state: ny
    zip: '14209'
  place: '3611000'
  geo:
    lat: 42.9092
    lng: -78.86746
  phone: 716-884-5797
  website: https://shswny.org
  sources:
  - samhsa/findtreatment
  verified:
    'on': '2026-07-19'
    method: api
- id: ny/buffalo/st-agatha-s-head-start-academy
  name: St. Agatha's Head Start Academy
  categories:
  - child-care
  address:
    street: 65 Abbott Rd
    city: Buffalo
    state: ny
    zip: '14220'
  place: '3611000'
  geo:
    lat: 42.85642
    lng: -78.827
  phone: 716-823-9757
  sources:
  - acf/head-start-locations
  verified:
    'on': '2026-07-19'
    method: api
- id: ny/buffalo/star-light-family-day-care-center
  name: Star Light Family Day Care Center
  categories:
  - child-care
  address:
    street: 1328 E Delavan Ave
    city: Buffalo
    state: ny
    zip: '14215'
  place: '3611000'
  geo:
    lat: 42.9229
    lng: -78.80774
  phone: 716-893-1747
  sources:
  - acf/head-start-locations
  verified:
    'on': '2026-07-19'
    method: api
- id: ny/buffalo/step-toward-success-scattered-site-reintegration
  name: Step Toward Success Scattered Site Reintegration
  categories:
  - su-treatment
  address:
    street: 2671 Main Street
    city: Buffalo
    state: ny
    zip: '14214'
  place: '3611000'
  geo:
    lat: 42.9397
    lng: -78.83762
  phone: 716-240-9120
  website: https://www.cazenoviarecovery.org
  sources:
  - samhsa/findtreatment
  verified:
    'on': '2026-07-19'
    method: api
- id: ny/buffalo/stutzman-addiction-treatment-center-chemical-dep
  name: Stutzman Addiction Treatment Center Chemical Dependency Inpt Rehab Program
  categories:
  - su-treatment
  address:
    street: 360 Forest Avenue
    city: Buffalo
    state: ny
    zip: '14213'
  place: '3611000'
  geo:
    lat: 42.92833
    lng: -78.88519
  phone: 716-796-0172
  website: https://www.oasas.ny.gov
  sources:
  - samhsa/findtreatment
  verified:
    'on': '2026-07-19'
    method: api
- id: ny/buffalo/terrace-house-med-sup-withdrawal-inpatient
  name: Terrace House Med Sup Withdrawal Inpatient
  categories:
  - su-treatment
  - mh-treatment
  address:
    street: 291 Elm Street
    city: Buffalo
    state: ny
    zip: '14203'
  place: '3611000'
  phone: 716-854-2444
  website: https://www.horizon-health.org
  sources:
  - samhsa/findtreatment
  verified:
    'on': '2026-07-19'
    method: api
- id: ny/buffalo/terrace-house-residential-stabilization
  name: Terrace House Residential Stabilization
  categories:
  - su-treatment
  address:
    street: 291 Elm Street
    city: Buffalo
    state: ny
    zip: '14203'
  place: '3611000'
  phone: 716-854-2444
  website: https://www.horizon-health.org
  sources:
  - samhsa/findtreatment
  verified:
    'on': '2026-07-19'
    method: api
- id: ny/buffalo/town-of-amherst
  name: Town Of Amherst
  categories:
  - housing-assistance
  address: {street: 2393 Main St, city: Buffalo, state: ny, zip: '14214'}
  description: Housing Choice Voucher (Section 8) agency
  place: '3611000'
  geo: {lat: 42.93441, lng: -78.84456}
  phone: 716-884-7791
  sources:
  - hud/resource-locator
  verified: {'on': '2026-07-19', method: api}
- id: ny/buffalo/transitional-services-inc-mica-enhancement-progr
  name: Transitional Services Inc MICA Enhancement Program TLOTS
  categories:
  - su-treatment
  - mh-treatment
  address:
    street: 389 Elmwood Avenue
    city: Buffalo
    state: ny
    zip: '14222'
  place: '3611000'
  geo:
    lat: 42.90766
    lng: -78.87663
  phone: 716-882-3404
  website: https://
  sources:
  - samhsa/findtreatment
  verified:
    'on': '2026-07-19'
    method: api
- id: ny/buffalo/unity-house-residential-reintegration
  name: Unity House Residential Reintegration
  categories:
  - su-treatment
  address:
    street: 923 Sycamore Street
    city: Buffalo
    state: ny
    zip: '14212'
  place: '3611000'
  geo:
    lat: 42.89792
    lng: -78.83725
  phone: 716-884-4952
  website: https://www.cazenoviarecovery.org
  sources:
  - samhsa/findtreatment
  verified:
    'on': '2026-07-19'
    method: api
- id: ny/buffalo/western-ny-childrens-psychiatric-ctr
  name: Western NY Childrens Psychiatric Ctr
  categories:
  - su-treatment
  - mh-treatment
  address:
    street: 1010 East and West Road
    city: Buffalo
    state: ny
    zip: '14224'
  place: '3611000'
  geo:
    lat: 42.82392
    lng: -78.73164
  phone: 716-677-7000
  website: https://omh.ny.gov
  sources:
  - samhsa/findtreatment
  verified:
    'on': '2026-07-19'
    method: api
- id: ny/buffalo/western-ny-childrens-psychiatric-ctr-community-s
  name: Western NY Childrens Psychiatric Ctr Community Services
  categories:
  - su-treatment
  - mh-treatment
  address:
    street: 575 Alberta Drive
    city: Buffalo
    state: ny
    zip: '14226'
  place: '3611000'
  geo:
    lat: 42.98673
    lng: -78.81579
  phone: 716-832-0720 x6852
  website: https://omh.ny.gov
  sources:
  - samhsa/findtreatment
  verified:
    'on': '2026-07-19'
    method: api
- id: ny/buffalo/ywca
  name: YWCA
  categories:
  - child-care
  address:
    street: 1005 Grant St
    city: Buffalo
    state: ny
    zip: '14207'
  place: '3611000'
  geo:
    lat: 42.94013
    lng: -78.89003
  phone: 716-447-1494
  sources:
  - acf/head-start-locations
  verified:
    'on': '2026-07-19'
    method: api
