- id: ny/canandaigua/canandaigua-va-medical-center
  name: Canandaigua VA Medical Center
  categories:
  - va-facility
  - health
  description: VA Medical Center (VAMC)
  address: {street: 400 Fort Hill Avenue, city: Canandaigua, state: ny, zip: '14424'}
  place: '3612144'
  geo: {lat: 42.90083, lng: -77.27086}
  phone: 585-393-7100
  website: https://www.va.gov/finger-lakes-health-care/locations/canandaigua-va-medical-center/
  hours:
  - {days: [mon, tue, wed, thu, fri], open: '08:00', close: '16:30'}
  external_ids: {va: vha_528A5}
  sources:
  - va/facilities-api
  verified: {'on': '2026-07-19', method: api}
- id: ny/canandaigua/clifton-springs-hospital-and-clinic-canandaigua
  name: Clifton Springs Hospital and Clinic Canandaigua Behavioral Health
  categories:
  - su-treatment
  - mh-treatment
  address:
    street: 35 North Street
    city: Canandaigua
    state: ny
    zip: '14424'
  place: '3612144'
  geo:
    lat: 42.90254
    lng: -77.29645
  phone: 585-394-0530
  website: https://www.rochesterregional.org
  sources:
  - samhsa/findtreatment
  verified:
    'on': '2026-07-19'
    method: api
- id: ny/canandaigua/jordan-health-at-ccia
  name: Jordan Health at CCIA
  categories:
  - community-health-center
  address:
    street: 120 N Main St
    city: Canandaigua
    state: ny
    zip: '14424'
  place: '3612144'
  geo:
    lat: 42.89125
    lng: -77.28492
  phone: 585-396-6980
  external_ids:
    bphc: BPS-H80-012226
  sources:
  - hrsa/health-center-sites
  verified:
    'on': '2026-07-19'
    method: api
- id: ny/canandaigua/noah-s-blessing-box
  name: Noah's Blessing Box
  categories:
  - food-pantry
  place: '3612144'
  geo:
    lat: 42.88529
    lng: -77.28522
  external_ids:
    lfp: '2686'
  sources:
  - littlefreepantry/map
  verified:
    'on': '2026-07-19'
    method: scrape
- id: ny/canandaigua/ontario-county-mental-health-center-canandaigua
  name: Ontario County Mental Health Center Canandaigua Clinic
  categories:
  - su-treatment
  - mh-treatment
  address:
    street: 3019 County Complex Drive
    city: Canandaigua
    state: ny
    zip: '14424'
  place: '3612144'
  geo:
    lat: 42.88346
    lng: -77.21033
  phone: 585-396-4363
  website: https://www.co.ontario.ny.us/
  sources:
  - samhsa/findtreatment
  verified:
    'on': '2026-07-19'
    method: api
