- id: ny/center-moriches/harbor-the-formerly-lamb-s-chapel
  name: Harbor, The (formerly Lamb's Chapel)
  org: ny/island-harvest
  categories:
  - food-pantry
  address: {street: 25 Frowein Road, city: Center Moriches, state: ny, zip: '11934'}
  place: '3613420'
  geo: {lat: 40.80873, lng: -72.78023}
  phone: 631-874-4180
  hours:
  - {days: [thu], open: '16:30', close: '18:00'}
  external_ids: {ny-island-harvest: '9109004'}
  sources:
  - foodbank/ny-island-harvest
  verified: {'on': '2026-07-21', method: api}
- id: ny/center-moriches/jcm-little-free-pantry
  name: JCM Little Free Pantry
  categories:
  - food-pantry
  place: '3613420'
  geo: {lat: 40.80046, lng: -72.78788}
  website: https://mapping.littlefreepantry.org/pantry/3562
  external_ids: {lfp: '3562'}
  sources:
  - littlefreepantry/map
  verified: {'on': '2026-07-19', method: scrape}
- id: ny/center-moriches/presbyterian-church-of-the-moriches
  name: Presbyterian Church of the Moriches
  org: ny/island-harvest
  categories:
  - food-pantry
  address: {street: 263 Main Street, city: Center Moriches, state: ny, zip: '11934'}
  place: '3613420'
  geo: {lat: 40.80045, lng: -72.78928}
  phone: 631-375-0368
  hours:
  - {days: [mon], open: '18:00', close: '19:30'}
  external_ids: {ny-island-harvest: '9109074'}
  sources:
  - foodbank/ny-island-harvest
  verified: {'on': '2026-07-21', method: api}
- id: ny/center-moriches/st-john-s-center-moriches
  name: St. John's Center Moriches
  org: ny/island-harvest
  categories:
  - food-pantry
  address: {street: 25 Ocean Ave, city: Center Moriches, state: ny, zip: '11940'}
  place: '3613420'
  geo: {lat: 40.79921, lng: -72.78678}
  phone: 631-878-0009
  hours:
  - {days: [mon], open: '18:30', close: '19:30'}
  - {days: [thu], open: '15:00', close: '16:00'}
  external_ids: {ny-island-harvest: '9109127'}
  sources:
  - foodbank/ny-island-harvest
  verified: {'on': '2026-07-21', method: api}
- id: ny/center-moriches/st-john-s-the-baptist-episcopal-church
  name: St. John's the Baptist Episcopal Church
  org: ny/long-island-cares-inc
  categories:
  - food-pantry
  address: {street: 33 Railroad Avenue, city: Center Moriches, state: ny, zip: '11934'}
  place: '3613420'
  geo: {lat: 40.80164, lng: -72.78976}
  external_ids: {ny-long-island-cares-inc: '842'}
  sources:
  - foodbank/ny-long-island-cares-inc
  verified: {'on': '2026-07-21', method: api}
- id: ny/center-moriches/st-john-the-evangelist
  name: St. John The Evangelist
  org: ny/long-island-cares-inc
  categories:
  - food-pantry
  address: {street: 25 Ocean Ave., city: Center Moriches, state: ny, zip: '11934'}
  place: '3613420'
  geo: {lat: 40.79921, lng: -72.78665}
  external_ids: {ny-long-island-cares-inc: '841'}
  sources:
  - foodbank/ny-long-island-cares-inc
  verified: {'on': '2026-07-21', method: api}
- id: ny/center-moriches/the-bert-strand-community-fp
  name: The Bert Strand Community FP
  org: ny/long-island-cares-inc
  categories:
  - food-pantry
  address: {street: 464 Main St., city: Center Moriches, state: ny, zip: '11934'}
  place: '3613420'
  geo: {lat: 40.80028, lng: -72.79647}
  external_ids: {ny-long-island-cares-inc: '843'}
  sources:
  - foodbank/ny-long-island-cares-inc
  verified: {'on': '2026-07-21', method: api}
- id: ny/center-moriches/the-harbor-church
  name: The Harbor Church
  org: ny/long-island-cares-inc
  categories:
  - food-pantry
  address: {street: 25-6 Frowein Road, city: Center Moriches, state: ny, zip: '11934'}
  place: '3613420'
  geo: {lat: 40.80844, lng: -72.77636}
  external_ids: {ny-long-island-cares-inc: '838'}
  sources:
  - foodbank/ny-long-island-cares-inc
  verified: {'on': '2026-07-21', method: api}
- id: ny/center-moriches/the-presbyterian-church-fp
  name: The Presbyterian Church FP
  org: ny/long-island-cares-inc
  categories:
  - food-pantry
  address: {street: 263 Main Street, city: Center Moriches, state: ny, zip: '11934'}
  place: '3613420'
  geo: {lat: 40.80036, lng: -72.78925}
  external_ids: {ny-long-island-cares-inc: '839'}
  sources:
  - foodbank/ny-long-island-cares-inc
  verified: {'on': '2026-07-21', method: api}
