- id: ny/elmhurst/elmhurst-educational-campus
  name: Elmhurst Educational Campus
  categories:
  - community-health-center
  address:
    street: 45-10 94th St
    city: Elmhurst
    state: ny
    zip: '11373'
  geo:
    lat: 40.74353
    lng: -73.87083
  phone: 718-589-2440
  website: https://www.urbanhealthplan.org
  external_ids:
    bphc: BPS-H80-021995
  sources:
  - hrsa/health-center-sites
  verified:
    'on': '2026-07-19'
    method: api
- id: ny/elmhurst/elmhurst-hospital-center-alcoholism-outpatient-c
  name: Elmhurst Hospital Center Alcoholism Outpatient Clinic
  categories:
  - su-treatment
  - mh-treatment
  address:
    street: 79-01 Broadway
    city: Elmhurst
    state: ny
    zip: '11373'
  geo:
    lat: 40.74508
    lng: -73.88578
  phone: 718-334-4601
  website: https://www.nychealthandhospitals.org/locations/elmhurst
  sources:
  - samhsa/findtreatment
  verified:
    'on': '2026-07-19'
    method: api
- id: ny/elmhurst/elmhurst-hospital-center-opiate-dependency-treat
  name: Elmhurst Hospital Center Opiate Dependency Treatment Services
  categories:
  - su-treatment
  - mh-treatment
  address:
    street: 79-01 Broadway
    city: Elmhurst
    state: ny
    zip: '11373'
  geo:
    lat: 40.74508
    lng: -73.88578
  phone: 718-334-3190
  website: https://www.nychealthandhospitals.org/locations/elmhurst/
  sources:
  - samhsa/findtreatment
  verified:
    'on': '2026-07-19'
    method: api
- id: ny/elmhurst/happy-dragon-of-new-york
  name: Happy Dragon of New York
  categories:
  - child-care
  address:
    street: 86-02 57 Avenue
    city: Elmhurst
    state: ny
    zip: '11373'
  geo:
    lat: 40.73234
    lng: -73.87609
  phone: 718-397-5733
  sources:
  - acf/head-start-locations
  verified:
    'on': '2026-07-19'
    method: api
- id: ny/elmhurst/is-5-walter-crowley-intermediate
  name: Is 5 Walter Crowley Intermediate
  categories:
  - meal-program
  address:
    street: 50-40 Jacobus St
    city: Elmhurst
    state: ny
    zip: '11373'
  description: Free summer meals for kids and teens (2026 season) — sponsored by NYC Chancellor's Office.
  geo:
    lat: 40.73708
    lng: -73.88752
  phone: (718) 707-4383
  external_ids:
    usda_master: Cycle 05_NY_SFSP_0276
  sources:
  - usda/summer-meal-sites
  verified:
    'on': '2026-07-19'
    method: api
- id: ny/elmhurst/long-island-consultation-center-inc
  name: Long Island Consultation Center Inc
  categories:
  - su-treatment
  - mh-treatment
  address:
    street: 91-31 Queens Boulevard
    city: Elmhurst
    state: ny
    zip: '11373'
  geo:
    lat: 40.73368
    lng: -73.86937
  phone: 718-896-3400 x117
  website: https://www.liccnewyorkcity.com
  sources:
  - samhsa/findtreatment
  verified:
    'on': '2026-07-19'
    method: api
- id: ny/elmhurst/moving-up-children-center
  name: Moving Up Children Center
  categories:
  - child-care
  address:
    street: 40-69 94 Street
    city: Elmhurst
    state: ny
    zip: '11373'
  geo:
    lat: 40.74713
    lng: -73.87183
  phone: 718-803-9788
  sources:
  - acf/head-start-locations
  verified:
    'on': '2026-07-19'
    method: api
- id: ny/elmhurst/newtown-high-school-sbhc
  name: Newtown High School SBHC
  categories:
  - community-health-center
  address:
    street: 48-01 90th St
    city: Elmhurst
    state: ny
    zip: '11373'
  geo:
    lat: 40.74081
    lng: -73.87459
  phone: 718-595-8400
  website: https://www.urbanhealthplan.org
  external_ids:
    bphc: BPS-H80-019058
  sources:
  - hrsa/health-center-sites
  verified:
    'on': '2026-07-19'
    method: api
- id: ny/elmhurst/nyc-hhc-elmhurst-hospital-center-cpep
  name: NYC HHC Elmhurst Hospital Center CPEP
  categories:
  - su-treatment
  - mh-treatment
  address:
    street: 79-01 Broadway
    city: Elmhurst
    state: ny
    zip: '11373'
  geo:
    lat: 40.74508
    lng: -73.88578
  phone: 718-334-3712
  website: https://www.nychealthandhospitals.org/metropolitan/
  sources:
  - samhsa/findtreatment
  verified:
    'on': '2026-07-19'
    method: api
- id: ny/elmhurst/nyc-hhc-elmhurst-hospital-center-elmhurst-hospit
  name: NYC/HHC Elmhurst Hospital Center Elmhurst Hospital BH IP Servs
  categories:
  - su-treatment
  - mh-treatment
  address:
    street: 79-01 Broadway
    city: Elmhurst
    state: ny
    zip: '11373'
  geo:
    lat: 40.74508
    lng: -73.88578
  phone: 718-334-1649
  website: https://www.nychealthandhospitals.org/locations/elmhurst
  sources:
  - samhsa/findtreatment
  verified:
    'on': '2026-07-19'
    method: api
- id: ny/elmhurst/nyc-hhc-elmhurst-hospital-center-mental-health-c
  name: NYC HHC Elmhurst Hospital Center Mental Health Clinic
  categories:
  - su-treatment
  - mh-treatment
  address:
    street: 79-01 Broadway
    city: Elmhurst
    state: ny
    zip: '11373'
  geo:
    lat: 40.74508
    lng: -73.88578
  phone: 718-334-3977
  website: https://www.nychealthandhospitals.org/metropolitan/
  sources:
  - samhsa/findtreatment
  verified:
    'on': '2026-07-19'
    method: api
- id: ny/elmhurst/nyc-hhc-elmhurst-hospital-center-partial-hospita
  name: NYC HHC Elmhurst Hospital Center Partial Hospitalization Program
  categories:
  - su-treatment
  - mh-treatment
  address:
    street: 79-01 Broadway
    city: Elmhurst
    state: ny
    zip: '11373'
  geo:
    lat: 40.74508
    lng: -73.88578
  phone: 718-334-5805
  website: https://www.nychealthandhospitals.org/metropolitan/
  sources:
  - samhsa/findtreatment
  verified:
    'on': '2026-07-19'
    method: api
- id: ny/elmhurst/preschool-r-us-3
  name: Preschool "R" Us 3
  categories:
  - child-care
  address:
    street: 8115 Queens Blvd
    city: Elmhurst
    state: ny
    zip: '11373'
  geo:
    lat: 40.73808
    lng: -73.88164
  phone: 718-898-1010
  sources:
  - acf/head-start-locations
  verified:
    'on': '2026-07-19'
    method: api
- id: ny/elmhurst/qsa-services-inc-dba-of-queens-the-pac-program-o
  name: QSA Services Inc DBA of Queens/The PAC Program OP
  categories:
  - su-treatment
  - mh-treatment
  address:
    street: 40-06 Warren Street
    city: Elmhurst
    state: ny
    zip: '11373'
  geo:
    lat: 40.74877
    lng: -73.87052
  phone: 718-729-8008
  website: https://www.thepacprogram.com
  sources:
  - samhsa/findtreatment
  verified:
    'on': '2026-07-19'
    method: api
- id: ny/elmhurst/queens-library-elmhurst
  name: Queens Library-Elmhurst
  categories:
  - meal-program
  address:
    street: 86-01 Broadway
    city: Elmhurst
    state: ny
    zip: '11373'
  description: Free summer meals for kids and teens (2026 season) — sponsored by NYC Chancellor's Office.
  geo:
    lat: 40.73835
    lng: -73.87727
  phone: (718) 707-4383
  external_ids:
    usda_master: Cycle 05_NY_SFSP_0655
  sources:
  - usda/summer-meal-sites
  verified:
    'on': '2026-07-19'
    method: api
