- id: ny/great-neck/great-neck-kosher-food-pantry-umjca
  name: Great Neck Kosher Food Pantry (UMJCA)
  org: ny/island-harvest
  categories:
  - food-pantry
  address: {street: 574 Middle Neck Road, city: Great Neck, state: ny, zip: '11024'}
  place: '3630169'
  geo: {lat: 40.80192, lng: -73.73597}
  phone: 516-400-3026
  external_ids: {ny-island-harvest: '9109000'}
  sources:
  - foodbank/ny-island-harvest
  verified: {'on': '2026-07-21', method: api}
- id: ny/great-neck/great-neck-library-main-library
  name: 'Great Neck Library: Main Library'
  org: ny/long-island-cares-inc
  categories:
  - food-pantry
  address: {street: 159 Bayview Avenue, city: Great Neck, state: ny, zip: '11023'}
  place: '3630169'
  geo: {lat: 40.79909, lng: -73.7477}
  external_ids: {ny-long-island-cares-inc: '1369'}
  sources:
  - foodbank/ny-long-island-cares-inc
  verified: {'on': '2026-07-21', method: api}
- id: ny/great-neck/st-aloysius-church
  name: St. Aloysius Church
  org: ny/long-island-cares-inc
  categories:
  - food-pantry
  address: {street: 592 Middle Neck Rd, city: Great Neck, state: ny, zip: '11023'}
  place: '3630169'
  geo: {lat: 40.80241, lng: -73.73638}
  external_ids: {ny-long-island-cares-inc: '710'}
  sources:
  - foodbank/ny-long-island-cares-inc
  verified: {'on': '2026-07-21', method: api}
- id: ny/great-neck/st-aloysius-interfaith-food-pantry
  name: St. Aloysius Interfaith Food Pantry
  org: ny/island-harvest
  categories:
  - food-pantry
  address: {street: 592 Middle Neck Road, city: Great Neck, state: ny, zip: '11023'}
  place: '3630169'
  geo: {lat: 40.80237, lng: -73.73643}
  phone: 516-829-8343
  hours:
  - {days: [sat], open: '08:00', close: '10:00'}
  external_ids: {ny-island-harvest: '9109104'}
  sources:
  - foodbank/ny-island-harvest
  verified: {'on': '2026-07-21', method: api}
- id: ny/great-neck/umjca-kosher-food-pantry
  name: UMJCA Kosher Food Pantry
  org: ny/long-island-cares-inc
  categories:
  - food-pantry
  address: {street: 574 Middle Neck Road, city: Great Neck, state: ny, zip: '11023'}
  place: '3630169'
  geo: {lat: 40.8019, lng: -73.73608}
  external_ids: {ny-long-island-cares-inc: '1434'}
  sources:
  - foodbank/ny-long-island-cares-inc
  verified: {'on': '2026-07-21', method: api}
- id: ny/great-neck/village-of-great-neck-housing-authority
  name: Village Of Great Neck Housing Authority
  categories:
  - housing-assistance
  address: {street: 700 Middle Neck Rd, city: Great Neck, state: ny, zip: '11023'}
  description: Public housing (Low-Rent) agency
  place: '3630169'
  geo: {lat: 40.80526, lng: -73.73529}
  phone: 516-482-2727
  sources:
  - hud/resource-locator
  verified: {'on': '2026-07-19', method: api}
