- id: ny/hempstead/center-for-rapid-recovery-inc-outpatient-clinic
  name: Center for Rapid Recovery Inc Outpatient Clinic
  categories:
  - su-treatment
  address:
    street: 312 Greenwich Street
    city: Hempstead
    state: ny
    zip: '11550'
  place: '3633139'
  geo:
    lat: 40.69915
    lng: -73.61374
  phone: 516-292-6449 x100
  website: https://www.rapidrecovery.org
  sources:
  - samhsa/findtreatment
  verified:
    'on': '2026-07-19'
    method: api
- id: ny/hempstead/counseling-service-of-edny-hempstead-outpatient
  name: Counseling Service of EDNY Hempstead Outpatient Clinic 3
  categories:
  - su-treatment
  - mh-treatment
  address:
    street: 175 Fulton Avenue
    city: Hempstead
    state: ny
    zip: '11550'
  place: '3633139'
  geo:
    lat: 40.70816
    lng: -73.62964
  phone: 516-481-0052
  website: https://www.arguscommunity.org/
  sources:
  - samhsa/findtreatment
  verified:
    'on': '2026-07-19'
    method: api
- id: ny/hempstead/eac-network-new-path-treatment-center
  name: EAC Network New Path Treatment Center
  categories:
  - su-treatment
  - mh-treatment
  address:
    street: 175 Fulton Avenue
    city: Hempstead
    state: ny
    zip: '11550'
  place: '3633139'
  geo:
    lat: 40.70816
    lng: -73.62964
  phone: 516-486-3222
  website: https://eac-network.org/new-path-treatment-center/
  sources:
  - samhsa/findtreatment
  verified:
    'on': '2026-07-19'
    method: api
- id: ny/hempstead/harmony-healthcare-long-island-at-hempstead
  name: Harmony Healthcare Long Island at Hempstead
  categories:
  - community-health-center
  address:
    street: 619 Fulton Ave
    city: Hempstead
    state: ny
    zip: '11550'
  place: '3633139'
  geo:
    lat: 40.71175
    lng: -73.61095
  phone: 516-572-1300
  website: https://Harmonyhealthcareli.org
  external_ids:
    bphc: BPS-H80-037718
  sources:
  - hrsa/health-center-sites
  verified:
    'on': '2026-07-19'
    method: api
- id: ny/hempstead/hempstead-head-start
  name: Hempstead Head Start
  categories:
  - child-care
  address:
    street: 65 Dartmouth St
    city: Hempstead
    state: ny
    zip: '11550'
  place: '3633139'
  geo:
    lat: 40.71673
    lng: -73.61926
  phone: 516-538-8292
  sources:
  - acf/head-start-locations
  verified:
    'on': '2026-07-19'
    method: api
- id: ny/hempstead/hispanic-counseling-center-inc-outpatient-clinic
  name: Hispanic Counseling Center Inc Outpatient Clinic
  categories:
  - su-treatment
  address:
    street: 344 Fulton Avenue
    city: Hempstead
    state: ny
    zip: '11550'
  place: '3633139'
  geo:
    lat: 40.70859
    lng: -73.62184
  phone: 516-538-2613 x262
  website: https://www.hispaniccounseling.org
  sources:
  - samhsa/findtreatment
  verified:
    'on': '2026-07-19'
    method: api
- id: ny/hempstead/mental-health-assoc-of-nassau-cnty-inc-pros
  name: Mental Health Assoc of Nassau Cnty Inc PROS
  categories:
  - su-treatment
  - mh-treatment
  address:
    street: 16 Main Street
    city: Hempstead
    state: ny
    zip: '11550'
  place: '3633139'
  geo:
    lat: 40.70701
    lng: -73.62332
  phone: 516-489-2322 x1005
  website: https://www.mhanc.org
  sources:
  - samhsa/findtreatment
  verified:
    'on': '2026-07-19'
    method: api
- id: ny/hempstead/mental-health-assoc-of-nassau-cnty-turquoise-hou
  name: Mental Health Assoc of Nassau Cnty Turquoise House 2
  categories:
  - su-treatment
  - mh-treatment
  address:
    city: Hempstead
    state: ny
    zip: '11550'
  place: '3633139'
  phone: 516-489-2322
  website: https://www.mhanc.org
  sources:
  - samhsa/findtreatment
  verified:
    'on': '2026-07-19'
    method: api
- id: ny/hempstead/victory-recovery-partners-outpatient-clinic-4
  name: Victory Recovery Partners Outpatient Clinic 4
  categories:
  - su-treatment
  address:
    street: 250 Fulton Avenue
    city: Hempstead
    state: ny
    zip: '11550'
  place: '3633139'
  geo:
    lat: 40.70737
    lng: -73.62613
  phone: 631-696-4357
  website: https://victoryrp.com
  sources:
  - samhsa/findtreatment
  verified:
    'on': '2026-07-19'
    method: api
- id: ny/hempstead/village-of-hempstead-ha
  name: Village Of Hempstead Ha
  categories:
  - housing-assistance
  address: {street: 260 Clinton St, city: Hempstead, state: ny, zip: '11550'}
  description: Public housing and Housing Choice Voucher agency
  place: '3633139'
  geo: {lat: 40.71437, lng: -73.62065}
  phone: 516-489-8500
  sources:
  - hud/resource-locator
  verified: {'on': '2026-07-19', method: api}
