- id: ny/holbrook/abundant-life-church-of-god
  name: Abundant Life Church of God
  org: ny/island-harvest
  categories:
  - food-pantry
  address: {street: 440 Furrows Rd, city: Holbrook, state: ny, zip: '11741'}
  place: '3635056'
  geo: {lat: 40.8066, lng: -73.06894}
  phone: 631-704-0947
  hours:
  - {days: [thu], open: '10:00', close: '23:30'}
  - {days: [fri], open: '11:00', close: '12:30'}
  - {days: [sun], open: '13:30', close: '14:00'}
  external_ids: {ny-island-harvest: '9108943'}
  sources:
  - foodbank/ny-island-harvest
  verified: {'on': '2026-07-21', method: api}
- id: ny/holbrook/calvary-chapel-fp
  name: Calvary Chapel FP
  org: ny/long-island-cares-inc
  categories:
  - food-pantry
  address: {street: 1680 Railroad Ave, city: Holbrook, state: ny, zip: '11741'}
  place: '3635056'
  geo: {lat: 40.80974, lng: -73.08175}
  external_ids: {ny-long-island-cares-inc: '1406'}
  sources:
  - foodbank/ny-long-island-cares-inc
  verified: {'on': '2026-07-21', method: api}
- id: ny/holbrook/sachem-public-library
  name: Sachem Public Library
  org: ny/long-island-cares-inc
  categories:
  - food-pantry
  address: {street: 105 Holbrook Road, city: Holbrook, state: ny, zip: '11741'}
  place: '3635056'
  geo: {lat: 40.81748, lng: -73.07908}
  external_ids: {ny-long-island-cares-inc: '1380'}
  sources:
  - foodbank/ny-long-island-cares-inc
  verified: {'on': '2026-07-21', method: api}
- id: ny/holbrook/st-john-s-lutheran
  name: St. John's Lutheran
  org: ny/long-island-cares-inc
  categories:
  - food-pantry
  address: {street: 1675 Coates Avenue, city: Holbrook, state: ny, zip: '11741'}
  place: '3635056'
  geo: {lat: 40.80992, lng: -73.08116}
  external_ids: {ny-long-island-cares-inc: '893'}
  sources:
  - foodbank/ny-long-island-cares-inc
  verified: {'on': '2026-07-21', method: api}
- id: ny/holbrook/st-john-s-lutheran-church-holbrook
  name: St. John's Lutheran Church- Holbrook
  org: ny/island-harvest
  categories:
  - food-pantry
  address: {street: 1675 Coates Avenue, city: Holbrook, state: ny, zip: '11741'}
  place: '3635056'
  geo: {lat: 40.80978, lng: -73.08099}
  phone: 631-588-6050
  hours:
  - {days: [fri], open: '17:00', close: '18:00'}
  external_ids: {ny-island-harvest: '9109129'}
  sources:
  - foodbank/ny-island-harvest
  verified: {'on': '2026-07-21', method: api}
