- id: ny/kingston/access-supports-for-living-inc-kingston-communit
  name: Access Supports for Living Inc Kingston Community Counseling
  categories:
  - su-treatment
  - mh-treatment
  address:
    street: 368 Broadway
    city: Kingston
    state: ny
    zip: '12401'
  place: '3639727'
  geo:
    lat: 41.92708
    lng: -73.99531
  phone: 845-692-4454
  website: https://www.accesssupports.org
  sources:
  - samhsa/findtreatment
  verified:
    'on': '2026-07-19'
    method: api
- id: ny/kingston/agri-business-child-development-at-kingston
  name: Agri-Business Child Development at Kingston
  categories:
  - child-care
  address:
    street: 6 Adams St
    city: Kingston
    state: ny
    zip: '12401'
  place: '3639727'
  geo:
    lat: 41.92085
    lng: -73.98715
  phone: 845-481-4691
  sources:
  - acf/head-start-locations
  verified:
    'on': '2026-07-19'
    method: api
- id: ny/kingston/astor-servs-for-children-and-families
  name: Astor Servs for Children and Families
  categories:
  - su-treatment
  - mh-treatment
  address:
    street: 230 Golden Hill Lane
    city: Kingston
    state: ny
    zip: '12401'
  place: '3639727'
  geo:
    lat: 41.91719
    lng: -74.01723
  phone: 845-340-4105
  website: https://www.astorservices.org
  sources:
  - samhsa/findtreatment
  verified:
    'on': '2026-07-19'
    method: api
- id: ny/kingston/child-and-family-guidance-centers-addiction-serv
  name: Child and Family Guidance Centers Addiction Services Inc DBA Step One
  categories:
  - su-treatment
  address:
    street: 500 Aaron Court
    city: Kingston
    state: ny
    zip: '12401'
  place: '3639727'
  geo:
    lat: 41.93448
    lng: -74.01482
  phone: 845-834-7300
  website: https://www.step1ny.org
  sources:
  - samhsa/findtreatment
  verified:
    'on': '2026-07-19'
    method: api
- id: ny/kingston/family-services-kingston-behavioral-health-cente
  name: Family Services Kingston Behavioral Health Center
  categories:
  - su-treatment
  - mh-treatment
  address:
    street: 239 Golden Hill Lane
    city: Kingston
    state: ny
    zip: '12401'
  place: '3639727'
  geo:
    lat: 41.91609
    lng: -74.01877
  phone: 845-486-2703 x5
  website: https://familyservicesny.org
  sources:
  - samhsa/findtreatment
  verified:
    'on': '2026-07-19'
    method: api
- id: ny/kingston/free-community-fridge-and-pantry
  name: Free Community Fridge and Pantry
  categories:
  - food-pantry
  place: '3639727'
  geo:
    lat: 41.92974
    lng: -74.01225
  external_ids:
    lfp: '1930'
  sources:
  - littlefreepantry/map
  verified:
    'on': '2026-07-19'
    method: scrape
- id: ny/kingston/free-community-fridge-pantry
  name: Free Community Fridge & Pantry
  categories:
  - food-pantry
  place: '3639727'
  geo:
    lat: 41.93
    lng: -74.00731
  external_ids:
    lfp: '1925'
  sources:
  - littlefreepantry/map
  verified:
    'on': '2026-07-19'
    method: scrape
- id: ny/kingston/groups-recover-together-outpatient-clinic
  name: Groups Recover Together Outpatient Clinic
  categories:
  - su-treatment
  address:
    street: 465 Broadway
    city: Kingston
    state: ny
    zip: '12401'
  place: '3639727'
  geo:
    lat: 41.92695
    lng: -73.99841
  phone: 207-400-6609
  website: https://
  sources:
  - samhsa/findtreatment
  verified:
    'on': '2026-07-19'
    method: api
- id: ny/kingston/kingston-family-health-center
  name: KINGSTON FAMILY HEALTH CENTER
  categories:
  - community-health-center
  address:
    street: 1 Family Practice Dr
    city: Kingston
    state: ny
    zip: '12401'
  place: '3639727'
  geo:
    lat: 41.91695
    lng: -74.01576
  phone: 845-338-6400
  website: https://www.institute2000.org
  external_ids:
    bphc: BPS-H80-001546
  sources:
  - hrsa/health-center-sites
  verified:
    'on': '2026-07-19'
    method: api
- id: ny/kingston/kingston-housing-authority
  name: Kingston Housing Authority
  categories:
  - housing-assistance
  address:
    street: 132 Rondout Gdns
    city: Kingston
    state: ny
    zip: '12401'
  description: Public housing and Housing Choice Voucher agency
  place: '3639727'
  geo:
    lat: 41.92394
    lng: -73.98289
  phone: 845-331-1955
  sources:
  - hud/resource-locator
  verified:
    'on': '2026-07-19'
    method: api
- id: ny/kingston/kingston-motel
  name: Kingston Motel
  categories:
  - meal-program
  address: {street: 239 Forest Hill Dr, city: Kingston, state: ny, zip: '12401'}
  description: Free summer meals for kids and teens (2026 season) — sponsored by Family Of Woodstock Inc.
  place: '3639727'
  geo: {lat: 41.95115, lng: -74.04152}
  phone: (845) 331-7080
  external_ids: {usda_master: Cycle 05_NY_SFSP_0325}
  sources:
  - usda/summer-meal-sites
  verified: {'on': '2026-07-19', method: api}
- id: ny/kingston/pine-street-family-health-center
  name: Pine Street Family Health Center
  categories:
  - community-health-center
  address:
    street: 140 Pine St
    city: Kingston
    state: ny
    zip: '12401'
  place: '3639727'
  geo:
    lat: 41.92955
    lng: -74.01352
  phone: 844-434-2778
  website: https://www.institute.org
  external_ids:
    bphc: BPS-H80-036862
  sources:
  - hrsa/health-center-sites
  verified:
    'on': '2026-07-19'
    method: api
- id: ny/kingston/samadhi-center-inc-outpatient-clinic
  name: Samadhi Center Inc Outpatient Clinic
  categories:
  - su-treatment
  address:
    street: 150 Sawkill Road
    city: Kingston
    state: ny
    zip: '12401'
  place: '3639727'
  geo:
    lat: 41.94927
    lng: -74.02127
  phone: 845-481-4728
  website: https://samadhiny.org
  sources:
  - samhsa/findtreatment
  verified:
    'on': '2026-07-19'
    method: api
- id: ny/kingston/uccac-children-s-learning-center
  name: UCCAC Children's Learning Center
  categories:
  - child-care
  address:
    street: 175 Colonial Dr
    city: Kingston
    state: ny
    zip: '12401'
  place: '3639727'
  geo:
    lat: 41.94107
    lng: -73.99138
  phone: 845-338-8750
  sources:
  - acf/head-start-locations
  verified:
    'on': '2026-07-19'
    method: api
