- id: ny/lowville/early-head-start
  name: Early Head Start
  categories:
  - child-care
  address:
    street: 7476 State Route 12
    city: Lowville
    state: ny
    zip: '13367'
  place: '3643720'
  geo:
    lat: 43.78972
    lng: -75.51813
  phone: 315-376-7531
  sources:
  - acf/head-start-locations
  verified:
    'on': '2026-07-19'
    method: api
- id: ny/lowville/lowville-class-i-head-start
  name: Lowville Class I Head Start
  categories:
  - child-care
  address:
    street: 7673 N State St
    city: Lowville
    state: ny
    zip: '13367'
  place: '3643720'
  geo:
    lat: 43.78939
    lng: -75.4948
  phone: 315-376-7531
  sources:
  - acf/head-start-locations
  verified:
    'on': '2026-07-19'
    method: api
- id: ny/lowville/lowville-class-ii-head-start
  name: Lowville Class II Head Start
  categories:
  - child-care
  address:
    street: 7671 N State St
    street2: Apt 1
    city: Lowville
    state: ny
    zip: '13367'
  place: '3643720'
  geo:
    lat: 43.78926
    lng: -75.49471
  phone: 315-376-7531
  sources:
  - acf/head-start-locations
  verified:
    'on': '2026-07-19'
    method: api
- id: ny/lowville/lowville-family-health-center
  name: Lowville Family Health Center
  categories:
  - community-health-center
  address:
    street: 5402 Dayan St
    city: Lowville
    state: ny
    zip: '13367'
  place: '3643720'
  geo:
    lat: 43.78634
    lng: -75.49313
  phone: 315-376-4600
  external_ids:
    bphc: BPS-H80-039990
  sources:
  - hrsa/health-center-sites
  verified:
    'on': '2026-07-19'
    method: api
- id: ny/lowville/north-country-family-health-center-lowville
  name: North Country Family Health Center - Lowville
  categories:
  - community-health-center
  address:
    street: 7785 N State St
    city: Lowville
    state: ny
    zip: '13367'
  place: '3643720'
  geo:
    lat: 43.79543
    lng: -75.49912
  phone: 315-376-4500
  website: https://www.NoCoFamilyHealth.org
  external_ids:
    bphc: BPS-H80-014018
  sources:
  - hrsa/health-center-sites
  verified:
    'on': '2026-07-19'
    method: api
- id: ny/lowville/thrive-wellness-and-recovery-inc
  name: THRIVE Wellness and Recovery Inc
  categories:
  - su-treatment
  - mh-treatment
  address:
    street: 7550 South State Street
    city: Lowville
    state: ny
    zip: '13367'
  place: '3643720'
  geo:
    lat: 43.78596
    lng: -75.49141
  phone: 315-376-5450
  website: https://www.thrivenny.com
  sources:
  - samhsa/findtreatment
  verified:
    'on': '2026-07-19'
    method: api
