- id: ny/middle-island/blessings-r-us-outreach
  name: Blessings R Us Outreach
  org: ny/long-island-cares-inc
  categories:
  - food-pantry
  address: {street: 645 Middle Country Rd, city: Middle Island, state: ny, zip: '11953'}
  place: '3646976'
  geo: {lat: 40.88181, lng: -72.95014}
  external_ids: {ny-long-island-cares-inc: '995'}
  sources:
  - foodbank/ny-long-island-cares-inc
  verified: {'on': '2026-07-21', method: api}
- id: ny/middle-island/branches-of-long-island
  name: Branches of Long Island
  org: ny/island-harvest
  categories:
  - food-pantry
  address: {street: 588 Middle Country Road, city: Middle Island, state: ny, zip: '11953'}
  place: '3646976'
  geo: {lat: 40.88119, lng: -72.95204}
  phone: 631-448-7832
  hours:
  - {days: [mon, tue, wed, thu, fri], open: '10:00', close: '20:00'}
  - {days: [sat, sun], open: '09:00', close: '12:00'}
  external_ids: {ny-island-harvest: '9108954'}
  sources:
  - foodbank/ny-island-harvest
  verified: {'on': '2026-07-21', method: api}
- id: ny/middle-island/branches-of-long-island-2
  name: Branches of Long Island
  org: ny/long-island-cares-inc
  categories:
  - food-pantry
  address: {street: 588 Middle Country Rd., city: Middle Island, state: ny, zip: '11953'}
  place: '3646976'
  geo: {lat: 40.88089, lng: -72.95215}
  external_ids: {ny-long-island-cares-inc: '1374'}
  sources:
  - foodbank/ny-long-island-cares-inc
  verified: {'on': '2026-07-21', method: api}
- id: ny/middle-island/chi-church-lane
  name: CHI/Church Lane
  org: ny/long-island-cares-inc
  categories:
  - food-pantry
  address: {street: 76 Church Lane, city: Middle Island, state: ny, zip: '11953'}
  place: '3646976'
  geo: {lat: 40.88217, lng: -72.96505}
  external_ids: {ny-long-island-cares-inc: '927'}
  sources:
  - foodbank/ny-long-island-cares-inc
  verified: {'on': '2026-07-21', method: api}
- id: ny/middle-island/island-heart-food-pantry
  name: Island Heart Food Pantry
  org: ny/long-island-cares-inc
  categories:
  - food-pantry
  address: {street: 643 Middle Country Rd., city: Middle Island, state: ny, zip: '11727'}
  place: '3646976'
  geo: {lat: 40.88272, lng: -72.95001}
  external_ids: {ny-long-island-cares-inc: '926'}
  sources:
  - foodbank/ny-long-island-cares-inc
  verified: {'on': '2026-07-21', method: api}
- id: ny/middle-island/island-heart-food-pantry-mount-sinai-congregatio
  name: Island Heart Food Pantry Mount Sinai Congregational Church
  org: ny/island-harvest
  categories:
  - food-pantry
  address: {street: 643 Middle Country Road, city: Middle Island, state: ny, zip: '11953'}
  place: '3646976'
  geo: {lat: 40.88295, lng: -72.9501}
  phone: 631-255-3144
  hours:
  - {days: [wed], open: '13:00', close: '16:00'}
  external_ids: {ny-island-harvest: '9109026'}
  sources:
  - foodbank/ny-island-harvest
  verified: {'on': '2026-07-21', method: api}
- id: ny/middle-island/longwood-junior-high-school
  name: Longwood Junior High School
  categories:
  - meal-program
  address: {street: 198 Longwood Rd, city: Middle Island, state: ny, zip: '11953'}
  description: Free summer meals for kids and teens (2026 season) — sponsored by Longwood CSD.
  place: '3646976'
  geo: {lat: 40.8667, lng: -72.91092}
  phone: (631) 345-2805
  external_ids: {usda_master: Cycle 05_NY_SFSP_0352}
  sources:
  - usda/summer-meal-sites
  verified: {'on': '2026-07-19', method: api}
- id: ny/middle-island/longwood-public-library-little-free-pantry
  name: Longwood Public Library Little Free Pantry
  categories:
  - food-pantry
  place: '3646976'
  geo: {lat: 40.88224, lng: -72.94381}
  website: https://mapping.littlefreepantry.org/pantry/2446
  external_ids: {lfp: '2446'}
  sources:
  - littlefreepantry/map
  verified: {'on': '2026-07-19', method: scrape}
- id: ny/middle-island/middle-island-community-food-pantry
  name: Middle Island Community Food Pantry
  org: ny/long-island-cares-inc
  categories:
  - food-pantry
  address: {street: 271 Middle Country Rd, city: Middle Island, state: ny, zip: '11953'}
  place: '3646976'
  geo: {lat: 40.87849, lng: -72.9632}
  external_ids: {ny-long-island-cares-inc: '925'}
  sources:
  - foodbank/ny-long-island-cares-inc
  verified: {'on': '2026-07-21', method: api}
- id: ny/middle-island/middle-island-united-church-of-christ
  name: Middle Island United Church of Christ
  org: ny/island-harvest
  categories:
  - food-pantry
  address: {street: 271 Middle Country Road, city: Middle Island, state: ny, zip: '11953'}
  place: '3646976'
  geo: {lat: 40.87845, lng: -72.9632}
  phone: 631-704-2449
  hours:
  - {days: [wed], open: '14:45', close: '15:45'}
  - {days: [sun], open: '11:30', close: '12:00'}
  external_ids: {ny-island-harvest: '9109046'}
  sources:
  - foodbank/ny-island-harvest
  verified: {'on': '2026-07-21', method: api}
- id: ny/middle-island/temple-ministry-cfc-food-pantry
  name: Temple Ministry CFC Food Pantry
  org: ny/long-island-cares-inc
  categories:
  - food-pantry
  address: {street: 63 Miller Place - Yaphank Rd, city: Middle Island, state: ny, zip: '11953'}
  place: '3646976'
  geo: {lat: 40.8978, lng: -72.94728}
  external_ids: {ny-long-island-cares-inc: '1279'}
  sources:
  - foodbank/ny-long-island-cares-inc
  verified: {'on': '2026-07-21', method: api}
