- id: ny/north-tonawanda/greater-niagara-fcu-little-free-pantry
  name: Greater Niagara FCU Little Free Pantry
  categories:
  - food-pantry
  place: '3653682'
  geo:
    lat: 43.05493
    lng: -78.88961
  website: https://mapping.littlefreepantry.org/pantry/1115
  external_ids:
    lfp: '1115'
  sources:
  - littlefreepantry/map
  verified:
    'on': '2026-07-19'
    method: scrape
- id: ny/north-tonawanda/matt-s-music-inc
  name: Matt's Music Inc.
  categories:
  - food-pantry
  place: '3653682'
  geo:
    lat: 43.0471
    lng: -78.88424
  website: https://mapping.littlefreepantry.org/pantry/1682
  external_ids:
    lfp: '1682'
  sources:
  - littlefreepantry/map
  verified:
    'on': '2026-07-19'
    method: scrape
- id: ny/north-tonawanda/new-chcb-mobile-van
  name: New CHCB Mobile Van
  categories:
  - community-health-center
  cost: sliding-scale
  address:
    street: 35 Industrial Dr
    city: North Tonawanda
    state: ny
    zip: '14120'
  place: '3653682'
  geo:
    lat: 43.04608
    lng: -78.88746
  phone: 716-986-9199
  external_ids:
    bphc: BPS-H80-021836
  sources:
  - hrsa/health-center-sites
  verified:
    'on': '2026-07-19'
    method: api
- id: ny/north-tonawanda/north-tonawanda-academy
  name: North Tonawanda Academy
  categories:
  - child-care
  address:
    street: 1135 Oliver St
    city: North Tonawanda
    state: ny
    zip: '14120'
  description: Head Start early childhood program — 51 funded slots; operated by Community Action Organization
    of Western New York, Inc..
  place: '3653682'
  geo:
    lat: 43.05244
    lng: -78.88705
  phone: 716-389-2257
  sources:
  - acf/head-start-locations
  verified:
    'on': '2026-07-19'
    method: api
- id: ny/north-tonawanda/payne-park
  name: Payne Park
  categories:
  - meal-program
  address:
    street: 858 Payne Ave
    city: North Tonawanda
    state: ny
    zip: '14120'
  description: Free summer meals for kids and teens (2026 season) — sponsored by Niagara County Youth
    Bureau.
  place: '3653682'
  geo:
    lat: 43.04662
    lng: -78.87612
  phone: (716) 278-6872
  external_ids:
    usda_master: Cycle 07_NY_SFSP_0754
  sources:
  - usda/summer-meal-sites
  verified:
    'on': '2026-07-19'
    method: api
- id: ny/north-tonawanda/spruce-school
  name: Spruce School
  categories:
  - meal-program
  address:
    street: 195 Spruce St
    city: North Tonawanda
    state: ny
    zip: '14120'
  description: Free summer meals for kids and teens (2026 season) — sponsored by Niagara County Youth
    Bureau.
  place: '3653682'
  geo:
    lat: 43.02807
    lng: -78.85749
  phone: (716) 278-6872
  external_ids:
    usda_master: Cycle 07_NY_SFSP_0917
  sources:
  - usda/summer-meal-sites
  verified:
    'on': '2026-07-19'
    method: api
- id: ny/north-tonawanda/the-little-free-pantry-north-tonawanda-255-somme
  name: 'The Little Free Pantry: North Tonawanda - 255 Sommer St./Imagine Community Gardens'
  categories:
  - food-pantry
  place: '3653682'
  geo:
    lat: 43.03477
    lng: -78.87354
  website: https://mapping.littlefreepantry.org/pantry/389
  external_ids:
    lfp: '389'
  sources:
  - littlefreepantry/map
  verified:
    'on': '2026-07-19'
    method: scrape
- id: ny/north-tonawanda/the-little-free-pantry-north-tonawanda-ihope-com
  name: 'The Little Free Pantry: North Tonawanda - iHope Community Church'
  categories:
  - food-pantry
  place: '3653682'
  geo:
    lat: 43.0306
    lng: -78.86812
  website: https://mapping.littlefreepantry.org/pantry/1680
  external_ids:
    lfp: '1680'
  sources:
  - littlefreepantry/map
  verified:
    'on': '2026-07-19'
    method: scrape
- id: ny/north-tonawanda/the-little-free-pantry-north-tonawanda-lumber-ci
  name: 'The Little Free Pantry: North Tonawanda - Lumber City Church'
  categories:
  - food-pantry
  place: '3653682'
  geo:
    lat: 43.03346
    lng: -78.8749
  website: https://mapping.littlefreepantry.org/pantry/388
  external_ids:
    lfp: '388'
  sources:
  - littlefreepantry/map
  verified:
    'on': '2026-07-19'
    method: scrape
- id: ny/north-tonawanda/the-little-free-pantry-north-tonawanda-nash-road
  name: 'The Little Free Pantry: North Tonawanda - Nash Road Church'
  categories:
  - food-pantry
  place: '3653682'
  geo:
    lat: 43.04905
    lng: -78.86584
  website: https://mapping.littlefreepantry.org/pantry/375
  external_ids:
    lfp: '375'
  sources:
  - littlefreepantry/map
  verified:
    'on': '2026-07-19'
    method: scrape
- id: ny/north-tonawanda/the-little-free-pantry-north-tonawanda-niagara-r
  name: 'The Little Free Pantry: North Tonawanda - Niagara Regional Federal Credit Union'
  categories:
  - food-pantry
  place: '3653682'
  geo:
    lat: 43.05157
    lng: -78.84584
  website: https://mapping.littlefreepantry.org/pantry/1679
  external_ids:
    lfp: '1679'
  sources:
  - littlefreepantry/map
  verified:
    'on': '2026-07-19'
    method: scrape
- id: ny/north-tonawanda/the-little-free-pantry-north-tonawanda-nt-able-a
  name: 'The Little Free Pantry: North Tonawanda - NT Able Agency Inc.'
  categories:
  - food-pantry
  place: '3653682'
  geo:
    lat: 43.05797
    lng: -78.83778
  website: https://mapping.littlefreepantry.org/pantry/1684
  external_ids:
    lfp: '1684'
  sources:
  - littlefreepantry/map
  verified:
    'on': '2026-07-19'
    method: scrape
- id: ny/north-tonawanda/the-little-free-pantry-north-tonawanda-our-lady
  name: 'The Little Free Pantry: North Tonawanda  - Our Lady of Czestochowa Parish Community, North Tonawanda,
    NY'
  categories:
  - food-pantry
  place: '3653682'
  geo:
    lat: 43.03859
    lng: -78.88035
  website: https://mapping.littlefreepantry.org/pantry/1681
  external_ids:
    lfp: '1681'
  sources:
  - littlefreepantry/map
  verified:
    'on': '2026-07-19'
    method: scrape
- id: ny/north-tonawanda/the-little-free-pantry-north-tonawanda-redeemer
  name: 'The Little Free Pantry: North Tonawanda - Redeemer Lutheran Church'
  categories:
  - food-pantry
  place: '3653682'
  geo:
    lat: 43.03058
    lng: -78.86629
  website: https://mapping.littlefreepantry.org/pantry/1686
  external_ids:
    lfp: '1686'
  sources:
  - littlefreepantry/map
  verified:
    'on': '2026-07-19'
    method: scrape
- id: ny/north-tonawanda/the-little-free-pantry-north-tonawanda-st-mark-l
  name: 'The Little Free Pantry: North Tonawanda - St. Mark Lutheran Church & Preschool'
  categories:
  - food-pantry
  place: '3653682'
  geo:
    lat: 43.05244
    lng: -78.88705
  website: https://mapping.littlefreepantry.org/pantry/1685
  external_ids:
    lfp: '1685'
  sources:
  - littlefreepantry/map
  verified:
    'on': '2026-07-19'
    method: scrape
