- id: ny/nyack/astor-services-rockland-cnty-partial-hospitaliza
  name: Astor Services Rockland Cnty Partial Hospitalization
  categories:
  - mh-treatment
  address:
    street: 131 North Midland Avenue
    city: Nyack
    state: ny
    zip: '10960'
  place: '3654100'
  geo:
    lat: 41.09563
    lng: -73.92225
  phone: 845-405-4146
  website: https://www.astorservices.org
  services:
  - Partial hospitalization/day treatment
  - Clients who have experienced trauma
  - Children/adolescents with serious emotional disturbance (SED)
  languages:
  - en
  - es
  eligibility: Serves children/adolescents, adults.
  cost: varies
  sources:
  - samhsa/findtreatment
  verified:
    'on': '2026-07-19'
    method: api
- id: ny/nyack/hudson-river-healthcare-nyack
  name: Hudson River HealthCare - Nyack
  categories:
  - community-health-center
  cost: sliding-scale
  address:
    street: 84 N Highland Ave
    city: Nyack
    state: ny
    zip: '10960'
  place: '3654100'
  geo:
    lat: 41.09455
    lng: -73.92793
  phone: 914-734-8503
  external_ids:
    bphc: BPS-H80-018272
  sources:
  - hrsa/health-center-sites
  verified:
    'on': '2026-07-19'
    method: api
- id: ny/nyack/nyack-center
  name: Nyack Center
  categories:
  - meal-program
  address:
    street: 58 Depew Ave
    city: Nyack
    state: ny
    zip: '10960'
  description: Free summer meals for kids and teens (2026 season) — sponsored by Village Of Nyack.
  place: '3654100'
  geo:
    lat: 41.0893
    lng: -73.91906
  phone: (845) 358-0548
  external_ids:
    usda_master: Cycle 09_NY_SFSP_0611
  sources:
  - usda/summer-meal-sites
  verified:
    'on': '2026-07-19'
    method: api
- id: ny/nyack/nyack-head-start
  name: Nyack Head Start
  categories:
  - child-care
  address: {street: 85 Depew Ave, city: Nyack, state: ny, zip: '10960'}
  description: Head Start early childhood program — 8 funded slots; operated by Head Start of Rockland,
    Inc.
  place: '3654100'
  geo: {lat: 41.0894, lng: -73.92055}
  phone: 845-358-2234
  sources:
  - acf/head-start-locations
  verified: {'on': '2026-07-19', method: api}
- id: ny/nyack/sun-river-health-nyack
  name: Sun River Health Nyack
  categories:
  - community-health-center
  cost: sliding-scale
  address:
    street: 84 N Highland Ave
    city: Nyack
    state: ny
    zip: '10960'
  place: '3654100'
  geo:
    lat: 41.09455
    lng: -73.92793
  phone: 844-474-2273
  website: https://www.hrhcare.org
  external_ids:
    bphc: BPS-H80-017339
  sources:
  - hrsa/health-center-sites
  verified:
    'on': '2026-07-19'
    method: api
- id: ny/nyack/village-of-nyack-ha
  name: Village Of Nyack Ha
  categories:
  - housing-assistance
  address:
    street: 15 Highview Ct
    city: Nyack
    state: ny
    zip: '10960'
  description: Housing Choice Voucher (Section 8) agency
  place: '3654100'
  geo:
    lat: 41.09274
    lng: -73.93687
  phone: 845-353-0563
  sources:
  - hud/resource-locator
  verified:
    'on': '2026-07-19'
    method: api
- id: ny/nyack/waldron-terrace
  name: Waldron Terrace
  categories:
  - meal-program
  address:
    street: 15 Highview Ct
    city: Nyack
    state: ny
    zip: '10960'
  description: Free summer meals for kids and teens (2026 season) — sponsored by Village Of Nyack.
  place: '3654100'
  geo:
    lat: 41.09268
    lng: -73.93757
  phone: (845) 358-0548
  external_ids:
    usda_master: Cycle 09_NY_SFSP_1067
  sources:
  - usda/summer-meal-sites
  verified:
    'on': '2026-07-19'
    method: api
