- id: ny/port-jefferson-station/a1-roofing
  name: A1 Roofing
  org: ny/long-island-cares-inc
  categories:
  - food-pantry
  address: {street: 51 Nesconset Highway, city: Port Jefferson Station, state: ny, zip: '11776'}
  place: '3659377'
  geo: {lat: 40.91366, lng: -73.05977}
  external_ids: {ny-long-island-cares-inc: '1278'}
  sources:
  - foodbank/ny-long-island-cares-inc
  verified: {'on': '2026-07-21', method: api}
- id: ny/port-jefferson-station/ccpjs-food-pantry
  name: CCPJS Food Pantry
  org: ny/long-island-cares-inc
  categories:
  - food-pantry
  address: {street: 545 Old Town Rd., city: Port Jefferson Station, state: ny, zip: '11776'}
  place: '3659377'
  geo: {lat: 40.90853, lng: -73.06341}
  external_ids: {ny-long-island-cares-inc: '1383'}
  sources:
  - foodbank/ny-long-island-cares-inc
  verified: {'on': '2026-07-21', method: api}
- id: ny/port-jefferson-station/comsewogue-library
  name: Comsewogue Library
  org: ny/long-island-cares-inc
  categories:
  - food-pantry
  address: {street: 170 Terryville Rd, city: Port Jefferson Station, state: ny, zip: '11776'}
  place: '3659377'
  geo: {lat: 40.9238, lng: -73.05325}
  external_ids: {ny-long-island-cares-inc: '1173'}
  sources:
  - foodbank/ny-long-island-cares-inc
  verified: {'on': '2026-07-21', method: api}
- id: ny/port-jefferson-station/lish-at-port-jefferson-station
  name: LISH at Port Jefferson Station
  categories:
  - community-health-center
  cost: sliding-scale
  address: {street: 509 State Rte 112, city: Port Jefferson Station, state: ny, zip: '11776'}
  place: '3659377'
  geo: {lat: 40.93033, lng: -73.05176}
  phone: 631-474-5100
  external_ids: {bphc: BPS-H80-040995}
  sources:
  - hrsa/health-center-sites
  verified: {'on': '2026-07-19', method: api}
- id: ny/port-jefferson-station/maryhaven-center-of-hope-port-jefferson-station
  name: Maryhaven Center of Hope - Port Jefferson Station
  org: ny/island-harvest
  categories:
  - food-pantry
  address: {street: 51 Terryville Road, city: Port Jefferson Station, state: ny, zip: '11776'}
  place: '3659377'
  geo: {lat: 40.92741, lng: -73.05261}
  phone: 631-474-4100
  hours:
  - {days: [mon, tue, wed, thu], open: '09:30', close: '15:00'}
  external_ids: {ny-island-harvest: '9109042'}
  sources:
  - foodbank/ny-island-harvest
  verified: {'on': '2026-07-21', method: api}
- id: ny/port-jefferson-station/st-gerard-majella
  name: St. Gerard Majella
  org: ny/island-harvest
  categories:
  - food-pantry
  address: {street: 300 Terryville Road, city: Port Jefferson Station, state: ny, zip: '11776'}
  place: '3659377'
  geo: {lat: 40.91487, lng: -73.05266}
  phone: 631-473-2900
  hours:
  - {days: [tue], open: '11:30', close: '15:00'}
  - {days: [wed], open: '12:30', close: '15:00'}
  - {days: [thu], open: '11:30', close: '13:30'}
  external_ids: {ny-island-harvest: '9109118'}
  sources:
  - foodbank/ny-island-harvest
  verified: {'on': '2026-07-21', method: api}
- id: ny/port-jefferson-station/st-gerard-majella-fp
  name: St. Gerard Majella FP
  org: ny/long-island-cares-inc
  categories:
  - food-pantry
  address: {street: 300 Terryville Road, city: Port Jefferson Station, state: ny, zip: '11776'}
  place: '3659377'
  geo: {lat: 40.91489, lng: -73.05269}
  external_ids: {ny-long-island-cares-inc: '940'}
  sources:
  - foodbank/ny-long-island-cares-inc
  verified: {'on': '2026-07-21', method: api}
- id: ny/port-jefferson-station/sunshine-prevention-center-fp
  name: Sunshine Prevention Center FP
  org: ny/long-island-cares-inc
  categories:
  - food-pantry
  address: {street: 468 Boyle Rd., city: Port Jefferson Station, state: ny, zip: '11776'}
  place: '3659377'
  geo: {lat: 40.8956, lng: -73.05421}
  external_ids: {ny-long-island-cares-inc: '1352'}
  sources:
  - foodbank/ny-long-island-cares-inc
  verified: {'on': '2026-07-21', method: api}
