- id: ny/schenectady/bigelow-early-learning-center
  name: Bigelow Early Learning Center
  categories:
  - child-care
  address:
    street: 100 Bigelow Ave
    city: Schenectady
    state: ny
    zip: '12304'
  place: '3665508'
  geo:
    lat: 42.79489
    lng: -73.92436
  phone: 518-377-8539
  sources:
  - acf/head-start-locations
  verified:
    'on': '2026-07-19'
    method: api
- id: ny/schenectady/capital-district-psychiatric-center-schenectady
  name: Capital District Psychiatric Center Schenectady Community Support Center
  categories:
  - su-treatment
  - mh-treatment
  address:
    street: 738 State Street
    city: Schenectady
    state: ny
    zip: '12307'
  place: '3665508'
  geo:
    lat: 42.80898
    lng: -73.93725
  phone: 518-374-3403
  website: https://
  sources:
  - samhsa/findtreatment
  verified:
    'on': '2026-07-19'
    method: api
- id: ny/schenectady/conifer-park-inc-inpatient-rehabilitation
  name: Conifer Park Inc Inpatient Rehabilitation
  categories:
  - su-treatment
  address:
    street: 79 Glenridge Road
    city: Schenectady
    state: ny
    zip: '12302'
  place: '3665508'
  geo:
    lat: 42.86826
    lng: -73.90944
  phone: 518-399-6446
  website: https://www.coniferpark.com
  sources:
  - samhsa/findtreatment
  verified:
    'on': '2026-07-19'
    method: api
- id: ny/schenectady/conifer-park-inc-med-sup-withdrawal-inpatient
  name: Conifer Park Inc Med Sup Withdrawal Inpatient
  categories:
  - su-treatment
  - mh-treatment
  address:
    street: 79 Glenridge Road
    city: Schenectady
    state: ny
    zip: '12302'
  place: '3665508'
  geo:
    lat: 42.86826
    lng: -73.90944
  phone: 518-399-6446
  website: https://www.coniferpark.com
  sources:
  - samhsa/findtreatment
  verified:
    'on': '2026-07-19'
    method: api
- id: ny/schenectady/conifer-park-inc-methadone-clinic-3
  name: Conifer Park Inc Methadone Clinic 3
  categories:
  - su-treatment
  - mh-treatment
  address:
    street: 600 Franklin Street
    city: Schenectady
    state: ny
    zip: '12305'
  place: '3665508'
  geo:
    lat: 42.81231
    lng: -73.93773
  phone: 518-372-7031 x4706
  website: https://www.libertymgt.com
  sources:
  - samhsa/findtreatment
  verified:
    'on': '2026-07-19'
    method: api
- id: ny/schenectady/conifer-park-inc-outpatient-clinic
  name: Conifer Park Inc Outpatient Clinic
  categories:
  - su-treatment
  - mh-treatment
  address:
    street: 600 Franklin Street
    city: Schenectady
    state: ny
    zip: '12305'
  place: '3665508'
  geo:
    lat: 42.81231
    lng: -73.93773
  phone: 518-372-7031 x4706
  website: https://www.libertymgt.com
  sources:
  - samhsa/findtreatment
  verified:
    'on': '2026-07-19'
    method: api
- id: ny/schenectady/hometown-health-centers
  name: Hometown Health Centers
  categories:
  - community-health-center
  address:
    street: 1044 State St
    city: Schenectady
    state: ny
    zip: '12307'
  place: '3665508'
  geo:
    lat: 42.80111
    lng: -73.92832
  phone: 518-370-1441
  website: https://www.hometownhealthcenters.org
  external_ids:
    bphc: BPS-H80-004589
  sources:
  - hrsa/health-center-sites
  verified:
    'on': '2026-07-19'
    method: api
- id: ny/schenectady/hometown-health-centers-at-mont-pleasant-middle
  name: Hometown Health Centers at Mont Pleasant Middle School
  categories:
  - community-health-center
  address:
    street: 1121 Forest Rd
    city: Schenectady
    state: ny
    zip: '12303'
  place: '3665508'
  geo:
    lat: 42.79707
    lng: -73.93985
  phone: 518-370-1441
  external_ids:
    bphc: BPS-H80-019060
  sources:
  - hrsa/health-center-sites
  verified:
    'on': '2026-07-19'
    method: api
- id: ny/schenectady/hometown-health-centers-at-schenectady-high-scho
  name: Hometown Health Centers at Schenectady High School
  categories:
  - community-health-center
  address:
    street: 1445 The Plz
    city: Schenectady
    state: ny
    zip: '12308'
  place: '3665508'
  geo:
    lat: 42.81378
    lng: -73.91197
  phone: 518-370-1441
  external_ids:
    bphc: BPS-H80-018476
  sources:
  - hrsa/health-center-sites
  verified:
    'on': '2026-07-19'
    method: api
- id: ny/schenectady/hometown-health-centers-dental-at-state-street
  name: Hometown Health Centers Dental at State Street
  categories:
  - community-health-center
  address:
    street: 1108 State St
    city: Schenectady
    state: ny
    zip: '12304'
  place: '3665508'
  geo:
    lat: 42.80036
    lng: -73.92749
  phone: 518-370-1441
  website: https://www.hometownhealthcenters.org
  external_ids:
    bphc: BPS-H80-033436
  sources:
  - hrsa/health-center-sites
  verified:
    'on': '2026-07-19'
    method: api
- id: ny/schenectady/mohawk-opportunities-inc-act-program
  name: Mohawk Opportunities Inc ACT Program
  categories:
  - su-treatment
  - mh-treatment
  address:
    city: Schenectady
    state: ny
    zip: '12305'
  place: '3665508'
  phone: 518-374-8424
  website: https://www.mohawkopportunities.org/
  sources:
  - samhsa/findtreatment
  verified:
    'on': '2026-07-19'
    method: api
- id: ny/schenectady/new-choices-recovery-center-outpatient-clinic
  name: New Choices Recovery Center Outpatient Clinic
  categories:
  - su-treatment
  address:
    street: 728 State Street
    city: Schenectady
    state: ny
    zip: '12307'
  place: '3665508'
  geo:
    lat: 42.80947
    lng: -73.93723
  phone: 518-346-4436
  website: https://www.newchoicesrecovery.org
  sources:
  - samhsa/findtreatment
  verified:
    'on': '2026-07-19'
    method: api
- id: ny/schenectady/new-choices-recovery-center-outpatient-clinic-an
  name: New Choices Recovery Center Outpatient Clinic and OTP
  categories:
  - su-treatment
  address:
    street: 840 State Street
    city: Schenectady
    state: ny
    zip: '12307'
  place: '3665508'
  geo:
    lat: 42.80591
    lng: -73.93347
  phone: 518-382-7838
  website: https://www.newchoicesrecovery.org
  sources:
  - samhsa/findtreatment
  verified:
    'on': '2026-07-19'
    method: api
- id: ny/schenectady/northeast-parent-child-society-behavioral-health
  name: Northeast Parent/Child Society Behavioral Health Center at HAmburg
  categories:
  - su-treatment
  - mh-treatment
  address:
    street: 327 Abbottsford Road
    city: Schenectady
    state: ny
    zip: '12304'
  place: '3665508'
  geo:
    lat: 42.79071
    lng: -73.92804
  phone: 518-381-8911
  website: https://www.northernrivers.org
  sources:
  - samhsa/findtreatment
  verified:
    'on': '2026-07-19'
    method: api
- id: ny/schenectady/parsons-early-head-start
  name: Parsons Early Head Start
  categories:
  - child-care
  address:
    street: 125 Bigelow Ave
    city: Schenectady
    state: ny
    zip: '12304'
  place: '3665508'
  geo:
    lat: 42.79534
    lng: -73.92505
  phone: 518-292-5510
  sources:
  - acf/head-start-locations
  verified:
    'on': '2026-07-19'
    method: api
- id: ny/schenectady/saint-peters-hospital-city-of-albany-saint-peter
  name: Saint Peters Hospital City of Albany Saint Peters Hospital Outpatient 2
  categories:
  - su-treatment
  address:
    street: 2925 Hamburg Street
    city: Schenectady
    state: ny
    zip: '12303'
  place: '3665508'
  geo:
    lat: 42.77033
    lng: -73.93674
  phone: 518-357-2909
  website: https://www.sphp.com/location/st-peters-addiction-recovery
  sources:
  - samhsa/findtreatment
  verified:
    'on': '2026-07-19'
    method: api
- id: ny/schenectady/scap-head-start-bellevue-center
  name: SCAP Head Start - Bellevue Center
  categories:
  - child-care
  address:
    street: 2000 Broadway
    street2: Scap Head Start
    city: Schenectady
    state: ny
    zip: '12306'
  place: '3665508'
  geo:
    lat: 42.79813
    lng: -73.96425
  phone: 518-377-7300
  sources:
  - acf/head-start-locations
  verified:
    'on': '2026-07-19'
    method: api
- id: ny/schenectady/scap-head-start-northside-village
  name: SCAP Head Start - Northside Village
  categories:
  - child-care
  address:
    street: 2450 Van Vranken Ave
    street2: Bldg 11
    city: Schenectady
    state: ny
    zip: '12308'
  place: '3665508'
  geo:
    lat: 42.83206
    lng: -73.91598
  phone: 518-381-4196
  sources:
  - acf/head-start-locations
  verified:
    'on': '2026-07-19'
    method: api
- id: ny/schenectady/schenectady-municipal-housing-authority
  name: Schenectady Municipal Housing Authority
  categories:
  - housing-assistance
  address: {street: 375 Broadway, city: Schenectady, state: ny, zip: '12305'}
  description: Public housing and Housing Choice Voucher agency
  place: '3665508'
  geo: {lat: 42.80865, lng: -73.94517}
  phone: 518-386-7000
  sources:
  - hud/resource-locator
  verified: {'on': '2026-07-19', method: api}
- id: ny/schenectady/ywca-sccc
  name: YWCA SCCC
  categories:
  - child-care
  address:
    street: 78 Washington Ave
    city: Schenectady
    state: ny
    zip: '12305'
  place: '3665508'
  geo:
    lat: 42.81455
    lng: -73.9512
  phone: 518-377-8539
  sources:
  - acf/head-start-locations
  verified:
    'on': '2026-07-19'
    method: api
- id: ny/schenectady/ywca-wa
  name: YWCA Wa
  categories:
  - child-care
  address:
    street: 44 Washington Ave
    city: Schenectady
    state: ny
    zip: '12305'
  place: '3665508'
  geo:
    lat: 42.81664
    lng: -73.9497
  phone: 518-377-8539
  sources:
  - acf/head-start-locations
  verified:
    'on': '2026-07-19'
    method: api
