- id: ny/staten-island/amethyst-house-residential-reintegration
  name: Amethyst House Residential Reintegration
  categories:
  - su-treatment
  address:
    street: 220 Heberton Avenue
    city: Staten Island
    state: ny
    zip: '10302'
  geo:
    lat: 40.63527
    lng: -74.13283
  phone: 718-448-1900
  website: https://www.amethysthouse.net
  sources:
  - samhsa/findtreatment
  verified:
    'on': '2026-07-19'
    method: api
- id: ny/staten-island/bay-street-822-program-outpatient-clinic
  name: Bay Street 822 Program Outpatient Clinic
  categories:
  - su-treatment
  address:
    street: 56 Bay Street
    city: Staten Island
    state: ny
    zip: '10301'
  geo:
    lat: 40.64072
    lng: -74.07605
  phone: 718-808-1439
  website: https://sunriver.org
  sources:
  - samhsa/findtreatment
  verified:
    'on': '2026-07-19'
    method: api
- id: ny/staten-island/bcchc-annex
  name: BCCHC - Annex
  categories:
  - community-health-center
  address:
    street: 2031 Forest Ave
    city: Staten Island
    state: ny
    zip: '10303'
  geo:
    lat: 40.62618
    lng: -74.15709
  phone: 718-815-6560
  external_ids:
    bphc: BPS-H80-015342
  sources:
  - hrsa/health-center-sites
  verified:
    'on': '2026-07-19'
    method: api
- id: ny/staten-island/beacon-christian-community-health-center
  name: Beacon Christian Community Health Center
  categories:
  - community-health-center
  address:
    street: 2079 Forest Ave
    city: Staten Island
    state: ny
    zip: '10303'
  geo:
    lat: 40.62648
    lng: -74.1586
  phone: 718-815-6560
  website: https://www.beaconcchc.com
  external_ids:
    bphc: BPS-H80-008294
  sources:
  - hrsa/health-center-sites
  verified:
    'on': '2026-07-19'
    method: api
- id: ny/staten-island/bridge-back-to-life-center-inc
  name: Bridge Back to Life Center Inc
  categories:
  - su-treatment
  address:
    street: 1688 Victory Boulevard
    city: Staten Island
    state: ny
    zip: '10314'
  geo:
    lat: 40.61301
    lng: -74.12
  phone: 516-520-6600
  website: https://www.bridgebacktolife.com
  sources:
  - samhsa/findtreatment
  verified:
    'on': '2026-07-19'
    method: api
- id: ny/staten-island/camelot-of-staten-island-inc-outpatient-depatrme
  name: Camelot of Staten Island Inc Outpatient Depatrment
  categories:
  - su-treatment
  address:
    street: 1268 Forest Avenue
    city: Staten Island
    state: ny
    zip: '10302'
  geo:
    lat: 40.62618
    lng: -74.13222
  phone: 718-981-8117
  website: https://www.camelotcounseling.com
  sources:
  - samhsa/findtreatment
  verified:
    'on': '2026-07-19'
    method: api
- id: ny/staten-island/camelot-of-staten-island-inc-stabil-rehab-reinte
  name: Camelot of Staten Island Inc Stabil Rehab Reintegration
  categories:
  - su-treatment
  address:
    street: 273 Heberton Avenue
    city: Staten Island
    state: ny
    zip: '10302'
  geo:
    lat: 40.63395
    lng: -74.13294
  phone: 718-412-3155
  website: https://www.camelotcounseling.com
  sources:
  - samhsa/findtreatment
  verified:
    'on': '2026-07-19'
    method: api
- id: ny/staten-island/camelot-of-staten-island-inc-stabil-rehab-reinte-2
  name: Camelot of Staten Island Inc Stabil Rehab Reintegration
  categories:
  - su-treatment
  address:
    street: 460 H Brielle Avenue
    city: Staten Island
    state: ny
    zip: '10314'
  geo:
    lat: 40.59121
    lng: -74.13247
  phone: 718-816-6589
  website: https://www.camelotcounseling.com
  sources:
  - samhsa/findtreatment
  verified:
    'on': '2026-07-19'
    method: api
- id: ny/staten-island/chcr
  name: CHCR
  categories:
  - community-health-center
  address:
    street: 235 Port Richmond Ave
    city: Staten Island
    state: ny
    zip: '10302'
  geo:
    lat: 40.63539
    lng: -74.13489
  phone: 718-876-1732
  external_ids:
    bphc: BPS-H80-009060
  sources:
  - hrsa/health-center-sites
  verified:
    'on': '2026-07-19'
    method: api
- id: ny/staten-island/chcr-135-canal-st-3rd-floor
  name: CHCR - 135 Canal St, 3rd Floor
  categories:
  - community-health-center
  address:
    street: 135 Canal St
    city: Staten Island
    state: ny
    zip: '10304'
  geo:
    lat: 40.62685
    lng: -74.07811
  phone: 718-924-2254
  external_ids:
    bphc: BPS-H80-017740
  sources:
  - hrsa/health-center-sites
  verified:
    'on': '2026-07-19'
    method: api
- id: ny/staten-island/chcr-135-canal-street-2nd-floor
  name: CHCR 135 Canal Street - 2nd Floor
  categories:
  - community-health-center
  address:
    street: 135 Canal St FL 2
    city: Staten Island
    state: ny
    zip: '10304'
  geo:
    lat: 40.62685
    lng: -74.07811
  phone: 718-924-2254
  external_ids:
    bphc: BPS-H80-022103
  sources:
  - hrsa/health-center-sites
  verified:
    'on': '2026-07-19'
    method: api
- id: ny/staten-island/chcr-439
  name: CHCR 439
  categories:
  - community-health-center
  address:
    street: 439 Port Richmond Ave
    city: Staten Island
    state: ny
    zip: '10302'
  geo:
    lat: 40.63136
    lng: -74.13831
  phone: 718-924-2254
  external_ids:
    bphc: BPS-H80-013491
  sources:
  - hrsa/health-center-sites
  verified:
    'on': '2026-07-19'
    method: api
- id: ny/staten-island/christophers-reason-outpatient-clinic
  name: Christophers Reason Outpatient Clinic
  categories:
  - su-treatment
  address:
    street: 4521 Arthur Kill Road
    city: Staten Island
    state: ny
    zip: '10309'
  geo:
    lat: 40.53313
    lng: -74.23906
  phone: 718-605-1989
  website: https://www.christophersreason.org
  sources:
  - samhsa/findtreatment
  verified:
    'on': '2026-07-19'
    method: api
- id: ny/staten-island/dongan-hills-site
  name: Dongan Hills Site
  categories:
  - child-care
  address:
    street: 44 Dongan Hills Ave
    city: Staten Island
    state: ny
    zip: '10306'
  geo:
    lat: 40.58768
    lng: -74.10091
  phone: 718-987-7755
  sources:
  - acf/head-start-locations
  verified:
    'on': '2026-07-19'
    method: api
- id: ny/staten-island/grand-union-holistic-solutions-llc-outpatient-cl
  name: Grand Union Holistic Solutions LLC Outpatient Clinic
  categories:
  - su-treatment
  address:
    street: 1150 South Avenue
    city: Staten Island
    state: ny
    zip: '10314'
  geo:
    lat: 40.61202
    lng: -74.17776
  phone: 929-487-0003 x205
  website: https://www.grandunionholistic.com
  sources:
  - samhsa/findtreatment
  verified:
    'on': '2026-07-19'
    method: api
- id: ny/staten-island/jewish-board-of-family-childrens-servs-morris-l
  name: Jewish Board of Family/Childrens Servs Morris L Black Counseling Ctr
  categories:
  - su-treatment
  - mh-treatment
  address:
    street: 1765 South Avenue
    city: Staten Island
    state: ny
    zip: '10314'
  geo:
    lat: 40.60082
    lng: -74.19146
  phone: 718-761-9800 x50127
  website: https://jewishboard.org/
  sources:
  - samhsa/findtreatment
  verified:
    'on': '2026-07-19'
    method: api
- id: ny/staten-island/jewish-board-of-family-childrens-servs-staten-is
  name: Jewish Board of Family/Childrens Servs Staten Island Youth ACT
  categories:
  - su-treatment
  - mh-treatment
  address:
    street: 1765 South Avenue
    city: Staten Island
    state: ny
    zip: '10314'
  geo:
    lat: 40.60082
    lng: -74.19146
  phone: 718-982-6982 x50170
  website: https://jewishboard.org/
  sources:
  - samhsa/findtreatment
  verified:
    'on': '2026-07-19'
    method: api
- id: ny/staten-island/kingsley-site
  name: Kingsley Site
  categories:
  - child-care
  address:
    street: 10 Kingsley Pl
    city: Staten Island
    state: ny
    zip: '10301'
  geo:
    lat: 40.63594
    lng: -74.08898
  phone: 718-816-5168
  sources:
  - acf/head-start-locations
  verified:
    'on': '2026-07-19'
    method: api
- id: ny/staten-island/lockman-ave-site
  name: Lockman Ave Site
  categories:
  - child-care
  address:
    street: 166 Lockman Ave
    city: Staten Island
    state: ny
    zip: '10303'
  geo:
    lat: 40.63307
    lng: -74.16166
  phone: 718-494-0400
  sources:
  - acf/head-start-locations
  verified:
    'on': '2026-07-19'
    method: api
- id: ny/staten-island/metro-community-health-centers-staten-island
  name: Metro Community Health Centers - Staten island
  categories:
  - community-health-center
  address:
    street: 2324 Forest Ave
    city: Staten Island
    state: ny
    zip: '10303'
  geo:
    lat: 40.62725
    lng: -74.16742
  phone: 718-447-0200
  external_ids:
    bphc: BPS-H80-016810
  sources:
  - hrsa/health-center-sites
  verified:
    'on': '2026-07-19'
    method: api
- id: ny/staten-island/osgood-site
  name: Osgood Site
  categories:
  - child-care
  address:
    street: 16 Osgood Ave
    city: Staten Island
    state: ny
    zip: '10304'
  geo:
    lat: 40.61875
    lng: -74.08537
  phone: 718-420-6138
  sources:
  - acf/head-start-locations
  verified:
    'on': '2026-07-19'
    method: api
- id: ny/staten-island/p-s-31
  name: P.S. 31
  categories:
  - community-health-center
  address:
    street: 55 Layton Ave
    city: Staten Island
    state: ny
    zip: '10301'
  geo:
    lat: 40.64175
    lng: -74.08552
  phone: 718-273-3500
  external_ids:
    bphc: BPS-H80-014869
  sources:
  - hrsa/health-center-sites
  verified:
    'on': '2026-07-19'
    method: api
- id: ny/staten-island/project-hospitality-health-center
  name: Project Hospitality Health Center
  categories:
  - community-health-center
  address:
    street: 150 Richmond Ter
    city: Staten Island
    state: ny
    zip: '10301'
  geo:
    lat: 40.6457
    lng: -74.0779
  phone: 212-366-4459
  external_ids:
    bphc: BPS-H80-032452
  sources:
  - hrsa/health-center-sites
  verified:
    'on': '2026-07-19'
    method: api
- id: ny/staten-island/project-hospitality-inc-the-recovery-program
  name: Project Hospitality Inc The Recovery Program
  categories:
  - su-treatment
  address:
    street: 14 Slosson Terrace
    city: Staten Island
    state: ny
    zip: '10301'
  geo:
    lat: 40.63926
    lng: -74.07614
  phone: 718-273-8409 x210
  website: https://www.projecthospitality.org
  sources:
  - samhsa/findtreatment
  verified:
    'on': '2026-07-19'
    method: api
- id: ny/staten-island/ps-044
  name: PS 044
  categories:
  - community-health-center
  address:
    street: 80 Maple Pkwy
    city: Staten Island
    state: ny
    zip: '10303'
  geo:
    lat: 40.63163
    lng: -74.15676
  phone: 718-442-0433
  external_ids:
    bphc: BPS-H80-022291
  sources:
  - hrsa/health-center-sites
  verified:
    'on': '2026-07-19'
    method: api
- id: ny/staten-island/ps-18-school-based-health-center
  name: PS 18 School Based Health Center
  categories:
  - community-health-center
  address:
    street: 221 Broadway
    city: Staten Island
    state: ny
    zip: '10310'
  geo:
    lat: 40.63684
    lng: -74.11735
  phone: 718-442-0216
  external_ids:
    bphc: BPS-H80-009989
  sources:
  - hrsa/health-center-sites
  verified:
    'on': '2026-07-19'
    method: api
- id: ny/staten-island/richmond-medical-center-dba-richmond-umc-child-d
  name: Richmond Medical Center DBA Richmond UMC/Child Day Trt North
  categories:
  - su-treatment
  - mh-treatment
  address:
    city: Staten Island
    state: ny
    zip: '10301'
  phone: 718-818-1234
  website: https://www.rumcsi.org
  sources:
  - samhsa/findtreatment
  verified:
    'on': '2026-07-19'
    method: api
- id: ny/staten-island/richmond-university-medical-center-saint-george
  name: Richmond University Medical Center Saint George Clinic
  categories:
  - su-treatment
  - mh-treatment
  address:
    street: 1130 South Avenue
    city: Staten Island
    state: ny
    zip: '10314'
  geo:
    lat: 40.61258
    lng: -74.17638
  phone: 718-818-5557
  website: https://www.rumcsi.org
  sources:
  - samhsa/findtreatment
  verified:
    'on': '2026-07-19'
    method: api
- id: ny/staten-island/rumc-silberstein-clinic-med-sup-withdrawal-outpa
  name: RUMC Silberstein Clinic Med Sup Withdrawal Outpatient Clinic
  categories:
  - su-treatment
  - mh-treatment
  address:
    street: 1130 South Avenue
    city: Staten Island
    state: ny
    zip: '10314'
  geo:
    lat: 40.61259
    lng: -74.17757
  phone: 718-818-6970
  website: https://www.rumcsi.org
  sources:
  - samhsa/findtreatment
  verified:
    'on': '2026-07-19'
    method: api
- id: ny/staten-island/saint-josephs-medical-center-staten-island-crisi
  name: Saint Josephs Medical Center Staten Island Crisis Respite Program
  categories:
  - su-treatment
  - mh-treatment
  address:
    street: 1150 Castleton Avenue
    city: Staten Island
    state: ny
    zip: '10310'
  geo:
    lat: 40.63397
    lng: -74.12081
  phone: 718-982-4740 x1
  website: https://www.saintjosephs.org
  sources:
  - samhsa/findtreatment
  verified:
    'on': '2026-07-19'
    method: api
- id: ny/staten-island/samaritan-daytop-village-inc
  name: Samaritan Daytop Village Inc
  categories:
  - su-treatment
  - mh-treatment
  address:
    street: 1915 Forest Avenue
    city: Staten Island
    state: ny
    zip: '10303'
  geo:
    lat: 40.6259
    lng: -74.15279
  phone: 718-981-3136
  website: https://samaritanvillage.com
  sources:
  - samhsa/findtreatment
  verified:
    'on': '2026-07-19'
    method: api
- id: ny/staten-island/samaritan-daytop-village-inc-cop2
  name: Samaritan Daytop Village Inc COP2
  categories:
  - su-treatment
  - mh-treatment
  address:
    street: 1915 Forest Avenue
    city: Staten Island
    state: ny
    zip: '10303'
  geo:
    lat: 40.6259
    lng: -74.15279
  phone: 718-981-3136
  website: https://www.samaritanvillage.org
  sources:
  - samhsa/findtreatment
  verified:
    'on': '2026-07-19'
    method: api
- id: ny/staten-island/samaritan-daytop-village-inc-methadone-clinic-4
  name: Samaritan Daytop Village Inc Methadone Clinic 4
  categories:
  - su-treatment
  - mh-treatment
  address:
    street: 1915 Forest Avenue
    city: Staten Island
    state: ny
    zip: '10303'
  geo:
    lat: 40.6259
    lng: -74.15279
  phone: 718-981-3136
  website: https://www.samaritanvillage.org
  sources:
  - samhsa/findtreatment
  verified:
    'on': '2026-07-19'
    method: api
- id: ny/staten-island/south-beach-atc-inpatient-rehabilitation
  name: South Beach ATC Inpatient Rehabilitation
  categories:
  - su-treatment
  address:
    street: 777 Seaview Avenue, 1st Floor
    city: Staten Island
    state: ny
    zip: '10305'
  geo:
    lat: 40.58245
    lng: -74.08022
  phone: 718-667-2867 x2867
  website: https://oasas.ny.gov
  sources:
  - samhsa/findtreatment
  verified:
    'on': '2026-07-19'
    method: api
- id: ny/staten-island/south-beach-psychiatric-center-ocean-view-lodge
  name: South Beach Psychiatric Center Ocean View Lodge Clinic
  categories:
  - su-treatment
  - mh-treatment
  address:
    street: 777 Seaview Avenue
    city: Staten Island
    state: ny
    zip: '10305'
  geo:
    lat: 40.58181
    lng: -74.07848
  phone: 718-667-2536
  website: https://omh.ny.gov/
  sources:
  - samhsa/findtreatment
  verified:
    'on': '2026-07-19'
    method: api
- id: ny/staten-island/south-beach-psychiatric-center-psychiatric-inpat
  name: South Beach Psychiatric Center Psychiatric Inpatient Unit
  categories:
  - su-treatment
  - mh-treatment
  address:
    street: 777 Seaview Avenue
    city: Staten Island
    state: ny
    zip: '10305'
  geo:
    lat: 40.5819
    lng: -74.0805
  phone: 718-667-2300
  website: https://omh.ny.gov
  sources:
  - samhsa/findtreatment
  verified:
    'on': '2026-07-19'
    method: api
- id: ny/staten-island/staten-island-mental-health-a-div-of-richmond-un
  name: Staten Island Mental Health A Div of Richmond University Med Ctr
  categories:
  - su-treatment
  - mh-treatment
  address:
    street: 669 Castleton Avenue
    city: Staten Island
    state: ny
    zip: '10301'
  geo:
    lat: 40.63529
    lng: -74.10375
  phone: 718-818-4440
  website: https://www.rumcsi.org/staten-island-mental-health-society
  sources:
  - samhsa/findtreatment
  verified:
    'on': '2026-07-19'
    method: api
- id: ny/staten-island/staten-island-mental-health-a-division-a-div-of
  name: Staten Island Mental Health A Division A Div of Richmond University Med Ctr
  categories:
  - su-treatment
  - mh-treatment
  address:
    street: 669 Castleton Avenue
    city: Staten Island
    state: ny
    zip: '10301'
  geo:
    lat: 40.63529
    lng: -74.10375
  phone: 718-818-6690
  website: https://www.rumcsi.org
  sources:
  - samhsa/findtreatment
  verified:
    'on': '2026-07-19'
    method: api
- id: ny/staten-island/staten-island-university-hospital-methadone-clin
  name: Staten Island University Hospital Methadone Clinic
  categories:
  - su-treatment
  address:
    street: 111 Water Street
    city: Staten Island
    state: ny
    zip: '10304'
  geo:
    lat: 40.62722
    lng: -74.07781
  phone: 718-226-4990
  website: https://www.northwell.edu
  sources:
  - samhsa/findtreatment
  verified:
    'on': '2026-07-19'
    method: api
- id: ny/staten-island/staten-island-university-hospital-methadone-main
  name: Staten Island University Hospital Methadone Maintenance Treatment Prog
  categories:
  - su-treatment
  address:
    street: 392 Seguine Avenue
    city: Staten Island
    state: ny
    zip: '10309'
  geo:
    lat: 40.51637
    lng: -74.19737
  phone: 718-226-2808 x3819
  website: https://www.northwell.edu
  sources:
  - samhsa/findtreatment
  verified:
    'on': '2026-07-19'
    method: api
- id: ny/staten-island/staten-island-university-hospital-outpatient-cli
  name: Staten Island University Hospital Outpatient Clinic
  categories:
  - su-treatment
  address:
    street: 450 Seaview Avenue
    city: Staten Island
    state: ny
    zip: '10305'
  geo:
    lat: 40.58402
    lng: -74.08779
  phone: 718-226-2752
  website: https://www.northwell.edu
  sources:
  - samhsa/findtreatment
  verified:
    'on': '2026-07-19'
    method: api
- id: ny/staten-island/staten-island-university-hospital-outpatient-men
  name: Staten Island University Hospital Outpatient Mental Health
  categories:
  - su-treatment
  - mh-treatment
  address:
    street: 450 Seaview Avenue
    city: Staten Island
    state: ny
    zip: '10305'
  geo:
    lat: 40.58402
    lng: -74.08779
  phone: 718-226-9000
  website: https://www.northwell.edu
  sources:
  - samhsa/findtreatment
  verified:
    'on': '2026-07-19'
    method: api
- id: ny/staten-island/staten-island-university-hospital-south-inpatien
  name: Staten Island University Hospital South Inpatient Unit
  categories:
  - su-treatment
  - mh-treatment
  address:
    street: 375 Seguine Avenue
    city: Staten Island
    state: ny
    zip: '10309'
  phone: 718-226-9000
  website: https://www.northwell.edu
  sources:
  - samhsa/findtreatment
  verified:
    'on': '2026-07-19'
    method: api
- id: ny/staten-island/staten-island-ymca-counseling-service-outpatient
  name: Staten Island YMCA Counseling Service Outpatient Clinic
  categories:
  - su-treatment
  address:
    street: 3911 Richmond Avenue
    city: Staten Island
    state: ny
    zip: '10312'
  geo:
    lat: 40.54308
    lng: -74.16357
  phone: 718-948-3232
  website: https://www.ymcanyc.org/counseling
  sources:
  - samhsa/findtreatment
  verified:
    'on': '2026-07-19'
    method: api
- id: ny/staten-island/sun-river-health-56-bay-street-822-program
  name: Sun River Health 56 Bay Street 822 Program
  categories:
  - community-health-center
  address:
    street: 56 Bay St
    city: Staten Island
    state: ny
    zip: '10301'
  geo:
    lat: 40.64072
    lng: -74.07591
  phone: 844-400-1975
  website: https://www.sunriver.org
  external_ids:
    bphc: BPS-H80-040445
  sources:
  - hrsa/health-center-sites
  verified:
    'on': '2026-07-19'
    method: api
- id: ny/staten-island/sun-river-health-bay-street-health-center
  name: Sun River Health Bay Street Health Center
  categories:
  - community-health-center
  address:
    street: 57 Bay St
    city: Staten Island
    state: ny
    zip: '10301'
  geo:
    lat: 40.64064
    lng: -74.0755
  phone: 718-681-8700
  external_ids:
    bphc: BPS-H80-027225
  sources:
  - hrsa/health-center-sites
  verified:
    'on': '2026-07-19'
    method: api
- id: ny/staten-island/temporary-site-bcchc-hotel-sanctuary-1
  name: Temporary Site - BCCHC Hotel Sanctuary 1
  categories:
  - community-health-center
  address:
    street: 300 Wild Ave
    city: Staten Island
    state: ny
    zip: '10314'
  geo:
    lat: 40.58647
    lng: -74.19054
  phone: 917-348-6291
  external_ids:
    bphc: BPS-H80-035788
  sources:
  - hrsa/health-center-sites
  verified:
    'on': '2026-07-19'
    method: api
- id: ny/staten-island/temporary-site-bcchc-hotel-sanctuary-2
  name: Temporary Site - BCCHC Hotel Sanctuary 2
  categories:
  - community-health-center
  address:
    street: 310 Wild Ave
    city: Staten Island
    state: ny
    zip: '10314'
  geo:
    lat: 40.58627
    lng: -74.19012
  phone: 917-348-6291
  external_ids:
    bphc: BPS-H80-035789
  sources:
  - hrsa/health-center-sites
  verified:
    'on': '2026-07-19'
    method: api
- id: ny/staten-island/va-ny-harbor-healthcare-system-staten-island-com
  name: VA NY Harbor Healthcare System Staten Island Community Clinic
  categories:
  - su-treatment
  - mh-treatment
  address:
    street: 1150 South Avenue
    city: Staten Island
    state: ny
    zip: '10314'
  geo:
    lat: 40.61202
    lng: -74.17776
  phone: 718-761-2973
  website: https://
  sources:
  - samhsa/findtreatment
  verified:
    'on': '2026-07-19'
    method: api
- id: ny/staten-island/vanderbilt-community-health-center
  name: Vanderbilt Community Health Center
  categories:
  - community-health-center
  address:
    street: 165 Vanderbilt Ave
    city: Staten Island
    state: ny
    zip: '10304'
  geo:
    lat: 40.62035
    lng: -74.07689
  phone: 718-616-0999
  external_ids:
    bphc: BPS-H80-022230
  sources:
  - hrsa/health-center-sites
  verified:
    'on': '2026-07-19'
    method: api
- id: ny/staten-island/yvy-10-gregg-place
  name: YvY-10 Gregg Place
  categories:
  - child-care
  address:
    street: 10 Gregg Pl
    city: Staten Island
    state: ny
    zip: '10301'
  geo:
    lat: 40.63211
    lng: -74.09936
  phone: 718-815-4488
  sources:
  - acf/head-start-locations
  verified:
    'on': '2026-07-19'
    method: api
- id: ny/staten-island/yvy-20-park-hill-circle
  name: YvY-20 Park Hill Circle
  categories:
  - child-care
  address:
    street: 20 Park Hill Cir
    city: Staten Island
    state: ny
    zip: '10304'
  geo:
    lat: 40.61618
    lng: -74.07761
  phone: 718-720-0090
  sources:
  - acf/head-start-locations
  verified:
    'on': '2026-07-19'
    method: api
- id: ny/staten-island/yvy-835
  name: YvY-835
  categories:
  - child-care
  address:
    street: 835 Forest Hill Rd
    city: Staten Island
    state: ny
    zip: '10314'
  geo:
    lat: 40.60236
    lng: -74.14006
  phone: 718-514-8870
  sources:
  - acf/head-start-locations
  verified:
    'on': '2026-07-19'
    method: api
