- id: ny/watkins-glen/clute-park-community-center
  name: Clute Park Community Center
  categories:
  - meal-program
  address: {street: 155 S Clute Park Dr, city: Watkins Glen, state: ny, zip: '14891'}
  description: Free summer meals for kids and teens (2026 season) — sponsored by Watkins Glen CSD.
  place: '3678696'
  geo: {lat: 42.38343, lng: -76.85962}
  phone: (607) 535-3214
  external_ids: {usda_master: Cycle 05_NY_SFSP_0105}
  sources:
  - usda/summer-meal-sites
  verified: {'on': '2026-07-19', method: api}
- id: ny/watkins-glen/clute-park-lakeside
  name: Clute Park Lakeside
  categories:
  - meal-program
  address: {street: 4Th St, city: Watkins Glen, state: ny, zip: '14891'}
  description: Free summer meals for kids and teens (2026 season) — sponsored by Watkins Glen CSD.
  place: '3678696'
  geo: {lat: 42.38354, lng: -76.86341}
  phone: (607) 535-3214
  external_ids: {usda_master: Cycle 05_NY_SFSP_0106}
  sources:
  - usda/summer-meal-sites
  verified: {'on': '2026-07-19', method: api}
- id: ny/watkins-glen/finger-lakes-area-counseling-and-recovery-agency
  name: Finger Lakes Area Counseling and Recovery Agency/FLACRA Add Clinic OP 1
  categories:
  - su-treatment
  address:
    street: 106 South Perry Street
    city: Watkins Glen
    state: ny
    zip: '14891'
  place: '3678696'
  geo:
    lat: 42.37645
    lng: -76.86462
  phone: 607-535-8260
  website: https://www.flacra.org
  sources:
  - samhsa/findtreatment
  verified:
    'on': '2026-07-19'
    method: api
- id: ny/watkins-glen/schuyler-county-mental-health-services-schuyler
  name: Schuyler County Mental Health Services Schuyler Cnty MH Servs/C Y SCM
  categories:
  - su-treatment
  - mh-treatment
  address:
    street: Mill Creek Center
    city: Watkins Glen
    state: ny
    zip: '14891'
  place: '3678696'
  geo:
    lat: 42.37644
    lng: -76.86465
  phone: 607-535-8282
  website: https://www.schuylercountyny.gov/147/Community-Services
  sources:
  - samhsa/findtreatment
  verified:
    'on': '2026-07-19'
    method: api
- id: ny/watkins-glen/watkins-glen-central-high-school
  name: Watkins Glen Central High School
  categories:
  - meal-program
  address: {street: 301 12Th St, city: Watkins Glen, state: ny, zip: '14891'}
  description: Free summer meals for kids and teens (2026 season) — sponsored by Watkins Glen CSD.
  place: '3678696'
  geo: {lat: 42.37549, lng: -76.86506}
  phone: (607) 535-3214
  external_ids: {usda_master: Cycle 05_NY_SFSP_0811}
  sources:
  - usda/summer-meal-sites
  verified: {'on': '2026-07-19', method: api}
- id: ny/watkins-glen/watkins-glen-elementary-school
  name: Watkins Glen Elementary School
  categories:
  - child-care
  address:
    street: 612 S Decatur St
    city: Watkins Glen
    state: ny
    zip: '14891'
  place: '3678696'
  geo:
    lat: 42.37248
    lng: -76.8657
  phone: 607-535-3250
  sources:
  - acf/head-start-locations
  verified:
    'on': '2026-07-19'
    method: api
