- id: or/beaverton/he-do-recover
  name: He Do Recover
  program: na
  categories:
  - recovery-meeting
  schedule:
  - {day: tue, time: '19:15', duration_min: 75}
  format: hybrid
  types:
  - o
  - m
  - wc
  - hy
  venue: {street: 12555 SW 4th St, city: Beaverton, state: or, zip: '97005'}
  place: '4105350'
  geo: {lat: 45.48451, lng: -122.80611}
  conference_url: https://us04web.zoom.us/j/578050311
  external_ids: {bmlt: '38:2606'}
  sources:
  - bmlt/aggregator
  verified: {'on': '2026-07-19', method: api}
- id: or/beaverton/hell-and-back
  name: Hell and Back
  program: na
  categories:
  - recovery-meeting
  schedule:
  - {day: thu, time: '19:00', duration_min: 75}
  format: in-person
  types:
  - o
  - wc
  - cw
  venue: {street: 8970 SW Murray Blvd, city: Beaverton, state: or, zip: '97008'}
  place: '4105350'
  geo: {lat: 45.45503, lng: -122.82486}
  external_ids: {bmlt: '38:2608'}
  sources:
  - bmlt/aggregator
  verified: {'on': '2026-07-19', method: api}
- id: or/beaverton/higher-powered
  name: Higher Powered
  program: na
  categories:
  - recovery-meeting
  schedule:
  - {day: tue, time: '17:30', duration_min: 60}
  format: in-person
  types:
  - o
  - wc
  - me
  venue: {street: 12405 SW Butner Rd, city: Beaverton, state: or}
  place: '4105350'
  geo: {lat: 45.5145, lng: -122.80476}
  external_ids: {bmlt: '38:20867'}
  sources:
  - bmlt/aggregator
  verified: {'on': '2026-07-19', method: api}
- id: or/beaverton/kick-the-monkey
  name: Kick the Monkey
  program: na
  categories:
  - recovery-meeting
  schedule:
  - {day: tue, time: '19:00', duration_min: 60}
  format: in-person
  venue: {street: 18653 SW Farmington Rd, city: Beaverton, state: or, zip: '97007'}
  place: '4105350'
  geo: {lat: 45.47483, lng: -122.86946}
  external_ids: {bmlt: '38:20916'}
  sources:
  - bmlt/aggregator
  verified: {'on': '2026-07-19', method: api}
- id: or/beaverton/kick-the-monkey-2
  name: Kick the Monkey
  program: na
  categories:
  - recovery-meeting
  schedule:
  - {day: wed, time: '19:15', duration_min: 60}
  format: in-person
  venue: {street: 18653 SW Farmington Rd, city: Beaverton, state: or, zip: '97007'}
  place: '4105350'
  geo: {lat: 45.47483, lng: -122.86946}
  external_ids: {bmlt: '38:18889'}
  sources:
  - bmlt/aggregator
  verified: {'on': '2026-07-19', method: api}
- id: or/beaverton/queer-conscience
  name: Queer Conscience
  program: na
  categories:
  - recovery-meeting
  schedule:
  - {day: mon, time: '18:30', duration_min: 75}
  format: in-person
  types:
  - o
  - lgbt
  - wc
  venue: {street: 5150 SW Watson Ave, city: Beaverton, state: or, zip: '97005'}
  place: '4105350'
  geo: {lat: 45.48249, lng: -122.80627}
  external_ids: {bmlt: '38:18441'}
  sources:
  - bmlt/aggregator
  verified: {'on': '2026-07-19', method: api}
- id: or/beaverton/serene-clean
  name: Serene & Clean
  program: na
  categories:
  - recovery-meeting
  schedule:
  - {day: sun, time: '16:30', duration_min: 60}
  format: in-person
  types:
  - o
  - b
  - cl
  - w
  - wc
  - cw
  venue_name: Bethlehem Lutheran Church
  venue: {street: 18865 Southwest Johnson Street, city: Beaverton, state: or, zip: 97006-3164}
  place: '4105350'
  geo: {lat: 45.50109, lng: -122.87144}
  conference_url: https://zoom.us/j/85429018124
  external_ids: {bmlt: '38:1750'}
  sources:
  - bmlt/aggregator
  verified: {'on': '2026-07-19', method: api}
- id: or/beaverton/we-re-no-angels
  name: We're No Angels
  program: na
  categories:
  - recovery-meeting
  schedule:
  - {day: mon, time: '19:00', duration_min: 75}
  format: in-person
  types:
  - o
  venue: {street: 8970 SW Murray Blvd, city: Beaverton, state: or, zip: '97008'}
  place: '4105350'
  geo: {lat: 45.45502, lng: -122.82486}
  external_ids: {bmlt: '38:2603'}
  sources:
  - bmlt/aggregator
  verified: {'on': '2026-07-19', method: api}
