- id: ar/batesville/arcare-028
  name: ARcare - 028
  categories:
  - community-health-center
  address:
    street: 2000 Harrison St
    city: Batesville
    state: ar
    zip: '72501'
  place: '0504030'
  geo:
    lat: 35.76951
    lng: -91.63115
  phone: 870-347-2534
  website: https://www.arcare.net
  external_ids:
    bphc: BPS-H80-031911
  sources:
  - hrsa/health-center-sites
  verified:
    'on': '2026-07-19'
    method: api
- id: ar/batesville/arcare-35
  name: ARcare - 35
  categories:
  - community-health-center
  address:
    street: 1175 Vine St
    city: Batesville
    state: ar
    zip: '72501'
  place: '0504030'
  geo:
    lat: 35.77415
    lng: -91.6415
  phone: 870-251-9933
  website: https://www.arcare.net
  external_ids:
    bphc: BPS-H80-008966
  sources:
  - hrsa/health-center-sites
  verified:
    'on': '2026-07-19'
    method: api
- id: ar/batesville/arcare-48
  name: ARcare - 48
  categories:
  - community-health-center
  address:
    street: 4100 Harrison St
    city: Batesville
    state: ar
    zip: '72501'
  place: '0504030'
  geo:
    lat: 35.76695
    lng: -91.59148
  phone: 870-347-2534
  website: https://www.arcare.net
  external_ids:
    bphc: BPS-H80-013909
  sources:
  - hrsa/health-center-sites
  verified:
    'on': '2026-07-19'
    method: api
- id: ar/batesville/arisa-health-inc-batesville-clinic
  name: Arisa Health Inc Batesville Clinic
  categories:
  - su-treatment
  - mh-treatment
  address:
    street: 25 Gap Road
    city: Batesville
    state: ar
    zip: '72501'
  place: '0504030'
  geo:
    lat: 35.76813
    lng: -91.5983
  phone: 870-972-4000
  website: https://www.arisahealth.org
  sources:
  - samhsa/findtreatment
  verified:
    'on': '2026-07-19'
    method: api
- id: ar/batesville/batesville-east-early-head-start
  name: Batesville East Early Head Start
  categories:
  - child-care
  address:
    street: 625 S 18th St
    city: Batesville
    state: ar
    zip: '72501'
  place: '0504030'
  geo:
    lat: 35.7732
    lng: -91.63408
  phone: 870-870-3234
  sources:
  - acf/head-start-locations
  verified:
    'on': '2026-07-19'
    method: api
- id: ar/batesville/batesville-junior-high
  name: Batesville Junior High
  categories:
  - meal-program
  address: {street: 2 Pioneer Dr, city: Batesville, state: ar, zip: '72501'}
  description: Free summer meals for kids and teens (2026 season) — sponsored by Batesville School District.
  place: '0504030'
  geo: {lat: 35.75535, lng: -91.62388}
  phone: (870) 793-6831
  external_ids: {usda_master: Cycle 05_AR_SSO_0278}
  sources:
  - usda/summer-meal-sites
  verified: {'on': '2026-07-19', method: api}
- id: ar/batesville/bethesday-fire-department
  name: Bethesday Fire Department
  categories:
  - meal-program
  address: {street: 35 Earnhar Rd, city: Batesville, state: ar, zip: '72501'}
  description: Free summer meals for kids and teens (2026 season) — sponsored by Batesville School District.
  place: '0504030'
  geo: {lat: 35.7908, lng: -91.78608}
  phone: (870) 793-6831
  external_ids: {usda_master: Cycle 05_AR_SSO_0276}
  sources:
  - usda/summer-meal-sites
  verified: {'on': '2026-07-19', method: api}
- id: ar/batesville/bhg-medical-services-batesville
  name: BHG Medical Services Batesville
  categories:
  - su-treatment
  address:
    street: 255 East College Avenue
    city: Batesville
    state: ar
    zip: '72501'
  place: '0504030'
  geo:
    lat: 35.77031
    lng: -91.65208
  phone: 870-569-9862
  website: https://www.bhgrecovery.com/locations/medical-serv
  sources:
  - samhsa/findtreatment
  verified:
    'on': '2026-07-19'
    method: api
- id: ar/batesville/central-avenue-umc-blessing-box
  name: Central Avenue UMC Blessing Box
  categories:
  - food-pantry
  place: '0504030'
  geo:
    lat: 35.77787
    lng: -91.66081
  external_ids:
    lfp: '849'
  sources:
  - littlefreepantry/map
  verified:
    'on': '2026-07-19'
    method: scrape
- id: ar/batesville/cushman-city-park
  name: Cushman City Park
  categories:
  - meal-program
  address: {street: 6235 N Central Ave, city: Batesville, state: ar, zip: '72501'}
  description: Free summer meals for kids and teens (2026 season) — sponsored by Batesville School District.
  place: '0504030'
  geo: {lat: 35.87265, lng: -91.75374}
  phone: (870) 793-6831
  external_ids: {usda_master: Cycle 05_AR_SSO_0275}
  sources:
  - usda/summer-meal-sites
  verified: {'on': '2026-07-19', method: api}
- id: ar/batesville/eagle-mountain-elementary
  name: Eagle Mountain Elementary
  categories:
  - meal-program
  address: {street: 600 Eagle Mountain Blvd, city: Batesville, state: ar, zip: '72501'}
  description: Free summer meals for kids and teens (2026 season) — sponsored by Batesville School District.
  place: '0504030'
  geo: {lat: 35.75959, lng: -91.60969}
  phone: (870) 793-6831
  external_ids: {usda_master: Cycle 05_AR_SSO_0274}
  sources:
  - usda/summer-meal-sites
  verified: {'on': '2026-07-19', method: api}
- id: ar/batesville/east-batesville-head-start
  name: East Batesville Head Start
  categories:
  - child-care
  address:
    street: 1900 Lyon St
    city: Batesville
    state: ar
    zip: '72501'
  place: '0504030'
  geo:
    lat: 35.77308
    lng: -91.63407
  phone: 870-870-3234
  sources:
  - acf/head-start-locations
  verified:
    'on': '2026-07-19'
    method: api
- id: ar/batesville/housing-authority-of-the-city-of-batesville
  name: Housing Authority Of The City Of Batesville
  categories:
  - housing-assistance
  address:
    street: 1590 E College St
    city: Batesville
    state: ar
    zip: '72501'
  description: Public housing (Low-Rent) agency
  place: '0504030'
  geo:
    lat: 35.77716
    lng: -91.63703
  phone: 870-793-9104
  sources:
  - hud/resource-locator
  verified:
    'on': '2026-07-19'
    method: api
- id: ar/batesville/pinnacle-pointe-outpatient-batesville
  name: Pinnacle Pointe Outpatient Batesville
  categories:
  - su-treatment
  - mh-treatment
  address:
    street: 398 Barnett Drive
    city: Batesville
    state: ar
    zip: '72501'
  place: '0504030'
  geo:
    lat: 35.78922
    lng: -91.64211
  phone: 870-793-6774
  website: https://www.thepointebhs.com
  sources:
  - samhsa/findtreatment
  verified:
    'on': '2026-07-19'
    method: api
- id: ar/batesville/sulphur-rock-early-head-start
  name: Sulphur Rock Early Head Start
  categories:
  - child-care
  address:
    street: 1900 Lyon St
    city: Batesville
    state: ar
    zip: '72501'
  place: '0504030'
  geo:
    lat: 35.77318
    lng: -91.6337
  phone: 870-799-3415
  sources:
  - acf/head-start-locations
  verified:
    'on': '2026-07-19'
    method: api
- id: ar/batesville/west-elementary
  name: West Elementary
  categories:
  - meal-program
  address: {street: 850 N Hill St, city: Batesville, state: ar, zip: '72501'}
  description: Free summer meals for kids and teens (2026 season) — sponsored by Batesville School District.
  place: '0504030'
  geo: {lat: 35.77794, lng: -91.65548}
  phone: (870) 793-6831
  external_ids: {usda_master: Cycle 05_AR_SSO_0280}
  sources:
  - usda/summer-meal-sites
  verified: {'on': '2026-07-19', method: api}
- id: ar/batesville/white-river-medical-center-senior-haven
  name: White River Medical Center Senior Haven
  categories:
  - su-treatment
  - mh-treatment
  address:
    street: 1710 Harrison Street
    city: Batesville
    state: ar
    zip: '72501'
  place: '0504030'
  geo:
    lat: 35.76767
    lng: -91.63433
  phone: 870-262-1200 x1223
  website: https://whiteriverhealth.org/
  sources:
  - samhsa/findtreatment
  verified:
    'on': '2026-07-19'
    method: api
