- id: ar/hot-springs/c-s-o-inc-head-start-center-hot-springs
  name: C.S.O. Inc. Head Start Center-Hot Springs
  categories:
  - child-care
  address:
    street: 401 Garden St
    city: Hot Springs
    state: ar
    zip: '71901'
  place: '0533400'
  geo:
    lat: 34.50854
    lng: -93.04577
  phone: 501-623-3545
  sources:
  - acf/head-start-locations
  verified:
    'on': '2026-07-19'
    method: api
- id: ar/hot-springs/cso-early-head-start-center-pat-longinotti
  name: CSO Early Head Start Center - Pat Longinotti
  categories:
  - child-care
  address:
    street: 220 Tom Ellsworth Dr
    city: Hot Springs
    state: ar
    zip: '71901'
  place: '0533400'
  geo:
    lat: 34.52822
    lng: -93.0469
  phone: 501-623-3545
  sources:
  - acf/head-start-locations
  verified:
    'on': '2026-07-19'
    method: api
- id: ar/hot-springs/cso-early-head-start-leon-r-massey
  name: CSO Early Head Start - Leon R. Massey
  categories:
  - child-care
  address:
    street: 315 Whittington Ave
    city: Hot Springs
    state: ar
    zip: '71901'
  place: '0533400'
  geo:
    lat: 34.51613
    lng: -93.06
  phone: 501-762-8122
  sources:
  - acf/head-start-locations
  verified:
    'on': '2026-07-19'
    method: api
- id: ar/hot-springs/cso-early-head-start-pat-longinotti
  name: CSO Early Head Start - Pat Longinotti
  categories:
  - child-care
  address:
    street: 220 Tom Ellsworth Dr
    city: Hot Springs
    state: ar
    zip: '71901'
  place: '0533400'
  geo:
    lat: 34.52837
    lng: -93.04715
  phone: 501-623-3545
  sources:
  - acf/head-start-locations
  verified:
    'on': '2026-07-19'
    method: api
- id: ar/hot-springs/cso-inc-head-start-center-south-west-plaza
  name: CSO Inc., Head Start Center-South West Plaza
  categories:
  - child-care
  address:
    street: 600 Main St
    street2: Ste M
    city: Hot Springs
    state: ar
    zip: '71913'
  place: '0533400'
  geo:
    lat: 34.48843
    lng: -93.07626
  phone: 501-318-6955
  sources:
  - acf/head-start-locations
  verified:
    'on': '2026-07-19'
    method: api
- id: ar/hot-springs/hot-springs-child-care-center-i
  name: Hot Springs Child Care Center I
  categories:
  - child-care
  address:
    street: 600 Main St
    street2: Ste H
    city: Hot Springs
    state: ar
    zip: '71913'
  place: '0533400'
  geo:
    lat: 34.48835
    lng: -93.07538
  phone: 501-623-7320
  sources:
  - acf/head-start-locations
  verified:
    'on': '2026-07-19'
    method: api
- id: ar/hot-springs/hot-springs-child-care-center-ii
  name: Hot Springs Child Care Center II
  categories:
  - child-care
  address:
    street: 1125 Malvern Ave
    city: Hot Springs
    state: ar
    zip: '71901'
  place: '0533400'
  geo:
    lat: 34.50062
    lng: -93.04276
  phone: 501-625-7320
  sources:
  - acf/head-start-locations
  verified:
    'on': '2026-07-19'
    method: api
- id: ar/hot-springs/hot-springs-childcare-iii
  name: Hot Springs Childcare III
  categories:
  - child-care
  address:
    street: 802 Emory St
    city: Hot Springs
    state: ar
    zip: '71913'
  place: '0533400'
  geo:
    lat: 34.47666
    lng: -93.07232
  phone: 501-623-7320
  sources:
  - acf/head-start-locations
  verified:
    'on': '2026-07-19'
    method: api
- id: ar/hot-springs/hot-springs-lakeside-center
  name: Hot Springs Lakeside Center
  categories:
  - child-care
  address:
    street: 1243 Lakeside Rd
    city: Hot Springs
    state: ar
    zip: '71901'
  place: '0533400'
  geo:
    lat: 34.47314
    lng: -92.99387
  phone: 501-492-9867
  sources:
  - acf/head-start-locations
  verified:
    'on': '2026-07-19'
    method: api
- id: ar/hot-springs/hssd-blessing-box
  name: HSSD Blessing Box
  categories:
  - food-pantry
  place: '0533400'
  geo:
    lat: 34.49753
    lng: -93.06128
  external_ids:
    lfp: '137'
  sources:
  - littlefreepantry/map
  verified:
    'on': '2026-07-19'
    method: scrape
- id: ar/hot-springs/lake-valley-free-food-pantry
  name: Lake Valley free food pantry
  categories:
  - food-pantry
  place: '0533400'
  geo:
    lat: 34.46449
    lng: -93.03068
  external_ids:
    lfp: '5858'
  sources:
  - littlefreepantry/map
  verified:
    'on': '2026-07-19'
    method: scrape
- id: ar/hot-springs/wendy-lee-johnson
  name: Wendy Lee Johnson
  categories:
  - food-pantry
  place: '0533400'
  geo:
    lat: 34.50239
    lng: -93.06578
  external_ids:
    lfp: '5955'
  sources:
  - littlefreepantry/map
  verified:
    'on': '2026-07-19'
    method: scrape
