- id: ar/jacksonville/arcare-097
  name: ARcare - 097
  categories:
  - community-health-center
  address:
    street: 1400 Murrell Taylor Dr
    city: Jacksonville
    state: ar
    zip: '72076'
  place: '0534750'
  geo:
    lat: 34.85456
    lng: -92.08528
  phone: 870-347-2534
  external_ids:
    bphc: BPS-H80-039832
  sources:
  - hrsa/health-center-sites
  verified:
    'on': '2026-07-19'
    method: api
- id: ar/jacksonville/arcare-111
  name: ARcare-111
  categories:
  - community-health-center
  address:
    street: 1400 Braden St
    city: Jacksonville
    state: ar
    zip: '72076'
  place: '0534750'
  geo:
    lat: 34.87241
    lng: -92.12502
  phone: 870-347-2534
  website: https://www.arcare.net
  external_ids:
    bphc: BPS-H80-024402
  sources:
  - hrsa/health-center-sites
  verified:
    'on': '2026-07-19'
    method: api
- id: ar/jacksonville/cals-be-mighty-little-free-pantry-at-nixon-libra
  name: CALS + Be Mighty Little Free Pantry at Nixon Library
  categories:
  - food-pantry
  place: '0534750'
  geo:
    lat: 34.86673
    lng: -92.11673
  external_ids:
    lfp: '4000'
  sources:
  - littlefreepantry/map
  verified:
    'on': '2026-07-19'
    method: scrape
- id: ar/jacksonville/jacksonville-arkansas-little-free-pantry-multipl
  name: JACKSONVILLE ARKANSAS LITTLE FREE PANTRY (multiple listings)
  categories:
  - food-pantry
  place: '0534750'
  geo:
    lat: 34.87952
    lng: -92.12796
  external_ids:
    lfp: '3299'
  sources:
  - littlefreepantry/map
  verified:
    'on': '2026-07-19'
    method: scrape
- id: ar/jacksonville/kid-to-kid-1-child-development-center
  name: Kid To Kid 1 Child Development Center
  categories:
  - child-care
  address:
    street: 213 W Main St
    city: Jacksonville
    state: ar
    zip: '72076'
  place: '0534750'
  geo:
    lat: 34.86671
    lng: -92.11234
  phone: 501-985-8200
  sources:
  - acf/head-start-locations
  verified:
    'on': '2026-07-19'
    method: api
