- id: ar/lowell/arcare-082
  name: ARcare - 082
  categories:
  - community-health-center
  cost: sliding-scale
  address: {street: 212 W Monroe Ave STE B, city: Lowell, state: ar, zip: '72745'}
  place: '0541720'
  geo: {lat: 36.25449, lng: -94.14014}
  phone: 870-347-2534
  website: https://www.arcare.net
  external_ids: {bphc: BPS-H80-037853}
  sources:
  - hrsa/health-center-sites
  verified: {'on': '2026-07-19', method: api}
- id: ar/lowell/lowell-elementary-site
  name: Lowell Elementary Site
  categories:
  - family-youth
  description: Boys & Girls Club
  address: {street: 202 Mcclure Ave, city: Lowell, state: ar, zip: '72745'}
  geo: {lat: 36.2586, lng: -94.13442}
  place: '0541720'
  phone: 479-505-2777
  website: http://www.bgcbentoncounty.org
  services:
  - Meals
  external_ids: {bgca_site: '12718', bgca_org: '10502'}
  sources:
  - bgca/find-a-club
  verified: {'on': '2026-07-21', method: api}
- id: ar/lowell/millwood-christian-church
  name: Millwood Christian Church
  categories:
  - food-pantry
  place: '0541720'
  geo: {lat: 36.28292, lng: -94.1667}
  website: https://mapping.littlefreepantry.org/pantry/715
  external_ids: {lfp: '715'}
  sources:
  - littlefreepantry/map
  verified: {'on': '2026-07-19', method: scrape}
- id: ar/lowell/springdale-public-school-district-lfp
  name: Springdale Public School District LFP
  categories:
  - food-pantry
  place: '0541720'
  geo: {lat: 36.23233, lng: -94.12161}
  website: https://mapping.littlefreepantry.org/pantry/1166
  external_ids: {lfp: '1166'}
  sources:
  - littlefreepantry/map
  verified: {'on': '2026-07-19', method: scrape}
- id: ar/lowell/tucker-elementary-skc
  name: Tucker Elementary SKC
  categories:
  - family-youth
  description: Boys & Girls Club
  address: {street: 121 N School Ave, city: Lowell, state: ar, zip: '72745'}
  geo: {lat: 36.271, lng: -94.13794}
  place: '0541720'
  phone: 479-504-6139
  website: http://www.bgcbentoncounty.org
  external_ids: {bgca_site: '12662', bgca_org: '10502'}
  sources:
  - bgca/find-a-club
  verified: {'on': '2026-07-21', method: api}
- id: ar/lowell/ward-nail-park-lowell-elementary
  name: Ward Nail Park Lowell Elementary
  categories:
  - meal-program
  address: {street: 801 Mcclure Ave, city: Lowell, state: ar, zip: '72745'}
  description: Free summer meals for kids and teens (2026 season) — sponsored by Rogers School District.
  place: '0541720'
  geo: {lat: 36.25722, lng: -94.1215}
  phone: (479) 631-3579
  external_ids: {usda_master: Cycle 04_AR_SSO_0229}
  sources:
  - usda/summer-meal-sites
  verified: {'on': '2026-07-19', method: api}
