- id: ar/mount-ida/central-arkansas-development-council-inc-cadc
  name: Central Arkansas Development Council Inc. (CADC)
  categories:
  - utility-assistance
  description: LIHEAP intake office serving Montgomery County
  address: {street: 158 Senior Drive, city: Mt Ida, state: ar, zip: '71957'}
  place: 0547690
  phone: 870-867-0151
  email: LIHEAPINFO@CADC.COM
  website: https://www.cadc.com/utility-assistance
  sources:
  - acf/liheap-clearinghouse
  verified: {'on': '2026-07-19', method: scrape}
  geo: {lat: 34.54381, lng: -93.62775}
- id: ar/mount-ida/housing-authority-of-the-city-of-mount-ida
  name: Housing Authority Of The City Of Mount Ida
  categories:
  - housing-assistance
  address: {street: 19 Graham Ct, city: Mount Ida, state: ar, zip: '71957'}
  description: Public housing (Low-Rent) agency
  place: 0547690
  geo: {lat: 34.55345, lng: -93.63596}
  phone: 870-867-2332
  sources:
  - hud/resource-locator
  verified: {'on': '2026-07-19', method: api}
- id: ar/mount-ida/montgomery-county-community-clinic
  name: Montgomery County Community Clinic
  categories:
  - community-health-center
  cost: sliding-scale
  address: {street: 534 Luzerne St, city: Mount Ida, state: ar, zip: '71957'}
  place: 0547690
  geo: {lat: 34.55033, lng: -93.64062}
  phone: 870-867-4244
  website: https://www.healthy-connections.org
  external_ids: {bphc: BPS-H80-004783}
  sources:
  - hrsa/health-center-sites
  verified: {'on': '2026-07-19', method: api}
- id: ar/mount-ida/mount-ida-school-based-health-center-elementary
  name: Mount Ida School Based Health Center-Elementary Campus
  categories:
  - community-health-center
  cost: sliding-scale
  address: {street: 430 Ballpark Rd, city: Mount Ida, state: ar, zip: '71957'}
  place: 0547690
  geo: {lat: 34.55156, lng: -93.61627}
  phone: 479-437-3449
  external_ids: {bphc: BPS-H80-027038}
  sources:
  - hrsa/health-center-sites
  verified: {'on': '2026-07-19', method: api}
- id: ar/mount-ida/mount-ida-school-based-health-center-high-school
  name: Mount Ida School Based Health Center-High School Campus
  categories:
  - community-health-center
  cost: sliding-scale
  address: {street: 338 Whittington St, city: Mount Ida, state: ar, zip: '71957'}
  place: 0547690
  geo: {lat: 34.557, lng: -93.6372}
  phone: 479-437-3449
  external_ids: {bphc: BPS-H80-024988}
  sources:
  - hrsa/health-center-sites
  verified: {'on': '2026-07-19', method: api}
