- id: ar/newport/arcare-45
  name: ARcare - 45
  categories:
  - community-health-center
  address:
    street: 114 Ray St
    city: Newport
    state: ar
    zip: '72112'
  place: 0549580
  geo:
    lat: 35.60706
    lng: -91.25613
  phone: 870-523-2944
  external_ids:
    bphc: BPS-H80-024561
  sources:
  - hrsa/health-center-sites
  verified:
    'on': '2026-07-19'
    method: api
- id: ar/newport/arisa-health-inc-newport-clinic
  name: Arisa Health Inc Newport Clinic
  categories:
  - su-treatment
  - mh-treatment
  address:
    street: 1507 North Pecan Street
    city: Newport
    state: ar
    zip: '72112'
  place: 0549580
  geo:
    lat: 35.6206
    lng: -91.26542
  phone: 870-919-8432
  website: https://www.arisahealth.org
  sources:
  - samhsa/findtreatment
  verified:
    'on': '2026-07-19'
    method: api
- id: ar/newport/birch-tree-communities-inc-newport
  name: Birch Tree Communities Inc Newport
  categories:
  - mh-treatment
  address:
    street: 210 3rd Street
    city: Newport
    state: ar
    zip: '72112'
  place: 0549580
  geo:
    lat: 35.60588
    lng: -91.27923
  phone: 501-315-3344
  website: https://birchtree.org
  sources:
  - samhsa/findtreatment
  verified:
    'on': '2026-07-19'
    method: api
- id: ar/newport/carlew-templeton
  name: Carlew Templeton
  categories:
  - child-care
  address:
    street: 3119 Highway 367 N
    city: Newport
    state: ar
    zip: '72112'
  place: 0549580
  geo:
    lat: 35.63761
    lng: -91.25242
  phone: 870-523-5438
  sources:
  - acf/head-start-locations
  verified:
    'on': '2026-07-19'
    method: api
- id: ar/newport/crowley-ridge-development-council-inc-crdc
  name: Crowley Ridge Development Council, Inc. (CRDC)
  categories:
  - utility-assistance
  description: LIHEAP intake office serving Jackson County
  address: {street: '2000 McLain, Suite C', city: Newport, state: ar, zip: '72112'}
  place: 0549580
  phone: 870-523-5474
  email: crdc@crdcnea.org
  website: http://www.crdcnea.com/
  sources:
  - acf/liheap-clearinghouse
  verified: {'on': '2026-07-19', method: scrape}
- id: ar/newport/housing-authority-of-the-city-of-newport
  name: Housing Authority Of The City Of Newport
  categories:
  - housing-assistance
  address:
    street: 945 Hout Cir
    city: Newport
    state: ar
    zip: '72112'
  description: Public housing (Low-Rent) agency
  place: 0549580
  geo:
    lat: 35.61325
    lng: -91.25924
  phone: 870-523-2195
  sources:
  - hud/resource-locator
  verified:
    'on': '2026-07-19'
    method: api
- id: ar/newport/unity-health-newport-compass
  name: Unity Health Newport Compass
  categories:
  - su-treatment
  - mh-treatment
  address:
    street: 1205 McLain Street
    city: Newport
    state: ar
    zip: '72112'
  place: 0549580
  geo:
    lat: 35.60857
    lng: -91.26486
  phone: 870-512-3354
  website: https://www.unity-health.org
  sources:
  - samhsa/findtreatment
  verified:
    'on': '2026-07-19'
    method: api
