- id: ar/north-little-rock/annie-lea-s-pantry
  name: Annie Lea's Pantry
  categories:
  - food-pantry
  place: '0550450'
  geo:
    lat: 34.79307
    lng: -92.2576
  external_ids:
    lfp: '963'
  sources:
  - littlefreepantry/map
  verified:
    'on': '2026-07-19'
    method: scrape
- id: ar/north-little-rock/arcare-091
  name: ARcare - 091
  categories:
  - community-health-center
  address:
    street: 2411 McCain Blvd, Suite 2
    city: North Little Rock
    state: ar
    zip: '72116'
  place: '0550450'
  geo:
    lat: 34.79824
    lng: -92.2391
  phone: 870-347-2534
  external_ids:
    bphc: BPS-H80-038637
  sources:
  - hrsa/health-center-sites
  verified:
    'on': '2026-07-19'
    method: api
- id: ar/north-little-rock/arcare-78
  name: ARcare - 78
  categories:
  - community-health-center
  address:
    street: 4020 Richards Rd, Suite I
    city: North Little Rock
    state: ar
    zip: '72117'
  place: '0550450'
  geo:
    lat: 34.79065
    lng: -92.21237
  phone: 870-347-2534
  website: https://www.arcare.net
  external_ids:
    bphc: BPS-H80-036194
  sources:
  - hrsa/health-center-sites
  verified:
    'on': '2026-07-19'
    method: api
- id: ar/north-little-rock/arisa-health-inc-north-little-rock-clinic
  name: Arisa Health Inc North Little Rock Clinic
  categories:
  - su-treatment
  - mh-treatment
  address:
    street: 4354 Stockton Drive
    city: North Little Rock
    state: ar
    zip: '72117'
  place: '0550450'
  geo:
    lat: 34.7853
    lng: -92.21276
  phone: 501-955-7600
  website: https://www.arisahealth.com
  sources:
  - samhsa/findtreatment
  verified:
    'on': '2026-07-19'
    method: api
- id: ar/north-little-rock/baptist-health-behavioral
  name: Baptist Health Behavioral
  categories:
  - su-treatment
  - mh-treatment
  address:
    street: 3201 Springhill Drive
    city: North Little Rock
    state: ar
    zip: '72117'
  place: '0550450'
  geo:
    lat: 34.78207
    lng: -92.21914
  phone: 501-202-3750
  website: https://Baptist-Health.Com
  sources:
  - samhsa/findtreatment
  verified:
    'on': '2026-07-19'
    method: api
- id: ar/north-little-rock/bhg-medical-services-north-little-rock
  name: BHG Medical Services North Little Rock
  categories:
  - su-treatment
  address:
    street: 4260 Stockton Drive
    city: North Little Rock
    state: ar
    zip: '72117'
  place: '0550450'
  geo:
    lat: 34.78512
    lng: -92.21763
  phone: 501-916-9129
  website: https://www.bhgrecovery.com/locations/medical-services-nor
  sources:
  - samhsa/findtreatment
  verified:
    'on': '2026-07-19'
    method: api
- id: ar/north-little-rock/bhg-north-little-rock-treatment-center
  name: BHG North Little Rock Treatment Center
  categories:
  - su-treatment
  address:
    street: 4260 Stockton Drive
    city: North Little Rock
    state: ar
    zip: '72117'
  place: '0550450'
  geo:
    lat: 34.78512
    lng: -92.21763
  phone: 501-664-7833
  website: https://www.bhgrecovery.com/locations/north-little-rock
  sources:
  - samhsa/findtreatment
  verified:
    'on': '2026-07-19'
    method: api
- id: ar/north-little-rock/family-service-agency
  name: Family Service Agency
  categories:
  - su-treatment
  - mh-treatment
  address:
    street: 628 West Broadway
    city: North Little Rock
    state: ar
    zip: '72114'
  place: '0550450'
  geo:
    lat: 34.75521
    lng: -92.27556
  phone: 501-372-4242
  website: https://www.helpingfamiliesfirst.org
  sources:
  - samhsa/findtreatment
  verified:
    'on': '2026-07-19'
    method: api
- id: ar/north-little-rock/lakewood-united-methodist-church-blessing-box
  name: Lakewood United Methodist Church Blessing Box
  categories:
  - food-pantry
  place: '0550450'
  geo:
    lat: 34.79466
    lng: -92.24512
  external_ids:
    lfp: '4541'
  sources:
  - littlefreepantry/map
  verified:
    'on': '2026-07-19'
    method: scrape
- id: ar/north-little-rock/nlrhs-little-free-pantry
  name: NLRHS little free pantry
  categories:
  - food-pantry
  place: '0550450'
  geo:
    lat: 34.77634
    lng: -92.26812
  external_ids:
    lfp: '2398'
  sources:
  - littlefreepantry/map
  verified:
    'on': '2026-07-19'
    method: scrape
- id: ar/north-little-rock/north-little-rock
  name: North Little Rock
  categories:
  - child-care
  address:
    street: 8000 Industry Dr
    city: North Little Rock
    state: ar
    zip: '72117'
  place: '0550450'
  geo:
    lat: 34.74495
    lng: -92.17403
  phone: 501-313-2854
  sources:
  - acf/head-start-locations
  verified:
    'on': '2026-07-19'
    method: api
- id: ar/north-little-rock/north-little-rock-community-health-center
  name: North Little Rock Community Health Center
  categories:
  - community-health-center
  address:
    street: 2525 Willow St
    city: North Little Rock
    state: ar
    zip: '72114'
  place: '0550450'
  geo:
    lat: 34.77842
    lng: -92.27215
  phone: 501-812-0255
  external_ids:
    bphc: BPS-H80-021154
  sources:
  - hrsa/health-center-sites
  verified:
    'on': '2026-07-19'
    method: api
- id: ar/north-little-rock/north-little-rock-housing-authority
  name: North Little Rock Housing Authority
  categories:
  - housing-assistance
  address: {street: 4901 Fairway Ave Ste A, city: North Little Rock, state: ar, zip: '72116'}
  description: Public housing and Housing Choice Voucher agency
  place: '0550450'
  geo: {lat: 34.79941, lng: -92.23252}
  phone: 501-758-8911
  sources:
  - hud/resource-locator
  verified: {'on': '2026-07-19', method: api}
- id: ar/north-little-rock/refuge-church
  name: Refuge Church
  categories:
  - food-pantry
  place: '0550450'
  geo:
    lat: 34.75681
    lng: -92.26915
  external_ids:
    lfp: '3351'
  sources:
  - littlefreepantry/map
  verified:
    'on': '2026-07-19'
    method: scrape
- id: ar/north-little-rock/uams-little-learners
  name: UAMS Little Learners
  categories:
  - child-care
  address:
    street: 1500 W Pershing Blvd
    city: North Little Rock
    state: ar
    zip: '72114'
  place: '0550450'
  geo:
    lat: 34.78151
    lng: -92.28424
  phone: 501-526-4650
  sources:
  - acf/head-start-locations
  verified:
    'on': '2026-07-19'
    method: api
- id: ar/north-little-rock/uams-st-augustine
  name: UAMS St.. Augustine
  categories:
  - child-care
  address:
    street: 1410 E 2nd St
    city: North Little Rock
    state: ar
    zip: '72114'
  place: '0550450'
  geo:
    lat: 34.75452
    lng: -92.25147
  phone: 501-414-8921
  sources:
  - acf/head-start-locations
  verified:
    'on': '2026-07-19'
    method: api
