- id: ar/pine-bluff/10th-district-substance-abuse-program-dba-new-be
  name: 10th District Substance Abuse Program DBA New Beginnings CASA
  categories:
  - su-treatment
  - mh-treatment
  address:
    street: 2300 West 29th Street
    city: Pine Bluff
    state: ar
    zip: '71603'
  place: '0555310'
  geo:
    lat: 34.2002
    lng: -92.0257
  phone: 870-226-9955
  website: https://www.newbeginningscasa.com
  sources:
  - samhsa/findtreatment
  verified:
    'on': '2026-07-19'
    method: api
- id: ar/pine-bluff/arcare-155
  name: ARcare - 155
  categories:
  - community-health-center
  address:
    street: 4747 Dusty Lake Dr
    city: Pine Bluff
    state: ar
    zip: '71603'
  place: '0555310'
  geo:
    lat: 34.19159
    lng: -92.05571
  phone: 870-347-2534
  website: https://www.arcare.net
  external_ids:
    bphc: BPS-H80-040336
  sources:
  - hrsa/health-center-sites
  verified:
    'on': '2026-07-19'
    method: api
- id: ar/pine-bluff/cross-hope-by-restaura
  name: Cross Hope by RestAura
  categories:
  - su-treatment
  address:
    street: 1301 Ridgway Road
    city: Pine Bluff
    state: ar
    zip: '71603'
  place: '0555310'
  geo:
    lat: 34.16572
    lng: -92.01676
  phone: 870-395-7341
  website: https://crosshopetreatment.com/
  sources:
  - samhsa/findtreatment
  verified:
    'on': '2026-07-19'
    method: api
- id: ar/pine-bluff/cso-head-start-center-blake-street
  name: CSO Head Start Center - Blake Street
  categories:
  - child-care
  address:
    street: 308 S Blake St
    city: Pine Bluff
    state: ar
    zip: '71601'
  place: '0555310'
  geo:
    lat: 34.22758
    lng: -92.0442
  phone: 870-551-2654
  sources:
  - acf/head-start-locations
  verified:
    'on': '2026-07-19'
    method: api
- id: ar/pine-bluff/cso-head-start-center-david-vaughn
  name: CSO Head Start Center - David Vaughn
  categories:
  - child-care
  address:
    street: 2101 W 11th Ave
    city: Pine Bluff
    state: ar
    zip: '71603'
  place: '0555310'
  geo:
    lat: 34.21877
    lng: -92.02414
  phone: 870-395-7385
  sources:
  - acf/head-start-locations
  verified:
    'on': '2026-07-19'
    method: api
- id: ar/pine-bluff/cso-head-start-center-saint-peter-s
  name: CSO Head Start Center-Saint Peter's
  categories:
  - child-care
  address:
    street: 1515 S State St
    city: Pine Bluff
    state: ar
    zip: '71601'
  place: '0555310'
  geo:
    lat: 34.21412
    lng: -92.00203
  phone: 870-619-2238
  sources:
  - acf/head-start-locations
  verified:
    'on': '2026-07-19'
    method: api
- id: ar/pine-bluff/cso-st-peters
  name: CSO St. Peters
  categories:
  - child-care
  address:
    street: 1515 S State St
    city: Pine Bluff
    state: ar
    zip: '71601'
  place: '0555310'
  geo:
    lat: 34.21412
    lng: -92.00203
  phone: 501-538-5626
  sources:
  - acf/head-start-locations
  verified:
    'on': '2026-07-19'
    method: api
- id: ar/pine-bluff/educational-center-for-gad-llc-buckhanan-recover
  name: Educational Center for GAD LLC Buckhanan Recovery Center
  categories:
  - su-treatment
  - mh-treatment
  address:
    street: 414 South Walnut Street
    city: Pine Bluff
    state: ar
    zip: '71601'
  place: '0555310'
  geo:
    lat: 34.2252
    lng: -92.00686
  phone: 870-380-5653
  website: https://www.buckhananrecovery.com
  sources:
  - samhsa/findtreatment
  verified:
    'on': '2026-07-19'
    method: api
- id: ar/pine-bluff/ermers-learning-academy
  name: Ermers Learning Academy
  categories:
  - child-care
  address:
    street: 4006 W Barraque St
    city: Pine Bluff
    state: ar
    zip: '71602'
  place: '0555310'
  geo:
    lat: 34.2303
    lng: -92.04481
  phone: 870-536-5105
  sources:
  - acf/head-start-locations
  verified:
    'on': '2026-07-19'
    method: api
- id: ar/pine-bluff/grace-little-pantry-pine-bluff
  name: Grace Little Pantry - Pine Bluff
  categories:
  - food-pantry
  place: '0555310'
  geo:
    lat: 34.18761
    lng: -92.02366
  external_ids:
    lfp: '735'
  sources:
  - littlefreepantry/map
  verified:
    'on': '2026-07-19'
    method: scrape
- id: ar/pine-bluff/housing-authority-of-the-city-of-pine-bluff
  name: Housing Authority Of The City Of Pine Bluff
  categories:
  - housing-assistance
  address: {street: 2503 Belle Meade Dr, city: Pine Bluff, state: ar, zip: '71601'}
  description: Public housing and Housing Choice Voucher agency
  place: '0555310'
  geo: {lat: 34.21108, lng: -91.97807}
  phone: 870-536-2074
  sources:
  - hud/resource-locator
  verified: {'on': '2026-07-19', method: api}
- id: ar/pine-bluff/jefferson-comprehensive-care-system-inc
  name: JEFFERSON COMPREHENSIVE CARE SYSTEM, Inc.
  categories:
  - community-health-center
  address:
    street: 1101 S Tennessee St
    city: Pine Bluff
    state: ar
    zip: '71601'
  place: '0555310'
  geo:
    lat: 34.21899
    lng: -91.99786
  phone: 870-543-2315
  external_ids:
    bphc: BPS-H80-002751
  sources:
  - hrsa/health-center-sites
  verified:
    'on': '2026-07-19'
    method: api
- id: ar/pine-bluff/se-arkansas-behavioral-healthcare-pine-bluff-cli
  name: SE Arkansas Behavioral Healthcare Pine Bluff Clinic
  categories:
  - su-treatment
  - mh-treatment
  address:
    street: 2500 Rike Drive
    city: Pine Bluff
    state: ar
    zip: '71603'
  place: '0555310'
  geo:
    lat: 34.20852
    lng: -92.0286
  phone: 870-534-1834 x138
  website: https://sabhs.org
  sources:
  - samhsa/findtreatment
  verified:
    'on': '2026-07-19'
    method: api
- id: ar/pine-bluff/the-klassic-kidz
  name: The Klassic Kidz
  categories:
  - child-care
  address:
    street: 2407 S Cherry St
    city: Pine Bluff
    state: ar
    zip: '71601'
  place: '0555310'
  geo:
    lat: 34.20456
    lng: -92.01331
  phone: 870-541-9490
  sources:
  - acf/head-start-locations
  verified:
    'on': '2026-07-19'
    method: api
- id: ar/pine-bluff/uapb-child-development-center
  name: UAPB, Child Development Center
  categories:
  - child-care
  address:
    street: 1200 Universtiy Dr
    city: Pine Bluff
    state: ar
    zip: '71601'
  place: '0555310'
  geo:
    lat: 34.24033
    lng: -92.01863
  phone: 870-575-8966
  sources:
  - acf/head-start-locations
  verified:
    'on': '2026-07-19'
    method: api
