- id: ar/pine-bluff/10th-district-substance-abuse-program-dba-new-be
  name: 10th District Substance Abuse Program DBA New Beginnings CASA
  categories:
  - su-treatment
  - mh-treatment
  address:
    street: 2300 West 29th Street
    city: Pine Bluff
    state: ar
    zip: '71603'
  place: '0555310'
  geo:
    lat: 34.2002
    lng: -92.0257
  phone: 870-226-9955
  website: https://www.newbeginningscasa.com
  sources:
  - samhsa/findtreatment
  verified:
    'on': '2026-07-19'
    method: api
- id: ar/pine-bluff/arcare-155
  name: ARcare - 155
  categories:
  - community-health-center
  address:
    street: 4747 Dusty Lake Dr
    city: Pine Bluff
    state: ar
    zip: '71603'
  place: '0555310'
  geo:
    lat: 34.19159
    lng: -92.05571
  phone: 870-347-2534
  website: https://www.arcare.net
  external_ids:
    bphc: BPS-H80-040336
  sources:
  - hrsa/health-center-sites
  verified:
    'on': '2026-07-19'
    method: api
- id: ar/pine-bluff/boys-and-girls-club-fumc-church
  name: Boys And Girls Club-Fumc Church
  categories:
  - meal-program
  address:
    street: 200 West 6Th Avenue
    city: Pine Bluff
    state: ar
    zip: '71601'
  description: Free summer meals for kids and teens (2026 season) — sponsored by Targeting Our People
    Priorities With Service.
  place: '0555310'
  geo:
    lat: 34.22379
    lng: -92.00504
  phone: (870) 506-6011
  external_ids:
    usda_master: Cycle 07_AR_SFSP_0012
  sources:
  - usda/summer-meal-sites
  verified:
    'on': '2026-07-19'
    method: api
- id: ar/pine-bluff/coleman-elementary
  name: Coleman Elementary
  categories:
  - meal-program
  address:
    street: 1300 W 13Th Ave
    city: Pine Bluff
    state: ar
    zip: '71603'
  description: Free summer meals for kids and teens (2026 season) — sponsored by Watson Chapel School
    District.
  place: '0555310'
  geo:
    lat: 34.21628
    lng: -92.01557
  phone: (870) 879-3697
  external_ids:
    usda_master: Cycle 04_AR_SSO_0047
  sources:
  - usda/summer-meal-sites
  verified:
    'on': '2026-07-19'
    method: api
- id: ar/pine-bluff/cross-hope-by-restaura
  name: Cross Hope by RestAura
  categories:
  - su-treatment
  address:
    street: 1301 Ridgway Road
    city: Pine Bluff
    state: ar
    zip: '71603'
  place: '0555310'
  geo:
    lat: 34.16572
    lng: -92.01676
  phone: 870-395-7341
  website: https://crosshopetreatment.com/
  sources:
  - samhsa/findtreatment
  verified:
    'on': '2026-07-19'
    method: api
- id: ar/pine-bluff/cso-head-start-center-blake-street
  name: CSO Head Start Center - Blake Street
  categories:
  - child-care
  address:
    street: 308 S Blake St
    city: Pine Bluff
    state: ar
    zip: '71601'
  place: '0555310'
  geo:
    lat: 34.22758
    lng: -92.0442
  phone: 870-551-2654
  sources:
  - acf/head-start-locations
  verified:
    'on': '2026-07-19'
    method: api
- id: ar/pine-bluff/cso-head-start-center-david-vaughn
  name: CSO Head Start Center - David Vaughn
  categories:
  - child-care
  address:
    street: 2101 W 11th Ave
    city: Pine Bluff
    state: ar
    zip: '71603'
  place: '0555310'
  geo:
    lat: 34.21877
    lng: -92.02414
  phone: 870-395-7385
  sources:
  - acf/head-start-locations
  verified:
    'on': '2026-07-19'
    method: api
- id: ar/pine-bluff/cso-head-start-center-saint-peter-s
  name: CSO Head Start Center-Saint Peter's
  categories:
  - child-care
  address:
    street: 1515 S State St
    city: Pine Bluff
    state: ar
    zip: '71601'
  place: '0555310'
  geo:
    lat: 34.21412
    lng: -92.00203
  phone: 870-619-2238
  sources:
  - acf/head-start-locations
  verified:
    'on': '2026-07-19'
    method: api
- id: ar/pine-bluff/cso-st-peters
  name: CSO St. Peters
  categories:
  - child-care
  address:
    street: 1515 S State St
    city: Pine Bluff
    state: ar
    zip: '71601'
  place: '0555310'
  geo:
    lat: 34.21412
    lng: -92.00203
  phone: 501-538-5626
  sources:
  - acf/head-start-locations
  verified:
    'on': '2026-07-19'
    method: api
- id: ar/pine-bluff/early-learning-lodge
  name: Early Learning Lodge
  categories:
  - meal-program
  address:
    street: 221 Beech
    city: Pine Bluff
    state: ar
    zip: '71601'
  description: Free summer meals for kids and teens (2026 season) — sponsored by Targeting Our People
    Priorities With Service.
  place: '0555310'
  geo:
    lat: 34.22761
    lng: -92.00953
  phone: (870) 730-2907
  external_ids:
    usda_master: Cycle 07_AR_SFSP_0013
  sources:
  - usda/summer-meal-sites
  verified:
    'on': '2026-07-19'
    method: api
- id: ar/pine-bluff/educational-center-for-gad-llc-buckhanan-recover
  name: Educational Center for GAD LLC Buckhanan Recovery Center
  categories:
  - su-treatment
  - mh-treatment
  address:
    street: 414 South Walnut Street
    city: Pine Bluff
    state: ar
    zip: '71601'
  place: '0555310'
  geo:
    lat: 34.2252
    lng: -92.00686
  phone: 870-380-5653
  website: https://www.buckhananrecovery.com
  sources:
  - samhsa/findtreatment
  verified:
    'on': '2026-07-19'
    method: api
- id: ar/pine-bluff/ermers-learning-academy
  name: Ermers Learning Academy
  categories:
  - child-care
  address:
    street: 4006 W Barraque St
    city: Pine Bluff
    state: ar
    zip: '71602'
  place: '0555310'
  geo:
    lat: 34.2303
    lng: -92.04481
  phone: 870-536-5105
  sources:
  - acf/head-start-locations
  verified:
    'on': '2026-07-19'
    method: api
- id: ar/pine-bluff/friendship-academy-school
  name: Friendship Academy School
  categories:
  - meal-program
  address:
    street: 3911 South Hazel
    city: Pine Bluff
    state: ar
    zip: '71603'
  description: Free summer meals for kids and teens (2026 season) — sponsored by Targeting Our People
    Priorities With Service.
  place: '0555310'
  geo:
    lat: 34.18956
    lng: -92.02454
  phone: (870) 329-5141
  external_ids:
    usda_master: Cycle 07_AR_SFSP_0014
  sources:
  - usda/summer-meal-sites
  verified:
    'on': '2026-07-19'
    method: api
- id: ar/pine-bluff/grace-little-pantry-pine-bluff
  name: Grace Little Pantry - Pine Bluff
  categories:
  - food-pantry
  place: '0555310'
  geo:
    lat: 34.18761
    lng: -92.02366
  external_ids:
    lfp: '735'
  sources:
  - littlefreepantry/map
  verified:
    'on': '2026-07-19'
    method: scrape
- id: ar/pine-bluff/housing-authority-of-the-city-of-pine-bluff
  name: Housing Authority Of The City Of Pine Bluff
  categories:
  - housing-assistance
  address:
    street: 2503 Belle Meade Dr
    city: Pine Bluff
    state: ar
    zip: '71601'
  description: Public housing and Housing Choice Voucher agency
  place: '0555310'
  geo:
    lat: 34.21108
    lng: -91.97807
  phone: 870-536-2074
  sources:
  - hud/resource-locator
  verified:
    'on': '2026-07-19'
    method: api
- id: ar/pine-bluff/jefferson-comprehensive-care-system-inc
  name: JEFFERSON COMPREHENSIVE CARE SYSTEM, Inc.
  categories:
  - community-health-center
  address:
    street: 1101 S Tennessee St
    city: Pine Bluff
    state: ar
    zip: '71601'
  place: '0555310'
  geo:
    lat: 34.21899
    lng: -91.99786
  phone: 870-543-2315
  external_ids:
    bphc: BPS-H80-002751
  sources:
  - hrsa/health-center-sites
  verified:
    'on': '2026-07-19'
    method: api
- id: ar/pine-bluff/lakeside-united-methodist
  name: Lakeside United Methodist
  categories:
  - meal-program
  address:
    street: 1500 South Olive
    city: Pine Bluff
    state: ar
    zip: '71601'
  description: Free summer meals for kids and teens (2026 season) — sponsored by Targeting Our People
    Priorities With Service.
  place: '0555310'
  geo:
    lat: 34.21419
    lng: -92.00719
  phone: (870) 534-6241
  external_ids:
    usda_master: Cycle 07_AR_SFSP_0015
  sources:
  - usda/summer-meal-sites
  verified:
    'on': '2026-07-19'
    method: api
- id: ar/pine-bluff/pine-bluff-community-center-boys-girls-club
  name: Pine Bluff Community Center Boys & Girls Club
  categories:
  - meal-program
  address:
    street: 1000 Ash Street
    city: Pine Bluff
    state: ar
    zip: '71603'
  description: Free summer meals for kids and teens (2026 season) — sponsored by Targeting Our People
    Priorities With Service.
  place: '0555310'
  geo:
    lat: 34.22003
    lng: -92.01659
  phone: (870) 850-7676
  external_ids:
    usda_master: Cycle 07_AR_SFSP_0016
  sources:
  - usda/summer-meal-sites
  verified:
    'on': '2026-07-19'
    method: api
- id: ar/pine-bluff/pine-bluff-fire-department-camp
  name: Pine Bluff Fire Department Camp
  categories:
  - meal-program
  address:
    street: 211 West 3Rd Avenue
    city: Pine Bluff
    state: ar
    zip: '71601'
  description: Free summer meals for kids and teens (2026 season) — sponsored by Targeting Our People
    Priorities With Service.
  place: '0555310'
  geo:
    lat: 34.22729
    lng: -92.00518
  phone: (870) 209-2434
  external_ids:
    usda_master: Cycle 07_AR_SFSP_0017
  sources:
  - usda/summer-meal-sites
  verified:
    'on': '2026-07-19'
    method: api
- id: ar/pine-bluff/pine-bluff-police-day-camp
  name: Pine Bluff Police Day Camp
  categories:
  - meal-program
  address:
    street: 1301 Commerce Road
    city: Pine Bluff
    state: ar
    zip: '71601'
  description: Free summer meals for kids and teens (2026 season) — sponsored by Targeting Our People
    Priorities With Service.
  place: '0555310'
  geo:
    lat: 34.21645
    lng: -91.9722
  phone: (870) 489-9981
  external_ids:
    usda_master: Cycle 07_AR_SFSP_0018
  sources:
  - usda/summer-meal-sites
  verified:
    'on': '2026-07-19'
    method: api
- id: ar/pine-bluff/pine-bluff-va-clinic
  name: Pine Bluff VA Clinic
  categories:
  - va-facility
  - health
  description: Primary Care CBOC
  address: {street: 2906 Market Street, city: Pine Bluff, state: ar, zip: '71601'}
  place: '0555310'
  geo: {lat: 34.21298, lng: -91.97189}
  phone: 870-850-8200
  website: https://www.va.gov/central-arkansas-health-care/locations/pine-bluff-va-clinic/
  hours:
  - {days: [mon, tue, wed, thu, fri], open: '07:30', close: '16:00'}
  external_ids: {va: vha_598GE}
  sources:
  - va/facilities-api
  verified: {'on': '2026-07-19', method: api}
- id: ar/pine-bluff/se-arkansas-behavioral-healthcare-pine-bluff-cli
  name: SE Arkansas Behavioral Healthcare Pine Bluff Clinic
  categories:
  - su-treatment
  - mh-treatment
  address:
    street: 2500 Rike Drive
    city: Pine Bluff
    state: ar
    zip: '71603'
  place: '0555310'
  geo:
    lat: 34.20852
    lng: -92.0286
  phone: 870-534-1834 x138
  website: https://sabhs.org
  sources:
  - samhsa/findtreatment
  verified:
    'on': '2026-07-19'
    method: api
- id: ar/pine-bluff/soar
  name: Soar
  categories:
  - meal-program
  address:
    street: 200 West 6Th Avenue
    city: Pine Bluff
    state: ar
    zip: '71601'
  description: Free summer meals for kids and teens (2026 season) — sponsored by Targeting Our People
    Priorities With Service.
  place: '0555310'
  geo:
    lat: 34.22379
    lng: -92.00504
  phone: (870) 441-5404
  external_ids:
    usda_master: Cycle 07_AR_SFSP_0019
  sources:
  - usda/summer-meal-sites
  verified:
    'on': '2026-07-19'
    method: api
- id: ar/pine-bluff/the-klassic-kidz
  name: The Klassic Kidz
  categories:
  - child-care
  address:
    street: 2407 S Cherry St
    city: Pine Bluff
    state: ar
    zip: '71601'
  place: '0555310'
  geo:
    lat: 34.20456
    lng: -92.01331
  phone: 870-541-9490
  sources:
  - acf/head-start-locations
  verified:
    'on': '2026-07-19'
    method: api
- id: ar/pine-bluff/the-pb-generator
  name: The Pb Generator
  categories:
  - meal-program
  address:
    street: 435 South Main Street
    city: Pine Bluff
    state: ar
    zip: '71601'
  description: Free summer meals for kids and teens (2026 season) — sponsored by Targeting Our People
    Priorities With Service.
  place: '0555310'
  geo:
    lat: 34.225
    lng: -92.00339
  phone: (870) 663-0200
  external_ids:
    usda_master: Cycle 07_AR_SFSP_0020
  sources:
  - usda/summer-meal-sites
  verified:
    'on': '2026-07-19'
    method: api
- id: ar/pine-bluff/topps-3
  name: Topps 3
  categories:
  - meal-program
  address:
    street: 4600 West 13Th Street
    city: Pine Bluff
    state: ar
    zip: '71603'
  description: Free summer meals for kids and teens (2026 season) — sponsored by Targeting Our People
    Priorities With Service.
  place: '0555310'
  geo:
    lat: 34.21642
    lng: -92.05398
  phone: (870) 506-6011
  external_ids:
    usda_master: Cycle 07_AR_SFSP_0021
  sources:
  - usda/summer-meal-sites
  verified:
    'on': '2026-07-19'
    method: api
- id: ar/pine-bluff/topps-teen
  name: Topps Teen
  categories:
  - meal-program
  address:
    street: 1000 Townsend Drive
    city: Pine Bluff
    state: ar
    zip: '71601'
  description: Free summer meals for kids and teens (2026 season) — sponsored by Targeting Our People
    Priorities With Service.
  place: '0555310'
  geo:
    lat: 34.23907
    lng: -92.03255
  phone: (870) 850-6011
  external_ids:
    usda_master: Cycle 07_AR_SFSP_0022
  sources:
  - usda/summer-meal-sites
  verified:
    'on': '2026-07-19'
    method: api
- id: ar/pine-bluff/trinity-temple-annex
  name: Trinity Temple Annex
  categories:
  - meal-program
  address:
    street: 2900 West 6Th Avenue
    city: Pine Bluff
    state: ar
    zip: '71601'
  description: Free summer meals for kids and teens (2026 season) — sponsored by Targeting Our People
    Priorities With Service.
  place: '0555310'
  geo:
    lat: 34.22372
    lng: -92.03275
  phone: (870) 534-2905
  external_ids:
    usda_master: Cycle 07_AR_SFSP_0023
  sources:
  - usda/summer-meal-sites
  verified:
    'on': '2026-07-19'
    method: api
- id: ar/pine-bluff/uapb-child-development-center
  name: UAPB, Child Development Center
  categories:
  - child-care
  address:
    street: 1200 Universtiy Dr
    city: Pine Bluff
    state: ar
    zip: '71601'
  place: '0555310'
  geo:
    lat: 34.24033
    lng: -92.01863
  phone: 870-575-8966
  sources:
  - acf/head-start-locations
  verified:
    'on': '2026-07-19'
    method: api
- id: ar/pine-bluff/watson-chapel-high-school
  name: Watson Chapel High School
  categories:
  - meal-program
  address:
    street: 4000 Camden Rd
    city: Pine Bluff
    state: ar
    zip: '71603'
  description: Free summer meals for kids and teens (2026 season) — sponsored by Watson Chapel School
    District.
  place: '0555310'
  geo:
    lat: 34.1883
    lng: -92.06697
  phone: (870) 879-3230
  external_ids:
    usda_master: Cycle 04_AR_SSO_0049
  sources:
  - usda/summer-meal-sites
  verified:
    'on': '2026-07-19'
    method: api
