- id: ar/rogers/702-love-cubby
  name: 702 Love Cubby
  categories:
  - food-pantry
  place: '0560410'
  geo:
    lat: 36.3407
    lng: -94.14704
  external_ids:
    lfp: '4049'
  sources:
  - littlefreepantry/map
  verified:
    'on': '2026-07-19'
    method: scrape
- id: ar/rogers/bonnie-grimes-elementary
  name: Bonnie Grimes Elementary
  categories:
  - meal-program
  address: {street: 1801 S 13Th St, city: Rogers, state: ar, zip: '72758'}
  description: Free summer meals for kids and teens (2026 season) — sponsored by Rogers School District.
  place: '0560410'
  geo: {lat: 36.31362, lng: -94.13576}
  phone: (479) 631-3660
  external_ids: {usda_master: Cycle 04_AR_SSO_0236}
  sources:
  - usda/summer-meal-sites
  verified: {'on': '2026-07-19', method: api}
- id: ar/rogers/community-clinic-mobile-health-unit
  name: Community Clinic Mobile Health Unit
  categories:
  - community-health-center
  address:
    street: 1233 W Poplar St
    city: Rogers
    state: ar
    zip: '72756'
  place: '0560410'
  geo:
    lat: 36.33277
    lng: -94.13439
  phone: 479-751-7417
  external_ids:
    bphc: BPS-H80-031965
  sources:
  - hrsa/health-center-sites
  verified:
    'on': '2026-07-19'
    method: api
- id: ar/rogers/community-clinic-rogers-dental
  name: Community Clinic Rogers Dental
  categories:
  - community-health-center
  address:
    street: 3710 W Southern Hills Blvd
    city: Rogers
    state: ar
    zip: '72758'
  place: '0560410'
  geo:
    lat: 36.28429
    lng: -94.16332
  phone: 479-936-8600
  website: https://www.communityclinicnwa.org
  external_ids:
    bphc: BPS-H80-004191
  sources:
  - hrsa/health-center-sites
  verified:
    'on': '2026-07-19'
    method: api
- id: ar/rogers/community-clinic-rogers-heritage
  name: Community Clinic Rogers Heritage
  categories:
  - community-health-center
  address:
    street: 1001 S 6th St
    city: Rogers
    state: ar
    zip: '72756'
  place: '0560410'
  geo:
    lat: 36.32496
    lng: -94.12343
  phone: 479-751-7417
  external_ids:
    bphc: BPS-H80-041116
  sources:
  - hrsa/health-center-sites
  verified:
    'on': '2026-07-19'
    method: api
- id: ar/rogers/community-clinic-rogers-medical
  name: Community Clinic Rogers Medical
  categories:
  - community-health-center
  address:
    street: 1233 W Poplar St
    city: Rogers
    state: ar
    zip: '72756'
  place: '0560410'
  geo:
    lat: 36.33277
    lng: -94.13439
  phone: 479-636-9235
  website: https://www.communityclinicnwa.org
  external_ids:
    bphc: BPS-H80-008750
  sources:
  - hrsa/health-center-sites
  verified:
    'on': '2026-07-19'
    method: api
- id: ar/rogers/community-service-inc
  name: Community Service Inc
  categories:
  - su-treatment
  - mh-treatment
  address:
    street: 1200 West Walnut Street
    city: Rogers
    state: ar
    zip: '72756'
  place: '0560410'
  geo:
    lat: 36.33286
    lng: -94.13394
  phone: 479-278-7028
  website: https://www.csiyouth.com
  sources:
  - samhsa/findtreatment
  verified:
    'on': '2026-07-19'
    method: api
- id: ar/rogers/eastside-elementary
  name: Eastside Elementary
  categories:
  - meal-program
  address: {street: 505 E New Hope, city: Rogers, state: ar, zip: '72758'}
  description: Free summer meals for kids and teens (2026 season) — sponsored by Rogers School District.
  place: '0560410'
  geo: {lat: 36.31149, lng: -94.10884}
  phone: (479) 631-3630
  external_ids: {usda_master: Cycle 04_AR_SSO_0235}
  sources:
  - usda/summer-meal-sites
  verified: {'on': '2026-07-19', method: api}
- id: ar/rogers/first-united-methodist-church-rogers-ar
  name: First United Methodist Church - Rogers, AR
  categories:
  - food-pantry
  place: '0560410'
  geo:
    lat: 36.33229
    lng: -94.12009
  external_ids:
    lfp: '64'
  sources:
  - littlefreepantry/map
  verified:
    'on': '2026-07-19'
    method: scrape
- id: ar/rogers/frontier-girls-little-free-pantry
  name: Frontier Girls Little Free Pantry
  categories:
  - food-pantry
  place: '0560410'
  geo:
    lat: 36.32521
    lng: -94.11339
  external_ids:
    lfp: '1654'
  sources:
  - littlefreepantry/map
  verified:
    'on': '2026-07-19'
    method: scrape
- id: ar/rogers/harbor-house-inc
  name: Harbor House Inc
  categories:
  - su-treatment
  - mh-treatment
  address:
    street: 1200 West Walnut Street
    city: Rogers
    state: ar
    zip: '72758'
  place: '0560410'
  geo:
    lat: 36.33286
    lng: -94.13394
  phone: 479-785-4083
  website: https://www.harborhouse.inc
  sources:
  - samhsa/findtreatment
  verified:
    'on': '2026-07-19'
    method: api
- id: ar/rogers/heritage-high
  name: Heritage High
  categories:
  - meal-program
  address: {street: 1114 S 5Th St, city: Rogers, state: ar, zip: '72756'}
  description: Free summer meals for kids and teens (2026 season) — sponsored by Rogers School District.
  place: '0560410'
  geo: {lat: 36.32376, lng: -94.12309}
  phone: (479) 631-3579
  external_ids: {usda_master: Cycle 04_AR_SSO_0231}
  sources:
  - usda/summer-meal-sites
  verified: {'on': '2026-07-19', method: api}
- id: ar/rogers/kg-pantry
  name: KG PANTRY
  categories:
  - food-pantry
  place: '0560410'
  geo:
    lat: 36.33146
    lng: -94.16217
  external_ids:
    lfp: '3258'
  sources:
  - littlefreepantry/map
  verified:
    'on': '2026-07-19'
    method: scrape
- id: ar/rogers/little-free-pantry-at-mercy-clinic-downtown-roge
  name: Little Free Pantry at Mercy Clinic Downtown Rogers
  categories:
  - food-pantry
  place: '0560410'
  geo:
    lat: 36.33803
    lng: -94.11663
  external_ids:
    lfp: '24'
  sources:
  - littlefreepantry/map
  verified:
    'on': '2026-07-19'
    method: scrape
- id: ar/rogers/little-free-pet-pantry
  name: Little Free Pet Pantry
  categories:
  - food-pantry
  place: '0560410'
  geo:
    lat: 36.33218
    lng: -94.12025
  external_ids:
    lfp: '3014'
  sources:
  - littlefreepantry/map
  verified:
    'on': '2026-07-19'
    method: scrape
- id: ar/rogers/lupine-way-readgan-elementary
  name: Lupine Way Readgan Elementary
  categories:
  - meal-program
  address: {street: 37Th And Lupine, city: Rogers, state: ar, zip: '72758'}
  description: Free summer meals for kids and teens (2026 season) — sponsored by Rogers School District.
  place: '0560410'
  geo: {lat: 36.33259, lng: -94.17018}
  phone: (479) 631-3579
  external_ids: {usda_master: Cycle 04_AR_SSO_0228}
  sources:
  - usda/summer-meal-sites
  verified: {'on': '2026-07-19', method: api}
- id: ar/rogers/mercy-little-free-pantry
  name: Mercy Little Free Pantry
  categories:
  - food-pantry
  place: '0560410'
  geo:
    lat: 36.31238
    lng: -94.18391
  external_ids:
    lfp: '4241'
  sources:
  - littlefreepantry/map
  verified:
    'on': '2026-07-19'
    method: scrape
- id: ar/rogers/neighborhood-pantry
  name: Neighborhood Pantry
  categories:
  - food-pantry
  place: '0560410'
  geo:
    lat: 36.29308
    lng: -94.16869
  external_ids:
    lfp: '5055'
  sources:
  - littlefreepantry/map
  verified:
    'on': '2026-07-19'
    method: scrape
- id: ar/rogers/northside-elementary
  name: Northside Elementary
  categories:
  - meal-program
  address: {street: 807 N 6Th St, city: Rogers, state: ar, zip: '72756'}
  description: Free summer meals for kids and teens (2026 season) — sponsored by Rogers School District.
  place: '0560410'
  geo: {lat: 36.34281, lng: -94.12268}
  phone: (479) 631-3650
  external_ids: {usda_master: Cycle 04_AR_SSO_0230}
  sources:
  - usda/summer-meal-sites
  verified: {'on': '2026-07-19', method: api}
- id: ar/rogers/oakley-chapel-united-methodist-church
  name: Oakley Chapel United Methodist Church
  categories:
  - food-pantry
  place: '0560410'
  geo:
    lat: 36.33353
    lng: -94.17448
  external_ids:
    lfp: '1518'
  sources:
  - littlefreepantry/map
  verified:
    'on': '2026-07-19'
    method: scrape
- id: ar/rogers/reagan-elementary
  name: Reagan Elementary
  categories:
  - meal-program
  address: {street: 6904 W Olive, city: Rogers, state: ar, zip: '72756'}
  description: Free summer meals for kids and teens (2026 season) — sponsored by Rogers School District.
  place: '0560410'
  geo: {lat: 36.3414, lng: -94.14893}
  phone: (479) 631-3680
  external_ids: {usda_master: Cycle 04_AR_SSO_0234}
  sources:
  - usda/summer-meal-sites
  verified: {'on': '2026-07-19', method: api}
- id: ar/rogers/rogers-arkansas-street-head-start
  name: Rogers Arkansas Street Head Start
  categories:
  - child-care
  address:
    street: 1305 N Arkansas St
    city: Rogers
    state: ar
    zip: '72756'
  place: '0560410'
  geo:
    lat: 36.34503
    lng: -94.11339
  phone: 479-321-2453
  sources:
  - acf/head-start-locations
  verified:
    'on': '2026-07-19'
    method: api
- id: ar/rogers/rogers-hallie-martin-head-start
  name: Rogers Hallie Martin Head Start
  categories:
  - child-care
  address:
    street: 109 W Industrial Dr
    city: Rogers
    state: ar
    zip: '72756'
  place: '0560410'
  geo:
    lat: 36.3527
    lng: -94.11586
  phone: 479-631-2684
  sources:
  - acf/head-start-locations
  verified:
    'on': '2026-07-19'
    method: api
- id: ar/rogers/rogers-lilac-center
  name: Rogers Lilac Center
  categories:
  - child-care
  address:
    street: 900 W Lilac St
    city: Rogers
    state: ar
    zip: '72756'
  place: '0560410'
  geo:
    lat: 36.31498
    lng: -94.12911
  phone: 800-499-9391
  sources:
  - acf/head-start-locations
  verified:
    'on': '2026-07-19'
    method: api
- id: ar/rogers/st-andrew-s-episcopal-church-rogers-arkansas
  name: St Andrew's Episcopal Church Rogers, Arkansas
  categories:
  - food-pantry
  place: '0560410'
  geo:
    lat: 36.326
    lng: -94.12515
  external_ids:
    lfp: '290'
  sources:
  - littlefreepantry/map
  verified:
    'on': '2026-07-19'
    method: scrape
- id: ar/rogers/st-andrews-little-free-pantry
  name: St Andrews Little Free Pantry
  categories:
  - food-pantry
  place: '0560410'
  geo:
    lat: 36.32598
    lng: -94.12713
  external_ids:
    lfp: '5151'
  sources:
  - littlefreepantry/map
  verified:
    'on': '2026-07-19'
    method: scrape
- id: ar/rogers/tillery-elementary
  name: Tillery Elementary
  categories:
  - meal-program
  address: {street: 211 S 7Th St, city: Rogers, state: ar, zip: '72756'}
  description: Free summer meals for kids and teens (2026 season) — sponsored by Rogers School District.
  place: '0560410'
  geo: {lat: 36.33198, lng: -94.12375}
  phone: (479) 631-3520
  external_ids: {usda_master: Cycle 04_AR_SSO_0232}
  sources:
  - usda/summer-meal-sites
  verified: {'on': '2026-07-19', method: api}
- id: ar/rogers/westside-elementary
  name: Westside Elementary
  categories:
  - meal-program
  address: {street: 2200 W Oak, city: Rogers, state: ar, zip: '72758'}
  description: Free summer meals for kids and teens (2026 season) — sponsored by Rogers School District.
  place: '0560410'
  geo: {lat: 36.32675, lng: -94.14996}
  phone: (479) 631-3640
  external_ids: {usda_master: Cycle 04_AR_SSO_0233}
  sources:
  - usda/summer-meal-sites
  verified: {'on': '2026-07-19', method: api}
