- id: ar/springdale/a-better-you-med-spa-primary-care-spa-wellness
  name: A Better You Med Spa Primary Care Spa Wellness
  categories:
  - su-treatment
  address:
    street: 4275 South Thompson Street
    city: Springdale
    state: ar
    zip: '72764'
  place: 0566080
  geo:
    lat: 36.14674
    lng: -94.14346
  phone: 479-306-0639
  website: https://www.abetteryoumedspa.com
  sources:
  - samhsa/findtreatment
  verified:
    'on': '2026-07-19'
    method: api
- id: ar/springdale/acceptance-treatment
  name: Acceptance Treatment
  categories:
  - su-treatment
  - mh-treatment
  address:
    street: 3942 East Monitor Road
    city: Springdale
    state: ar
    zip: '72764'
  place: 0566080
  geo:
    lat: 36.20451
    lng: -94.08739
  phone: 479-295-8688
  website: https://www.acceptancetreatment.com
  sources:
  - samhsa/findtreatment
  verified:
    'on': '2026-07-19'
    method: api
- id: ar/springdale/american-legion-post-139
  name: American Legion Post 139
  categories:
  - food-pantry
  place: 0566080
  geo:
    lat: 36.18669
    lng: -94.13004
  external_ids:
    lfp: '3414'
  sources:
  - littlefreepantry/map
  verified:
    'on': '2026-07-19'
    method: scrape
- id: ar/springdale/arcare-136
  name: ARcare - 136
  categories:
  - community-health-center
  address:
    street: 3057 Springdale Ave
    city: Springdale
    state: ar
    zip: '72762'
  place: 0566080
  geo:
    lat: 36.17247
    lng: -94.1643
  phone: 870-347-2534
  external_ids:
    bphc: BPS-H80-030207
  sources:
  - hrsa/health-center-sites
  verified:
    'on': '2026-07-19'
    method: api
- id: ar/springdale/arisa-health-inc-springdale-clinic
  name: Arisa Health Inc Springdale Clinic
  categories:
  - su-treatment
  - mh-treatment
  address:
    street: 2400 South 48th Street
    city: Springdale
    state: ar
    zip: '72762'
  place: 0566080
  geo:
    lat: 36.16482
    lng: -94.18517
  phone: 479-750-2020
  website: https://www.arisahealth.org
  sources:
  - samhsa/findtreatment
  verified:
    'on': '2026-07-19'
    method: api
- id: ar/springdale/arisa-health-inc-springdale-rehab-day
  name: Arisa Health Inc Springdale Rehab Day
  categories:
  - su-treatment
  - mh-treatment
  address:
    street: 4912 Springhouse Drive
    city: Springdale
    state: ar
    zip: '72762'
  place: 0566080
  geo:
    lat: 36.166
    lng: -94.18508
  phone: 479-750-2020
  website: https://www.arisahealth.org
  sources:
  - samhsa/findtreatment
  verified:
    'on': '2026-07-19'
    method: api
- id: ar/springdale/arisa-health-inc-springdale-tdt-and-school-based
  name: Arisa Health Inc Springdale TDT and School-Based Clinic
  categories:
  - su-treatment
  - mh-treatment
  address:
    street: 2466 South 48th Street
    city: Springdale
    state: ar
    zip: '72762'
  place: 0566080
  geo:
    lat: 36.16395
    lng: -94.18531
  phone: 479-750-2020
  website: https://www.arisahealth.org
  sources:
  - samhsa/findtreatment
  verified:
    'on': '2026-07-19'
    method: api
- id: ar/springdale/caudle-ave-baptist-little-free-pantry
  name: Caudle Ave Baptist Little Free Pantry
  categories:
  - food-pantry
  place: 0566080
  geo:
    lat: 36.18879
    lng: -94.18816
  external_ids:
    lfp: '49'
  sources:
  - littlefreepantry/map
  verified:
    'on': '2026-07-19'
    method: scrape
- id: ar/springdale/community-clinic-administration
  name: Community Clinic Administration
  categories:
  - community-health-center
  address:
    street: 610 E Emma Ave, Suite B
    city: Springdale
    state: ar
    zip: '72764'
  place: 0566080
  geo:
    lat: 36.18526
    lng: -94.12423
  phone: 479-751-7417
  external_ids:
    bphc: BPS-H80-009548
  sources:
  - hrsa/health-center-sites
  verified:
    'on': '2026-07-19'
    method: api
- id: ar/springdale/community-clinic-central-junior-high
  name: Community Clinic Central Junior High
  categories:
  - community-health-center
  address:
    street: 2811 W Huntsville Ave
    city: Springdale
    state: ar
    zip: '72762'
  place: 0566080
  geo:
    lat: 36.18852
    lng: -94.16256
  phone: 479-751-7417
  external_ids:
    bphc: BPS-H80-038672
  sources:
  - hrsa/health-center-sites
  verified:
    'on': '2026-07-19'
    method: api
- id: ar/springdale/community-clinic-don-tyson-school-of-innovation
  name: Community Clinic Don Tyson School of Innovation
  categories:
  - community-health-center
  address:
    street: 2667 Hylton Rd
    city: Springdale
    state: ar
    zip: '72764'
  place: 0566080
  geo:
    lat: 36.16015
    lng: -94.08455
  phone: 479-751-7417
  website: https://www.communityclinicnwa.org
  external_ids:
    bphc: BPS-H80-033984
  sources:
  - hrsa/health-center-sites
  verified:
    'on': '2026-07-19'
    method: api
- id: ar/springdale/community-clinic-outreach-creo
  name: Community Clinic Outreach CREO
  categories:
  - community-health-center
  address:
    street: 610 E Emma Ave
    city: Springdale
    state: ar
    zip: '72764'
  place: 0566080
  geo:
    lat: 36.18526
    lng: -94.12423
  phone: 479-751-7417
  external_ids:
    bphc: BPS-H80-040337
  sources:
  - hrsa/health-center-sites
  verified:
    'on': '2026-07-19'
    method: api
- id: ar/springdale/community-clinic-springdale-dental
  name: Community Clinic Springdale Dental
  categories:
  - community-health-center
  address:
    street: 610 E Emma Ave, Suite A
    city: Springdale
    state: ar
    zip: '72764'
  place: 0566080
  geo:
    lat: 36.18526
    lng: -94.12423
  phone: 479-751-7417
  website: https://www.communityclinicnwa.org
  external_ids:
    bphc: BPS-H80-008507
  sources:
  - hrsa/health-center-sites
  verified:
    'on': '2026-07-19'
    method: api
- id: ar/springdale/community-clinic-springdale-medical-family-pract
  name: Community Clinic Springdale Medical Family Practice and Women's Health
  categories:
  - community-health-center
  address:
    street: 614 E Emma Ave, Suite 300
    city: Springdale
    state: ar
    zip: '72764'
  place: 0566080
  geo:
    lat: 36.18537
    lng: -94.12265
  phone: 479-751-7417
  website: https://www.communityclinicnwa.org
  external_ids:
    bphc: BPS-H80-002552
  sources:
  - hrsa/health-center-sites
  verified:
    'on': '2026-07-19'
    method: api
- id: ar/springdale/community-clinic-springdale-medical-pediatrics
  name: Community Clinic Springdale Medical - Pediatrics
  categories:
  - community-health-center
  address:
    street: 610 E Emma Ave, Suite C
    city: Springdale
    state: ar
    zip: '72764'
  place: 0566080
  geo:
    lat: 36.18526
    lng: -94.12423
  phone: 479-751-7417
  website: https://www.communityclinicnwa.org
  external_ids:
    bphc: BPS-H80-012981
  sources:
  - hrsa/health-center-sites
  verified:
    'on': '2026-07-19'
    method: api
- id: ar/springdale/community-service-inc
  name: Community Service Inc
  categories:
  - su-treatment
  - mh-treatment
  address:
    street: 3291 South Thompson Street
    city: Springdale
    state: ar
    zip: '72764'
  place: 0566080
  geo:
    lat: 36.15583
    lng: -94.1431
  phone: 479-365-7250
  website: https://www.csiyouth.com
  sources:
  - samhsa/findtreatment
  verified:
    'on': '2026-07-19'
    method: api
- id: ar/springdale/don-tyson-school-of-innovation
  name: Don Tyson School Of Innovation
  categories:
  - meal-program
  address: {street: 2667 Hylton Rd, city: Springdale, state: ar, zip: '72764'}
  description: Free summer meals for kids and teens (2026 season) — sponsored by Springdale School District.
  place: 0566080
  geo: {lat: 36.16018, lng: -94.0856}
  phone: (479) 750-8780
  external_ids: {usda_master: Cycle 05_AR_SSO_0271}
  sources:
  - usda/summer-meal-sites
  verified: {'on': '2026-07-19', method: api}
- id: ar/springdale/elmdale-elementary
  name: Elmdale Elementary
  categories:
  - meal-program
  address: {street: 420 North West End Ave, city: Springdale, state: ar, zip: '72764'}
  description: Free summer meals for kids and teens (2026 season) — sponsored by Springdale School District.
  place: 0566080
  geo: {lat: 36.19078, lng: -94.14738}
  phone: (479) 750-8859
  external_ids: {usda_master: Cycle 07_AR_SSO_0013}
  sources:
  - usda/summer-meal-sites
  verified: {'on': '2026-07-19', method: api}
- id: ar/springdale/elmdale-school-based-health-center
  name: Elmdale School Based Health Center
  categories:
  - community-health-center
  address:
    street: 420 N West End St STE B
    city: Springdale
    state: ar
    zip: '72764'
  place: 0566080
  geo:
    lat: 36.1908
    lng: -94.14796
  phone: 479-872-3050
  external_ids:
    bphc: BPS-H80-014788
  sources:
  - hrsa/health-center-sites
  verified:
    'on': '2026-07-19'
    method: api
- id: ar/springdale/george-elementary
  name: George Elementary
  categories:
  - meal-program
  address: {street: 2878 S Powell St, city: Springdale, state: ar, zip: '72764'}
  description: Free summer meals for kids and teens (2026 season) — sponsored by Springdale School District.
  place: 0566080
  geo: {lat: 36.15913, lng: -94.12607}
  phone: (479) 750-8710
  external_ids: {usda_master: Cycle 07_AR_SSO_0025}
  sources:
  - usda/summer-meal-sites
  verified: {'on': '2026-07-19', method: api}
- id: ar/springdale/george-school-based-health-center
  name: George School Based Health Center
  categories:
  - community-health-center
  address:
    street: 2878 Powell St
    city: Springdale
    state: ar
    zip: '72764'
  place: 0566080
  geo:
    lat: 36.15918
    lng: -94.128
  phone: 479-872-3045
  external_ids:
    bphc: BPS-H80-013906
  sources:
  - hrsa/health-center-sites
  verified:
    'on': '2026-07-19'
    method: api
- id: ar/springdale/harbor-church-of-nwa
  name: Harbor Church of NWA
  categories:
  - food-pantry
  place: 0566080
  geo:
    lat: 36.19364
    lng: -94.17315
  external_ids:
    lfp: '5315'
  sources:
  - littlefreepantry/map
  verified:
    'on': '2026-07-19'
    method: scrape
- id: ar/springdale/harp-elementary
  name: Harp Elementary
  categories:
  - meal-program
  address: {street: 2700 Butterfield Coach Rd, city: Springdale, state: ar, zip: '72764'}
  description: Free summer meals for kids and teens (2026 season) — sponsored by Springdale School District.
  place: 0566080
  geo: {lat: 36.15997, lng: -94.09463}
  phone: (479) 750-8740
  external_ids: {usda_master: Cycle 07_AR_SSO_0028}
  sources:
  - usda/summer-meal-sites
  verified: {'on': '2026-07-19', method: api}
- id: ar/springdale/integrated-wellness-and-mental-health
  name: Integrated Wellness and Mental Health
  categories:
  - su-treatment
  - mh-treatment
  address:
    street: 700 North 40th Street
    city: Springdale
    state: ar
    zip: '72762'
  place: 0566080
  geo:
    lat: 36.19135
    lng: -94.17482
  phone: 479-318-2828
  website: https://www.iwamh.com
  sources:
  - samhsa/findtreatment
  verified:
    'on': '2026-07-19'
    method: api
- id: ar/springdale/jones-school-based-health-center
  name: Jones School Based Health Center
  categories:
  - community-health-center
  address:
    street: 900 Powell St
    city: Springdale
    state: ar
    zip: '72764'
  place: 0566080
  geo:
    lat: 36.175
    lng: -94.12498
  phone: 479-872-3041
  external_ids:
    bphc: BPS-H80-010488
  sources:
  - hrsa/health-center-sites
  verified:
    'on': '2026-07-19'
    method: api
- id: ar/springdale/oak-ave-head-start
  name: Oak Ave Head Start
  categories:
  - child-care
  address:
    street: 500 Oak Ave
    city: Springdale
    state: ar
    zip: '72764'
  place: 0566080
  geo:
    lat: 36.19006
    lng: -94.13439
  phone: 479-751-4430
  sources:
  - acf/head-start-locations
  verified:
    'on': '2026-07-19'
    method: api
- id: ar/springdale/oak-avenue-center
  name: Oak Avenue Center
  categories:
  - child-care
  address:
    street: 500 Oak Ave
    city: Springdale
    state: ar
    zip: '72764'
  place: 0566080
  geo:
    lat: 36.19009
    lng: -94.13438
  phone: 479-751-4430
  sources:
  - acf/head-start-locations
  verified:
    'on': '2026-07-19'
    method: api
- id: ar/springdale/olive-branch-recovery
  name: Olive Branch Recovery
  categories:
  - su-treatment
  address:
    street: 6028 West Stoney Brook
    city: Springdale
    state: ar
    zip: '72765'
  place: 0566080
  geo:
    lat: 36.31648
    lng: -94.19786
  phone: 940-220-8899
  website: https://olivebranchrecovery.com
  sources:
  - samhsa/findtreatment
  verified:
    'on': '2026-07-19'
    method: api
- id: ar/springdale/parson-hills
  name: Parson Hills
  categories:
  - meal-program
  address: {street: 2326 Cardinal Dr, city: Springdale, state: ar, zip: '72764'}
  description: Free summer meals for kids and teens (2026 season) — sponsored by Springdale School District.
  place: 0566080
  geo: {lat: 36.17176, lng: -94.10678}
  phone: (479) 750-8877
  external_ids: {usda_master: Cycle 07_AR_SSO_0015}
  sources:
  - usda/summer-meal-sites
  verified: {'on': '2026-07-19', method: api}
- id: ar/springdale/parson-hills-elementary-little-free-pantry
  name: Parson Hills Elementary Little Free Pantry
  categories:
  - food-pantry
  place: 0566080
  geo:
    lat: 36.17282
    lng: -94.10658
  external_ids:
    lfp: '136'
  sources:
  - littlefreepantry/map
  verified:
    'on': '2026-07-19'
    method: scrape
- id: ar/springdale/parson-hills-elementary-school-based-health-cent
  name: Parson Hills Elementary School Based Health Center
  categories:
  - community-health-center
  address:
    street: 2328 Cardinal Dr
    city: Springdale
    state: ar
    zip: '72764'
  place: 0566080
  geo:
    lat: 36.1728
    lng: -94.10703
  phone: 479-751-7417
  external_ids:
    bphc: BPS-H80-030198
  sources:
  - hrsa/health-center-sites
  verified:
    'on': '2026-07-19'
    method: api
- id: ar/springdale/springdale-center
  name: Springdale Center
  categories:
  - child-care
  address:
    street: 800 Charles Avenue
    city: Springdale
    state: ar
    zip: '72764'
  place: 0566080
  geo:
    lat: 36.17436
    lng: -94.12297
  phone: 479-751-9461
  sources:
  - acf/head-start-locations
  verified:
    'on': '2026-07-19'
    method: api
- id: ar/springdale/springdale-housing-authority
  name: Springdale Housing Authority
  categories:
  - housing-assistance
  address:
    street: 5 Applegate Dr
    city: Springdale
    state: ar
    zip: '72764'
  description: Public housing and Housing Choice Voucher agency
  place: 0566080
  geo:
    lat: 36.17635
    lng: -94.12373
  phone: 479-751-0560
  sources:
  - hud/resource-locator
  verified:
    'on': '2026-07-19'
    method: api
- id: ar/springdale/springdale-public-school-district-lfp
  name: Springdale Public School District LFP
  categories:
  - food-pantry
  place: 0566080
  geo:
    lat: 36.18508
    lng: -94.14216
  external_ids:
    lfp: '1177'
  sources:
  - littlefreepantry/map
  verified:
    'on': '2026-07-19'
    method: scrape
- id: ar/springdale/springdale-public-school-district-lfp-10
  name: Springdale Public School District LFP
  categories:
  - food-pantry
  place: 0566080
  geo:
    lat: 36.17916
    lng: -94.0969
  external_ids:
    lfp: '1167'
  sources:
  - littlefreepantry/map
  verified:
    'on': '2026-07-19'
    method: scrape
- id: ar/springdale/springdale-public-school-district-lfp-11
  name: Springdale Public School District LFP
  categories:
  - food-pantry
  place: 0566080
  geo:
    lat: 36.18298
    lng: -94.15034
  external_ids:
    lfp: '1165'
  sources:
  - littlefreepantry/map
  verified:
    'on': '2026-07-19'
    method: scrape
- id: ar/springdale/springdale-public-school-district-lfp-2
  name: Springdale Public School District LFP
  categories:
  - food-pantry
  place: 0566080
  geo:
    lat: 36.17941
    lng: -94.13426
  external_ids:
    lfp: '1176'
  sources:
  - littlefreepantry/map
  verified:
    'on': '2026-07-19'
    method: scrape
- id: ar/springdale/springdale-public-school-district-lfp-3
  name: Springdale Public School District LFP
  categories:
  - food-pantry
  place: 0566080
  geo:
    lat: 36.18117
    lng: -94.10628
  external_ids:
    lfp: '1175'
  sources:
  - littlefreepantry/map
  verified:
    'on': '2026-07-19'
    method: scrape
- id: ar/springdale/springdale-public-school-district-lfp-4
  name: Springdale Public School District LFP
  categories:
  - food-pantry
  place: 0566080
  geo:
    lat: 36.19196
    lng: -94.1052
  external_ids:
    lfp: '1174'
  sources:
  - littlefreepantry/map
  verified:
    'on': '2026-07-19'
    method: scrape
- id: ar/springdale/springdale-public-school-district-lfp-5
  name: Springdale Public School District LFP
  categories:
  - food-pantry
  place: 0566080
  geo:
    lat: 36.17495
    lng: -94.11675
  external_ids:
    lfp: '1173'
  sources:
  - littlefreepantry/map
  verified:
    'on': '2026-07-19'
    method: scrape
- id: ar/springdale/springdale-public-school-district-lfp-6
  name: Springdale Public School District LFP
  categories:
  - food-pantry
  place: 0566080
  geo:
    lat: 36.16098
    lng: -94.11047
  external_ids:
    lfp: '1172'
  sources:
  - littlefreepantry/map
  verified:
    'on': '2026-07-19'
    method: scrape
- id: ar/springdale/springdale-public-school-district-lfp-7
  name: Springdale Public School District LFP
  categories:
  - food-pantry
  place: 0566080
  geo:
    lat: 36.21069
    lng: -94.12
  external_ids:
    lfp: '1171'
  sources:
  - littlefreepantry/map
  verified:
    'on': '2026-07-19'
    method: scrape
- id: ar/springdale/springdale-public-school-district-lfp-8
  name: Springdale Public School District LFP
  categories:
  - food-pantry
  place: 0566080
  geo:
    lat: 36.20125
    lng: -94.17265
  external_ids:
    lfp: '1169'
  sources:
  - littlefreepantry/map
  verified:
    'on': '2026-07-19'
    method: scrape
- id: ar/springdale/springdale-public-school-district-lfp-9
  name: Springdale Public School District LFP
  categories:
  - food-pantry
  place: 0566080
  geo:
    lat: 36.20328
    lng: -94.12495
  external_ids:
    lfp: '1168'
  sources:
  - littlefreepantry/map
  verified:
    'on': '2026-07-19'
    method: scrape
- id: ar/springdale/springdale-treatment-center-medmark-treatment-ce
  name: Springdale Treatment Center Medmark Treatment Center
  categories:
  - su-treatment
  address:
    street: 1607 South Old Missouri Road
    city: Springdale
    state: ar
    zip: '72764'
  place: 0566080
  geo:
    lat: 36.16976
    lng: -94.11846
  phone: 479-306-4480
  website: https://www.medmarktreatmentcenter.com
  sources:
  - samhsa/findtreatment
  verified:
    'on': '2026-07-19'
    method: api
- id: ar/springdale/the-jones-center-pantry
  name: The Jones Center Pantry
  categories:
  - food-pantry
  place: 0566080
  geo:
    lat: 36.18687
    lng: -94.11946
  external_ids:
    lfp: '42'
  sources:
  - littlefreepantry/map
  verified:
    'on': '2026-07-19'
    method: scrape
- id: ar/springdale/the-jte-pantry-eastablished-2021
  name: The JTE Pantry     EASTablished 2021
  categories:
  - food-pantry
  place: 0566080
  geo:
    lat: 36.16304
    lng: -94.15239
  external_ids:
    lfp: '2030'
  sources:
  - littlefreepantry/map
  verified:
    'on': '2026-07-19'
    method: scrape
- id: ar/springdale/the-life-at-woodland-hills
  name: The Life At Woodland Hills
  categories:
  - meal-program
  address: {street: 1406 Oriole Street, city: Springdale, state: ar, zip: '72764'}
  description: Free summer meals for kids and teens (2026 season) — sponsored by Harvest Rural Feeding
    Services Inc.
  place: 0566080
  geo: {lat: 36.17503, lng: -94.10827}
  phone: (908) 798-3884
  external_ids: {usda_master: Cycle 06_AR_SFSP_0018}
  sources:
  - usda/summer-meal-sites
  verified: {'on': '2026-07-19', method: api}
- id: ar/springdale/the-pat-walker-center-for-children
  name: The Pat Walker Center for Children
  categories:
  - child-care
  address:
    street: 260 Victory Lane
    city: Springdale
    state: ar
    zip: '72764'
  place: 0566080
  geo:
    lat: 36.20672
    lng: -94.13062
  phone: 479-927-1232
  sources:
  - acf/head-start-locations
  verified:
    'on': '2026-07-19'
    method: api
- id: ar/springdale/wacd-springdale-early-learning-academy-west
  name: WACD-Springdale Early Learning Academy West
  categories:
  - child-care
  address:
    street: 2920 American St
    city: Springdale
    state: ar
    zip: '72764'
  place: 0566080
  geo:
    lat: 36.15897
    lng: -94.14526
  phone: 479-927-6251
  sources:
  - acf/head-start-locations
  verified:
    'on': '2026-07-19'
    method: api
- id: ar/springdale/walker-elementary
  name: Walker Elementary
  categories:
  - meal-program
  address: {street: 1701 S 40Th St., city: Springdale, state: ar, zip: '72762'}
  description: Free summer meals for kids and teens (2026 season) — sponsored by Springdale School District.
  place: 0566080
  geo: {lat: 36.17049, lng: -94.17475}
  phone: (479) 750-8874
  external_ids: {usda_master: Cycle 07_AR_SSO_0018}
  sources:
  - usda/summer-meal-sites
  verified: {'on': '2026-07-19', method: api}
- id: ar/springdale/westwood-elementary-school
  name: Westwood Elementary School
  categories:
  - food-pantry
  place: 0566080
  geo:
    lat: 36.18298
    lng: -94.15034
  external_ids:
    lfp: '868'
  sources:
  - littlefreepantry/map
  verified:
    'on': '2026-07-19'
    method: scrape
