- id: ar/walnut-ridge/1st-choice-healthcare-walnut-ridge
  name: 1st Choice Healthcare Walnut Ridge
  categories:
  - community-health-center
  address:
    street: 201 Colonial Dr
    city: Walnut Ridge
    state: ar
    zip: '72476'
  place: 0572890
  geo:
    lat: 36.07645
    lng: -90.9717
  phone: 870-886-5507
  website: https://www.1stchoice-ar.org
  external_ids:
    bphc: BPS-H80-012460
  sources:
  - hrsa/health-center-sites
  verified:
    'on': '2026-07-19'
    method: api
- id: ar/walnut-ridge/arisa-health-inc-walnut-ridge-clinic
  name: Arisa Health Inc Walnut Ridge Clinic
  categories:
  - su-treatment
  - mh-treatment
  address:
    street: 102 South Larkspur Street
    city: Walnut Ridge
    state: ar
    zip: '72476'
  place: 0572890
  geo:
    lat: 36.07443
    lng: -90.96993
  phone: 870-919-8432
  website: https://www.arisahealth.org
  sources:
  - samhsa/findtreatment
  verified:
    'on': '2026-07-19'
    method: api
- id: ar/walnut-ridge/lawrence-county-public-housing-agency
  name: Lawrence County Public Housing Agency
  categories:
  - housing-assistance
  address:
    street: 118 E Main St
    city: Walnut Ridge
    state: ar
    zip: '72476'
  description: Housing Choice Voucher (Section 8) agency
  place: 0572890
  geo:
    lat: 36.06724
    lng: -90.95506
  phone: 870-886-7816
  sources:
  - hud/resource-locator
  verified:
    'on': '2026-07-19'
    method: api
- id: ar/walnut-ridge/lawrence-county-school-district
  name: Lawrence County School District
  categories:
  - meal-program
  address:
    street: 508 Free Street
    city: Walnut Ridge
    state: ar
    zip: '72476'
  description: Free summer meals for kids and teens (2026 season) — sponsored by Lawrence County School
    District.
  place: 0572890
  geo:
    lat: 36.06325
    lng: -90.95662
  phone: (870) 886-6634
  external_ids:
    usda_master: Cycle 04_AR_SSO_0021
  sources:
  - usda/summer-meal-sites
  verified:
    'on': '2026-07-19'
    method: api
- id: ar/walnut-ridge/little-free-pantry
  name: Little Free Pantry
  categories:
  - food-pantry
  place: 0572890
  geo:
    lat: 36.06403
    lng: -90.96181
  external_ids:
    lfp: '217'
  sources:
  - littlefreepantry/map
  verified:
    'on': '2026-07-19'
    method: scrape
- id: ar/walnut-ridge/walnut-ridge-child-development-center
  name: Walnut Ridge Child Development Center
  categories:
  - child-care
  address:
    street: 901 State St
    city: Walnut Ridge
    state: ar
    zip: '72476'
  place: 0572890
  geo:
    lat: 36.0603
    lng: -90.95755
  phone: 870-886-9284
  sources:
  - acf/head-start-locations
  verified:
    'on': '2026-07-19'
    method: api
- id: ar/walnut-ridge/walnut-ridge-early-child-development-center
  name: Walnut Ridge Early Child Development Center
  categories:
  - child-care
  address:
    street: 702 State St
    city: Walnut Ridge
    state: ar
    zip: '72476'
  place: 0572890
  geo:
    lat: 36.06204
    lng: -90.95801
  phone: 870-886-6088
  sources:
  - acf/head-start-locations
  verified:
    'on': '2026-07-19'
    method: api
