- id: wi/amery/amery-hospital-and-clinic-behavioral-health-and
  name: Amery Hospital and Clinic Behavioral Health and Prog for Change
  categories:
  - su-treatment
  - mh-treatment
  address:
    street: 230 Deronda Street
    city: Amery
    state: wi
    zip: '54001'
  place: '5501725'
  geo:
    lat: 45.30267
    lng: -92.36641
  phone: 715-268-0060
  website: https://www.healthpartners.com/care/hospitals/amery/specialties/behavioral-health/
  sources:
  - samhsa/findtreatment
  verified:
    'on': '2026-07-19'
    method: api
- id: wi/amery/amery-housing-authority
  name: Amery Housing Authority
  categories:
  - housing-assistance
  address:
    street: 300 Harriman Ave N
    city: Amery
    state: wi
    zip: '54001'
  description: Public housing (Low-Rent) agency
  place: '5501725'
  geo:
    lat: 45.31371
    lng: -92.36336
  phone: 715-268-2500
  sources:
  - hud/resource-locator
  verified:
    'on': '2026-07-19'
    method: api
- id: wi/amery/amery-intermediate
  name: Amery Intermediate
  categories:
  - meal-program
  address:
    street: 543 Minneapolis Ave S
    city: Amery
    state: wi
    zip: '54001'
  description: Free summer meals for kids and teens (2026 season) — sponsored by Amery School District.
  place: '5501725'
  geo:
    lat: 45.302
    lng: -92.34553
  phone: (715) 268-9771
  external_ids:
    usda_master: Cycle 05_WI_SFSP_0360
  sources:
  - usda/summer-meal-sites
  verified:
    'on': '2026-07-19'
    method: api
- id: wi/amery/lien-elementary-school
  name: Lien Elementary School
  categories:
  - meal-program
  address:
    street: 469 Minneapolis Ave. S
    city: Amery
    state: wi
    zip: '54001'
  description: Free summer meals for kids and teens (2026 season) — sponsored by Amery School District.
  place: '5501725'
  geo:
    lat: 45.30445
    lng: -92.3519
  phone: (715) 268-9771
  external_ids:
    usda_master: Cycle 05_WI_SFSP_0140
  sources:
  - usda/summer-meal-sites
  verified:
    'on': '2026-07-19'
    method: api
- id: wi/amery/middle-school
  name: Middle School
  categories:
  - meal-program
  address:
    street: 501 Minneapolis Ave S
    city: Amery
    state: wi
    zip: '54001'
  description: Free summer meals for kids and teens (2026 season) — sponsored by Amery School District.
  place: '5501725'
  geo:
    lat: 45.30387
    lng: -92.34576
  phone: (715) 268-9771
  external_ids:
    usda_master: Cycle 05_WI_SFSP_0851
  sources:
  - usda/summer-meal-sites
  verified:
    'on': '2026-07-19'
    method: api
- id: wi/amery/nw-system-csl-and-guidance-clinic-northwest-jour
  name: NW System/Csl and Guidance Clinic Northwest Journey/Amery
  categories:
  - su-treatment
  - mh-treatment
  address:
    street: 1096 Apple Avenue
    city: Amery
    state: wi
    zip: '54001'
  place: '5501725'
  geo:
    lat: 45.29229
    lng: -92.3631
  phone: 715-268-5404
  website: https://www.nwcgc.com
  sources:
  - samhsa/findtreatment
  verified:
    'on': '2026-07-19'
    method: api
- id: wi/amery/umos-mshs-amery-center
  name: UMOS MSHS Amery Center
  categories:
  - child-care
  address:
    street: 1115 Mains Crossing Ave
    city: Amery
    state: wi
    zip: '54001'
  place: '5501725'
  geo:
    lat: 45.38862
    lng: -92.3895
  phone: 715-268-5550
  sources:
  - acf/head-start-locations
  verified:
    'on': '2026-07-19'
    method: api
