- id: wi/antigo/antigo-area-community-food-pantry-inc
  name: Antigo Area Community Food Pantry Inc.
  org: wi/feeding-america-eastern-wisconsin
  categories:
  - food-pantry
  address: {street: 2120 Progress Blvd, city: Antigo, state: wi}
  place: '5502250'
  geo: {lat: 45.16069, lng: -89.15191}
  external_ids: {wi-feeding-america-eastern-wisconsin: '178'}
  sources:
  - foodbank/wi-feeding-america-eastern-wisconsin
  verified: {'on': '2026-07-20', method: api}
- id: wi/antigo/antigo-head-start
  name: Antigo Head Start
  categories:
  - child-care
  address: {street: 524 Edison St, city: Antigo, state: wi, zip: '54409'}
  description: Head Start early childhood program — 53 funded slots; operated by Family & Child Learning
    Centers of NE WI., Inc..
  place: '5502250'
  geo: {lat: 45.1395, lng: -89.15645}
  phone: 715-627-7128
  sources:
  - acf/head-start-locations
  verified: {'on': '2026-07-19', method: api}
- id: wi/antigo/antigo-housing-authority
  name: Antigo Housing Authority
  categories:
  - housing-assistance
  address: {street: 535 3rd Ave, city: Antigo, state: wi, zip: '54409'}
  description: Public housing and Housing Choice Voucher agency
  place: '5502250'
  geo: {lat: 45.14345, lng: -89.14992}
  phone: 715-623-5768
  sources:
  - hud/resource-locator
  verified: {'on': '2026-07-19', method: api}
- id: wi/antigo/antigo-middle-school
  name: Antigo Middle School
  categories:
  - meal-program
  address: {street: 815 Seventh Avenue, city: Antigo, state: wi, zip: '54409'}
  description: Free summer meals for kids and teens (2026 season) — sponsored by Antigo Unified School
    District.
  place: '5502250'
  geo: {lat: 45.13774, lng: -89.15529}
  phone: (715) 623-4173
  external_ids: {usda_master: Cycle 05_WI_SFSP_1005}
  sources:
  - usda/summer-meal-sites
  verified: {'on': '2026-07-19', method: api}
- id: wi/antigo/antigo-senior-high-school
  name: Antigo Senior High School
  categories:
  - meal-program
  address: {street: 1900 W. Tenth Ave., city: Antigo, state: wi, zip: '54409'}
  description: Free summer meals for kids and teens (2026 season) — sponsored by Antigo Unified School
    District.
  place: '5502250'
  geo: {lat: 45.1329, lng: -89.1758}
  phone: (715) 623-7611
  external_ids: {usda_master: Cycle 01_WI_SFSP_0106}
  sources:
  - usda/summer-meal-sites
  verified: {'on': '2026-07-19', method: api}
- id: wi/antigo/antigo-senior-high-school-2
  name: Antigo Senior High School
  categories:
  - meal-program
  address: {city: Antigo, state: wi, zip: '54409'}
  description: Free summer meals for kids and teens (2026 season).
  place: '5502250'
  geo: {lat: 45.13302, lng: -89.17364}
  phone: (715) 623-7611
  external_ids: {usda_master: e32e2b3b-7600-f111-8406-001dd8071b78}
  sources:
  - usda/summer-meal-sites
  verified: {'on': '2026-07-19', method: api}
- id: wi/antigo/boys-girls-clubs-of-the-northwoods
  name: Boys & Girls Clubs Of The Northwoods
  categories:
  - meal-program
  address: {street: 411 Superior Street, city: Antigo, state: wi, zip: '54409'}
  description: Free summer meals for kids and teens (2026 season) — sponsored by Boys & Girls Clubs of
    the Northwoods.
  place: '5502250'
  geo: {lat: 45.13817, lng: -89.15229}
  phone: (715) 627-1389
  external_ids: {usda_master: Cycle 01_WI_SFSP_0146}
  sources:
  - usda/summer-meal-sites
  verified: {'on': '2026-07-19', method: api}
- id: wi/antigo/bridge-community-health-clinic-antigo-dental
  name: Bridge Community Health Clinic Antigo Dental
  categories:
  - community-health-center
  cost: sliding-scale
  address: {street: 1111 Langlade Rd, city: Antigo, state: wi, zip: '54409'}
  place: '5502250'
  geo: {lat: 45.14707, lng: -89.13488}
  phone: 715-527-4833
  website: https://www.bridgeclinic.org
  external_ids: {bphc: BPS-H80-012181}
  sources:
  - hrsa/health-center-sites
  verified: {'on': '2026-07-19', method: api}
- id: wi/antigo/east-elementary
  name: East Elementary
  categories:
  - meal-program
  address: {street: 220 Seventh Avenue, city: Antigo, state: wi, zip: '54409'}
  description: Free summer meals for kids and teens (2026 season) — sponsored by Antigo Unified School
    District.
  place: '5502250'
  geo: {lat: 45.13763, lng: -89.14336}
  phone: (715) 623-2506
  external_ids: {usda_master: 036a5240-7600-f111-8406-001dd80d61f6}
  sources:
  - usda/summer-meal-sites
  verified: {'on': '2026-07-19', method: api}
- id: wi/antigo/east-elementary-2
  name: East Elementary
  categories:
  - meal-program
  address: {city: Antigo, state: wi, zip: '54409'}
  description: Free summer meals for kids and teens (2026 season).
  place: '5502250'
  geo: {lat: 45.13763, lng: -89.14336}
  phone: (715) 623-2506
  external_ids: {usda_master: 036a5240-7600-f111-8406-001dd80d61f6}
  sources:
  - usda/summer-meal-sites
  verified: {'on': '2026-07-19', method: api}
- id: wi/antigo/langlade-county-department-of-social-services
  name: Langlade County Department of Social Services
  categories:
  - utility-assistance
  description: LIHEAP intake office serving Langlade County
  address: {street: 1225 Langlade Rd., city: Antigo, state: wi, zip: '54409'}
  place: '5502250'
  phone: 715-627-6500
  website: http://homeenergyplus.wi.gov
  sources:
  - acf/liheap-clearinghouse
  verified: {'on': '2026-07-19', method: scrape}
  geo: {lat: 45.14777, lng: -89.13458}
- id: wi/antigo/unified-school-district-of-antigo-antigo-high-sc
  name: Unified School District of Antigo- Antigo High School Rm 211-4, 212
  categories:
  - community-health-center
  cost: sliding-scale
  address: {street: 1900 10th Ave, city: Antigo, state: wi, zip: '54409'}
  place: '5502250'
  geo: {lat: 45.13293, lng: -89.17575}
  phone: 715-623-7611
  external_ids: {bphc: BPS-H80-031853}
  sources:
  - hrsa/health-center-sites
  verified: {'on': '2026-07-19', method: api}
- id: wi/antigo/west-elementary-school
  name: West Elementary School
  categories:
  - meal-program
  address: {street: 1232 7Th Street, city: Antigo, state: wi, zip: '54409'}
  description: Free summer meals for kids and teens (2026 season) — sponsored by Antigo Unified School
    District.
  place: '5502250'
  geo: {lat: 45.13794, lng: -89.16452}
  phone: (715) 623-2508
  external_ids: {usda_master: Cycle 01_WI_SFSP_0447}
  sources:
  - usda/summer-meal-sites
  verified: {'on': '2026-07-19', method: api}
