- id: wi/de-pere/de-pere-head-start
  name: De Pere Head Start
  categories:
  - child-care
  address:
    street: 3001 Ryan Rd
    city: De Pere
    state: wi
    zip: '54115'
  place: '5519775'
  geo:
    lat: 44.41112
    lng: -88.06396
  phone: 920-983-9174
  sources:
  - acf/head-start-locations
  verified:
    'on': '2026-07-19'
    method: api
- id: wi/de-pere/depere-housing-authority
  name: Depere Housing Authority
  categories:
  - housing-assistance
  address: {street: 850 Morning Glory Ln, city: De Pere, state: wi, zip: '54115'}
  description: Public housing (Low-Rent) agency
  place: '5519775'
  geo: {lat: 44.44657, lng: -88.08335}
  phone: 920-336-0755
  sources:
  - hud/resource-locator
  verified: {'on': '2026-07-19', method: api}
- id: wi/de-pere/emplify-health-behavioral-health
  name: Emplify Health Behavioral Health
  categories:
  - su-treatment
  - mh-treatment
  address:
    street: 1325 Angels Path
    city: De Pere
    state: wi
    zip: '54115'
  place: '5519775'
  geo:
    lat: 44.43145
    lng: -88.01074
  phone: 920-433-6073
  website: https://www.bellin.org
  sources:
  - samhsa/findtreatment
  verified:
    'on': '2026-07-19'
    method: api
- id: wi/de-pere/prevea-clinic-behavioral-care
  name: Prevea Clinic Behavioral Care
  categories:
  - su-treatment
  - mh-treatment
  address:
    street: 3860 Monroe Road
    city: De Pere
    state: wi
    zip: '54115'
  place: '5519775'
  geo:
    lat: 44.42946
    lng: -88.02243
  phone: 920-272-1200 x3673
  website: https://www.prevea.com
  sources:
  - samhsa/findtreatment
  verified:
    'on': '2026-07-19'
    method: api
- id: wi/de-pere/rawhide-inc-youth-and-family-counseling
  name: Rawhide Inc Youth and Family Counseling
  categories:
  - su-treatment
  - mh-treatment
  address:
    street: 301 North Broadway
    city: De Pere
    state: wi
    zip: '54115'
  place: '5519775'
  geo:
    lat: 44.45155
    lng: -88.06114
  phone: 877-300-9101
  website: https://www.rawhide.org
  sources:
  - samhsa/findtreatment
  verified:
    'on': '2026-07-19'
    method: api
