- id: wi/eau-claire/caillier-clinic-ltd
  name: Caillier Clinic Ltd
  categories:
  - su-treatment
  - mh-treatment
  address:
    street: 2620 Stein Boulevard
    city: Eau Claire
    state: wi
    zip: '54701'
  place: '5522300'
  geo:
    lat: 44.7914
    lng: -91.5093
  phone: 715-836-0064
  website: https://caillierclinic.com
  sources:
  - samhsa/findtreatment
  verified:
    'on': '2026-07-19'
    method: api
- id: wi/eau-claire/childrens-wisconsin-eau-claire
  name: Childrens Wisconsin Eau Claire
  categories:
  - mh-treatment
  address:
    street: 2004 Highland Avenue
    city: Eau Claire
    state: wi
    zip: '54701'
  place: '5522300'
  geo:
    lat: 44.80794
    lng: -91.47306
  phone: 715-835-5915
  website: https://www.childrenswi.org
  sources:
  - samhsa/findtreatment
  verified:
    'on': '2026-07-19'
    method: api
- id: wi/eau-claire/eau-claire-head-start-center
  name: Eau Claire Head Start Center
  categories:
  - child-care
  address:
    street: 3103 Oak Knoll Dr
    city: Eau Claire
    state: wi
    zip: '54701'
  place: '5522300'
  geo:
    lat: 44.76751
    lng: -91.45606
  phone: 715-514-5746
  sources:
  - acf/head-start-locations
  verified:
    'on': '2026-07-19'
    method: api
- id: wi/eau-claire/eau-claire-housing-authority
  name: Eau Claire Housing Authority
  categories:
  - housing-assistance
  address: {street: 203 S Farwell St, city: Eau Claire, state: wi, zip: '54701'}
  description: Public housing (Low-Rent) agency
  place: '5522300'
  geo: {lat: 44.81221, lng: -91.49885}
  phone: 715-839-4943
  sources:
  - hud/resource-locator
  verified: {'on': '2026-07-19', method: api}
- id: wi/eau-claire/eau-claire-truax-head-start
  name: Eau Claire Truax Head Start
  categories:
  - child-care
  address:
    street: 623 Truax Blvd
    city: Eau Claire
    state: wi
    zip: '54703'
  place: '5522300'
  geo:
    lat: 44.8302
    lng: -91.51946
  phone: 715-598-1826
  sources:
  - acf/head-start-locations
  verified:
    'on': '2026-07-19'
    method: api
- id: wi/eau-claire/fahrman-center
  name: Fahrman Center
  categories:
  - su-treatment
  address:
    street: 3136 Craig Road
    city: Eau Claire
    state: wi
    zip: '54701'
  place: '5522300'
  geo:
    lat: 44.78654
    lng: -91.51939
  phone: 715-835-9110
  website: https://www.lsswis.org
  sources:
  - samhsa/findtreatment
  verified:
    'on': '2026-07-19'
    method: api
- id: wi/eau-claire/family-therapy-associates
  name: Family Therapy Associates
  categories:
  - su-treatment
  - mh-treatment
  address:
    street: 1120 Oakridge Drive
    city: Eau Claire
    state: wi
    zip: '54701'
  place: '5522300'
  geo:
    lat: 44.7971
    lng: -91.51763
  phone: 715-246-4840
  website: https://www.ftacounseling.com/eau-claire---clairemont-location.html
  sources:
  - samhsa/findtreatment
  verified:
    'on': '2026-07-19'
    method: api
- id: wi/eau-claire/family-therapy-associates-2
  name: Family Therapy Associates
  categories:
  - su-treatment
  - mh-treatment
  address:
    street: 3610 Oakwood Mall Drive
    city: Eau Claire
    state: wi
    zip: '54701'
  place: '5522300'
  geo:
    lat: 44.77957
    lng: -91.44079
  phone: 715-246-4840
  website: https://www.ftacounseling.com
  sources:
  - samhsa/findtreatment
  verified:
    'on': '2026-07-19'
    method: api
- id: wi/eau-claire/lutheran-social-services-of-wisconsin-affinity-h
  name: Lutheran Social Services of Wisconsin Affinity House
  categories:
  - su-treatment
  address:
    street: 3042 Kilbourne Avenue
    city: Eau Claire
    state: wi
    zip: '54703'
  place: '5522300'
  geo:
    lat: 44.85197
    lng: -91.47606
  phone: 715-833-0436
  website: https://www.lsswis.org
  sources:
  - samhsa/findtreatment
  verified:
    'on': '2026-07-19'
    method: api
- id: wi/eau-claire/marriage-and-family-health-servs-ltd
  name: Marriage and Family Health Servs Ltd
  categories:
  - mh-treatment
  address:
    street: 2925 Mondovi Road
    city: Eau Claire
    state: wi
    zip: '54701'
  place: '5522300'
  geo:
    lat: 44.78801
    lng: -91.52408
  phone: 715-832-0238
  website: https://www.marriageandfamilyhealthservices.com
  sources:
  - samhsa/findtreatment
  verified:
    'on': '2026-07-19'
    method: api
- id: wi/eau-claire/northlakes-community-clinic-eau-claire
  name: NorthLakes Community Clinic Eau Claire
  categories:
  - su-treatment
  - mh-treatment
  address:
    street: 1002 West Clairemont Avenue
    city: Eau Claire
    state: wi
    zip: '54701'
  place: '5522300'
  geo:
    lat: 44.79367
    lng: -91.51607
  phone: 534-200-6165
  website: https://www.nlccwi.org
  sources:
  - samhsa/findtreatment
  verified:
    'on': '2026-07-19'
    method: api
- id: wi/eau-claire/northlakes-eau-claire-clairemont-avenue
  name: NorthLakes Eau Claire - Clairemont Avenue
  categories:
  - community-health-center
  address:
    street: 1002 W Clairemont Ave
    city: Eau Claire
    state: wi
    zip: '54701'
  place: '5522300'
  geo:
    lat: 44.79369
    lng: -91.51601
  phone: 888-834-4551
  external_ids:
    bphc: BPS-H80-038571
  sources:
  - hrsa/health-center-sites
  verified:
    'on': '2026-07-19'
    method: api
- id: wi/eau-claire/northlakes-eau-claire-oak-ridge
  name: NorthLakes Eau Claire - Oak Ridge
  categories:
  - community-health-center
  address:
    street: 2119 Heights Dr
    city: Eau Claire
    state: wi
    zip: '54701'
  place: '5522300'
  geo:
    lat: 44.79645
    lng: -91.51438
  phone: 888-834-4551
  external_ids:
    bphc: BPS-H80-038929
  sources:
  - hrsa/health-center-sites
  verified:
    'on': '2026-07-19'
    method: api
- id: wi/eau-claire/nystrom-and-associates-ltd
  name: Nystrom and Associates Ltd
  categories:
  - su-treatment
  - mh-treatment
  address:
    street: 3703 Oakwood Hills Parkway
    city: Eau Claire
    state: wi
    zip: '54701'
  place: '5522300'
  geo:
    lat: 44.77852
    lng: -91.4469
  phone: 534-444-4562
  website: https://www.nystromcounseling.com
  sources:
  - samhsa/findtreatment
  verified:
    'on': '2026-07-19'
    method: api
- id: wi/eau-claire/prairie-ridge-early-learning-school
  name: Prairie Ridge Early Learning School
  categories:
  - child-care
  address:
    street: 3031 Epiphany Ln
    city: Eau Claire
    state: wi
    zip: '54703'
  place: '5522300'
  geo:
    lat: 44.82992
    lng: -91.53998
  phone: 715-852-3600
  sources:
  - acf/head-start-locations
  verified:
    'on': '2026-07-19'
    method: api
- id: wi/eau-claire/school-district-of-eau-claire-longfellow-element
  name: School District of Eau Claire- Longfellow Elementary School
  categories:
  - community-health-center
  address:
    street: 500 Balcom St
    city: Eau Claire
    state: wi
    zip: '54703'
  place: '5522300'
  geo:
    lat: 44.81881
    lng: -91.49039
  phone: 888-834-4451
  external_ids:
    bphc: BPS-H80-039876
  sources:
  - hrsa/health-center-sites
  verified:
    'on': '2026-07-19'
    method: api
- id: wi/eau-claire/school-district-of-eau-claire-memorial-high-scho
  name: School District of Eau Claire- Memorial High School
  categories:
  - community-health-center
  address:
    street: 2220 Fairfax St
    city: Eau Claire
    state: wi
    zip: '54701'
  place: '5522300'
  geo:
    lat: 44.79623
    lng: -91.46983
  phone: 888-834-4451
  external_ids:
    bphc: BPS-H80-039874
  sources:
  - hrsa/health-center-sites
  verified:
    'on': '2026-07-19'
    method: api
- id: wi/eau-claire/school-district-of-eau-claire-north-high-school
  name: School District of Eau Claire- North High School
  categories:
  - community-health-center
  address:
    street: 1801 Piedmont Rd
    city: Eau Claire
    state: wi
    zip: '54703'
  place: '5522300'
  geo:
    lat: 44.84694
    lng: -91.4849
  phone: 888-834-4451
  external_ids:
    bphc: BPS-H80-039875
  sources:
  - hrsa/health-center-sites
  verified:
    'on': '2026-07-19'
    method: api
- id: wi/eau-claire/vantage-point-clinic
  name: Vantage Point Clinic
  categories:
  - su-treatment
  - mh-treatment
  address:
    street: 2005 Highland Avenue
    city: Eau Claire
    state: wi
    zip: '54701'
  place: '5522300'
  geo:
    lat: 44.80689
    lng: -91.47309
  phone: 715-832-5454
  website: https://www.nystromcounseling.com
  sources:
  - samhsa/findtreatment
  verified:
    'on': '2026-07-19'
    method: api
