- id: wi/hudson/burkwood-treatment-center
  name: Burkwood Treatment Center
  categories:
  - su-treatment
  address:
    street: 615 Old Mill Road
    city: Hudson
    state: wi
    zip: '54016'
  place: '5536250'
  geo:
    lat: 45.02388
    lng: -92.66889
  phone: 715-376-5082
  website: https://www.burkwoodtreatmentcenter.com
  sources:
  - samhsa/findtreatment
  verified:
    'on': '2026-07-19'
    method: api
- id: wi/hudson/hazelden-betty-ford-foundation
  name: Hazelden Betty Ford Foundation
  categories:
  - su-treatment
  - mh-treatment
  address:
    street: 900 Crest View Drive
    city: Hudson
    state: wi
    zip: '54016'
  place: '5536250'
  geo:
    lat: 44.96106
    lng: -92.74451
  phone: 715-272-5500
  website: https://www.hazeldenbettyford.org
  sources:
  - samhsa/findtreatment
  verified:
    'on': '2026-07-19'
    method: api
- id: wi/hudson/hudson-hospital-and-clinics-programs-for-change
  name: Hudson Hospital and Clinics Programs for Change
  categories:
  - su-treatment
  address:
    street: 405 Stageline Road
    city: Hudson
    state: wi
    zip: '54016'
  place: '5536250'
  geo:
    lat: 44.96105
    lng: -92.71796
  phone: 715-531-6755
  website: https://www.healthpartners.com/care/hospitals/hudson/
  sources:
  - samhsa/findtreatment
  verified:
    'on': '2026-07-19'
    method: api
- id: wi/hudson/nystrom-and-associates-ltd
  name: Nystrom and Associates Ltd
  categories:
  - su-treatment
  - mh-treatment
  address:
    street: 2501 Hanley Road
    city: Hudson
    state: wi
    zip: '54016'
  place: '5536250'
  geo:
    lat: 44.95482
    lng: -92.72045
  phone: 534-544-5247
  website: https://www.nystromcounseling.com/our-locations/
  sources:
  - samhsa/findtreatment
  verified:
    'on': '2026-07-19'
    method: api
- id: wi/hudson/st-croix-county-government-center
  name: St Croix County Government Center
  categories:
  - su-treatment
  - mh-treatment
  address:
    street: 1101 Carmichael Road
    city: Hudson
    state: wi
    zip: '54016'
  place: '5536250'
  geo:
    lat: 44.98161
    lng: -92.72324
  phone: 715-246-8255
  website: https://www.sccwi.gov
  sources:
  - samhsa/findtreatment
  verified:
    'on': '2026-07-19'
    method: api
