- id: wi/merrill/boys-girls-club-of-merrill-prairie-river-middle
  name: Boys & Girls Club of Merrill - Prairie River Middle School Site
  categories:
  - family-youth
  description: Boys & Girls Club
  address: {street: 106 North Polk Street, city: Merrill, state: wi, zip: '54452'}
  geo: {lat: 45.18137, lng: -89.69925}
  place: '5551250'
  website: http://www.bgclub.com
  external_ids: {bgca_site: '29619', bgca_org: '10491'}
  sources:
  - bgca/find-a-club
  verified: {'on': '2026-07-21', method: api}
- id: wi/merrill/bridge-community-health-clinic-behavioral-health
  name: Bridge Community Health Clinic - Behavioral Health Merrill
  categories:
  - community-health-center
  cost: sliding-scale
  address: {street: 726 E 2nd St, city: Merrill, state: wi, zip: '54452'}
  place: '5551250'
  geo: {lat: 45.18049, lng: -89.68931}
  phone: 715-675-3458
  external_ids: {bphc: BPS-H80-036956}
  sources:
  - hrsa/health-center-sites
  verified: {'on': '2026-07-19', method: api}
- id: wi/merrill/bridge-community-health-clinic-merrill-hs
  name: Bridge Community Health Clinic - Merrill HS
  categories:
  - community-health-center
  cost: sliding-scale
  address: {street: 1201 N Sales St, city: Merrill, state: wi, zip: '54452'}
  place: '5551250'
  geo: {lat: 45.19033, lng: -89.67083}
  phone: 715-848-4884
  external_ids: {bphc: BPS-H80-039153}
  sources:
  - hrsa/health-center-sites
  verified: {'on': '2026-07-19', method: api}
- id: wi/merrill/bridge-community-health-clinic-merrill-ms
  name: Bridge Community Health Clinic - Merrill MS
  categories:
  - community-health-center
  cost: sliding-scale
  address: {street: 106 N Polk St, city: Merrill, state: wi, zip: '54452'}
  place: '5551250'
  geo: {lat: 45.18076, lng: -89.69975}
  phone: 715-848-4884
  external_ids: {bphc: BPS-H80-039150}
  sources:
  - hrsa/health-center-sites
  verified: {'on': '2026-07-19', method: api}
- id: wi/merrill/community-food-pantry-of-merrill
  name: Community Food Pantry Of Merrill
  org: wi/feeding-america-eastern-wisconsin
  categories:
  - food-pantry
  address: {street: 503 S Center Ave suite 3, city: Merrill, state: wi}
  place: '5551250'
  geo: {lat: 45.17643, lng: -89.68084}
  external_ids: {wi-feeding-america-eastern-wisconsin: '253'}
  sources:
  - foodbank/wi-feeding-america-eastern-wisconsin
  verified: {'on': '2026-07-21', method: api}
- id: wi/merrill/dinner-five
  name: Dinner @ Five
  org: wi/feeding-america-eastern-wisconsin
  categories:
  - food-pantry
  address: {street: 903 E 2nd St, city: Merrill, state: wi}
  place: '5551250'
  geo: {lat: 45.1815, lng: -89.6872}
  external_ids: {wi-feeding-america-eastern-wisconsin: '256'}
  sources:
  - foodbank/wi-feeding-america-eastern-wisconsin
  verified: {'on': '2026-07-21', method: api}
- id: wi/merrill/his-hands-extended-food-pantry
  name: His Hands Extended Food Pantry
  org: wi/feeding-america-eastern-wisconsin
  categories:
  - food-pantry
  address: {street: n2519 County Rd K, city: Merrill, state: wi}
  place: '5551250'
  geo: {lat: 45.20708, lng: -89.67327}
  external_ids: {wi-feeding-america-eastern-wisconsin: '252'}
  sources:
  - foodbank/wi-feeding-america-eastern-wisconsin
  verified: {'on': '2026-07-21', method: api}
- id: wi/merrill/kate-goodrich-elementary
  name: Kate Goodrich Elementary
  categories:
  - meal-program
  address: {street: 505 W. 10Th Street, city: Merrill, state: wi, zip: '54452'}
  description: Free summer meals for kids and teens (2026 season) — sponsored by Merrill Area Public School
    District.
  place: '5551250'
  geo: {lat: 45.18876, lng: -89.70778}
  phone: (715) 536-5233
  external_ids: {usda_master: Cycle 01_WI_SFSP_0075}
  sources:
  - usda/summer-meal-sites
  verified: {'on': '2026-07-19', method: api}
- id: wi/merrill/lincoln-county-department-of-social-services
  name: Lincoln County Department of Social Services
  categories:
  - utility-assistance
  description: LIHEAP intake office serving Lincoln County
  address: {street: '607 North Sales St., Suite 202', city: Merrill, state: wi, zip: '54452'}
  place: '5551250'
  phone: 715-539-9581
  website: http://homeenergyplus.wi.gov
  sources:
  - acf/liheap-clearinghouse
  verified: {'on': '2026-07-19', method: scrape}
  geo: {lat: 45.18509, lng: -89.6727}
- id: wi/merrill/maps-head-start-of-merrill
  name: MAPS Head Start of Merrill
  categories:
  - child-care
  address: {street: W4165 State Highway 64, city: Merrill, state: wi, zip: '54452'}
  description: Head Start early childhood program — 88 funded slots; operated by Merrill Area Public School
    District.
  place: '5551250'
  geo: {lat: 45.17698, lng: -89.6349}
  phone: 715-536-2392
  sources:
  - acf/head-start-locations
  verified: {'on': '2026-07-19', method: api}
- id: wi/merrill/merrill-bible-church-food-distribution
  name: Merrill Bible Church Food Distribution
  org: wi/feeding-america-eastern-wisconsin
  categories:
  - food-pantry
  address: {street: 508 Eugene Street, city: Merrill, state: wi}
  place: '5551250'
  geo: {lat: 45.17412, lng: -89.72981}
  external_ids: {wi-feeding-america-eastern-wisconsin: '254'}
  sources:
  - foodbank/wi-feeding-america-eastern-wisconsin
  verified: {'on': '2026-07-21', method: api}
- id: wi/merrill/merrill-housing-authority
  name: Merrill Housing Authority
  categories:
  - housing-assistance
  address: {street: 101 E 1st St, city: Merrill, state: wi, zip: '54452'}
  description: Public housing (Low-Rent) agency
  place: '5551250'
  geo: {lat: 45.17945, lng: -89.69961}
  phone: 715-536-7386
  sources:
  - hud/resource-locator
  verified: {'on': '2026-07-19', method: api}
- id: wi/merrill/st-vincent-de-paul-free-clinic
  name: St. Vincent de Paul Free Clinic
  categories:
  - free-clinic
  - health
  description: NAFC member clinic
  address: {street: 1004 East Main Street, city: Merrill, state: wi, zip: '54452'}
  geo: {lat: 45.18053, lng: -89.6855}
  place: '5551250'
  phone: 715-539-9566
  services:
  - Health Education
  - Smoking Cessation
  - Labs
  - Primary Care
  - Referrals
  - Discounted Pharmacy Cards
  - Write Prescriptions for filing off-site
  cost: free
  external_ids: {nafc: st-vincent-de-paul-free-clinic}
  sources:
  - nafc/find-a-clinic
  verified: {'on': '2026-07-21', method: scrape}
- id: wi/merrill/trinity-open-heart-food-pantry
  name: Trinity Open Heart Food Pantry
  org: wi/feeding-america-eastern-wisconsin
  categories:
  - food-pantry
  address: {street: 107 North State Street, city: Merrill, state: wi}
  place: '5551250'
  geo: {lat: 45.17948, lng: -89.70854}
  external_ids: {wi-feeding-america-eastern-wisconsin: '255'}
  sources:
  - foodbank/wi-feeding-america-eastern-wisconsin
  verified: {'on': '2026-07-21', method: api}
