- id: wi/milwaukee/12th-street-urgent-care
  name: 12th Street Urgent Care
  categories:
  - community-health-center
  address:
    street: 945 N 12th St
    city: Milwaukee
    state: wi
    zip: '53233'
  place: '5553000'
  geo:
    lat: 43.04256
    lng: -87.92739
  phone: 414-935-8000
  website: https://www.progressivechc.org
  external_ids:
    bphc: BPS-H80-017614
  sources:
  - hrsa/health-center-sites
  verified:
    'on': '2026-07-19'
    method: api
- id: wi/milwaukee/access-recovery-mental-hlth-services
  name: Access Recovery Mental Hlth Services
  categories:
  - su-treatment
  - mh-treatment
  address:
    street: 2727 West Cleveland Avenue
    city: Milwaukee
    state: wi
    zip: '53215'
  place: '5553000'
  geo:
    lat: 42.99567
    lng: -87.94878
  phone: 414-269-8356
  website: https://www.armhswi.com
  sources:
  - samhsa/findtreatment
  verified:
    'on': '2026-07-19'
    method: api
- id: wi/milwaukee/acelero-learning-north-ave
  name: Acelero Learning North Ave
  categories:
  - child-care
  address:
    street: 4801 W North Ave
    city: Milwaukee
    state: wi
    zip: '53208'
  place: '5553000'
  geo:
    lat: 43.06039
    lng: -87.97378
  phone: 414-873-8940
  sources:
  - acf/head-start-locations
  verified:
    'on': '2026-07-19'
    method: api
- id: wi/milwaukee/acelero-learning-penfield
  name: Acelero Learning Penfield
  categories:
  - child-care
  address:
    street: 833 N 26th St
    city: Milwaukee
    state: wi
    zip: '53233'
  place: '5553000'
  geo:
    lat: 43.04113
    lng: -87.94734
  phone: 212-289-2402
  sources:
  - acf/head-start-locations
  verified:
    'on': '2026-07-19'
    method: api
- id: wi/milwaukee/acelero-learning-teutonia
  name: Acelero Learning Teutonia
  categories:
  - child-care
  address:
    street: 5719 N Teutonia Ave
    city: Milwaukee
    state: wi
    zip: '53209'
  place: '5553000'
  geo:
    lat: 43.12143
    lng: -87.95149
  phone: 414-226-5594
  sources:
  - acf/head-start-locations
  verified:
    'on': '2026-07-19'
    method: api
- id: wi/milwaukee/acelero-learning-walton
  name: Acelero Learning Walton
  categories:
  - child-care
  address:
    street: 7833 W Capitol Dr
    city: Milwaukee
    state: wi
    zip: '53222'
  place: '5553000'
  geo:
    lat: 43.08956
    lng: -88.01013
  phone: 414-616-5000
  sources:
  - acf/head-start-locations
  verified:
    'on': '2026-07-19'
    method: api
- id: wi/milwaukee/acelero-learning-woodland
  name: Acelero Learning Woodland
  categories:
  - child-care
  address:
    street: 3738 S 60th St
    city: Milwaukee
    state: wi
    zip: '53220'
  place: '5553000'
  geo:
    lat: 42.97673
    lng: -87.98736
  sources:
  - acf/head-start-locations
  verified:
    'on': '2026-07-19'
    method: api
- id: wi/milwaukee/addiction-services-and-pharmacotherapy-west-alli
  name: Addiction Services and Pharmacotherapy West Allis
  categories:
  - su-treatment
  address:
    street: 11390 West Theodore Trecker Way
    city: Milwaukee
    state: wi
    zip: '53214'
  place: '5553000'
  geo:
    lat: 43.02447
    lng: -88.05465
  phone: 414-928-1401
  website: https://www.clinicofhope.com
  sources:
  - samhsa/findtreatment
  verified:
    'on': '2026-07-19'
    method: api
- id: wi/milwaukee/alba-academy-of-language-and-fine-arts
  name: ALBA (Academy of Language and Fine Arts)
  categories:
  - child-care
  address:
    street: 1712 S 32nd St
    city: Milwaukee
    state: wi
    zip: '53215'
  place: '5553000'
  geo:
    lat: 43.01203
    lng: -87.95359
  phone: 414-902-7526
  sources:
  - acf/head-start-locations
  verified:
    'on': '2026-07-19'
    method: api
- id: wi/milwaukee/allen-field-school
  name: Allen Field School
  categories:
  - child-care
  address:
    street: 730 W Lapham Blvd
    city: Milwaukee
    state: wi
    zip: '53204'
  place: '5553000'
  geo:
    lat: 43.01471
    lng: -87.92069
  phone: 414-902-9200
  sources:
  - acf/head-start-locations
  verified:
    'on': '2026-07-19'
    method: api
- id: wi/milwaukee/alternatives-in-psychological-consultation-sc
  name: Alternatives in Psychological Consultation SC
  categories:
  - su-treatment
  - mh-treatment
  address:
    street: 6737 West Washington Street
    city: Milwaukee
    state: wi
    zip: '53214'
  place: '5553000'
  geo:
    lat: 43.02101
    lng: -87.99686
  phone: 414-358-7144
  website: https://www.altlig.com
  sources:
  - samhsa/findtreatment
  verified:
    'on': '2026-07-19'
    method: api
- id: wi/milwaukee/american-behavioral-clinics-bluemound-clinic
  name: American Behavioral Clinics Bluemound Clinic
  categories:
  - su-treatment
  - mh-treatment
  address:
    street: 10424 West Bluemound Road
    city: Milwaukee
    state: wi
    zip: '53226'
  place: '5553000'
  geo:
    lat: 43.03509
    lng: -88.04342
  phone: 414-877-4570
  website: https://www.americanbehavioralclinics.com
  sources:
  - samhsa/findtreatment
  verified:
    'on': '2026-07-19'
    method: api
- id: wi/milwaukee/american-behavioral-clinics-layton-clinic
  name: American Behavioral Clinics Layton Clinic
  categories:
  - su-treatment
  - mh-treatment
  address:
    street: 7330 West Layton Avenue
    city: Milwaukee
    state: wi
    zip: '53220'
  place: '5553000'
  geo:
    lat: 42.95989
    lng: -88.0056
  phone: 414-877-4570
  website: https://www.americanbehavioralclinics.com
  sources:
  - samhsa/findtreatment
  verified:
    'on': '2026-07-19'
    method: api
- id: wi/milwaukee/ascension-st-ben-s-clinic
  name: Ascension St. Ben's Clinic
  categories:
  - community-health-center
  address:
    street: 1004 N 10th St, Ste 100
    city: Milwaukee
    state: wi
    zip: '53233'
  place: '5553000'
  geo:
    lat: 43.04379
    lng: -87.92435
  phone: 414-527-8191
  website: https://healthcare.ascension.org/Locations/Wisconsin/WIMIL/Milwaukee-Ascension-St-Bens-Clinic
  external_ids:
    bphc: BPS-H80-030525
  sources:
  - hrsa/health-center-sites
  verified:
    'on': '2026-07-19'
    method: api
- id: wi/milwaukee/auer-avenue-school
  name: Auer Avenue School
  categories:
  - child-care
  address:
    street: 2319 W Auer Ave
    city: Milwaukee
    state: wi
    zip: '53206'
  place: '5553000'
  geo:
    lat: 43.07631
    lng: -87.94057
  phone: 414-875-4500
  sources:
  - acf/head-start-locations
  verified:
    'on': '2026-07-19'
    method: api
- id: wi/milwaukee/be-the-change-health-and-wellness
  name: Be the Change Health and Wellness
  categories:
  - su-treatment
  address:
    street: 240 North Milwaukee Street
    city: Milwaukee
    state: wi
    zip: '53202'
  place: '5553000'
  geo:
    lat: 43.03365
    lng: -87.90557
  phone: 262-646-8288
  website: https://www.BetheChangeHealthWellness.com
  sources:
  - samhsa/findtreatment
  verified:
    'on': '2026-07-19'
    method: api
- id: wi/milwaukee/benedict-center-womens-harm-reduction-program
  name: Benedict Center Womens Harm Reduction Program
  categories:
  - su-treatment
  - mh-treatment
  address:
    street: 1849 North Martin Luther King Drive
    city: Milwaukee
    state: wi
    zip: '53212'
  place: '5553000'
  geo:
    lat: 43.05493
    lng: -87.91452
  phone: 414-347-1774 x202
  website: https://www.benedictcenter.org
  sources:
  - samhsa/findtreatment
  verified:
    'on': '2026-07-19'
    method: api
- id: wi/milwaukee/bethune
  name: Bethune
  categories:
  - child-care
  address:
    street: 1535 N 35th St
    city: Milwaukee
    state: wi
    zip: '53208'
  place: '5553000'
  geo:
    lat: 43.05096
    lng: -87.95783
  phone: 414-934-4600
  sources:
  - acf/head-start-locations
  verified:
    'on': '2026-07-19'
    method: api
- id: wi/milwaukee/browning-school
  name: Browning School
  categories:
  - child-care
  address:
    street: 5440 N 64th St
    city: Milwaukee
    state: wi
    zip: '53218'
  place: '5553000'
  geo:
    lat: 43.11756
    lng: -87.99058
  phone: 414-393-5200
  sources:
  - acf/head-start-locations
  verified:
    'on': '2026-07-19'
    method: api
- id: wi/milwaukee/bruce-elementary-school
  name: Bruce Elementary School
  categories:
  - child-care
  address:
    street: 6453 N 89th St
    city: Milwaukee
    state: wi
    zip: '53224'
  place: '5553000'
  geo:
    lat: 43.13558
    lng: -88.02369
  phone: 414-393-2100
  sources:
  - acf/head-start-locations
  verified:
    'on': '2026-07-19'
    method: api
- id: wi/milwaukee/c-h-mason-health-clinic
  name: C. H. Mason Health Clinic
  categories:
  - community-health-center
  address:
    street: 4858 N Mother Daniels Way
    city: Milwaukee
    state: wi
    zip: '53209'
  place: '5553000'
  geo:
    lat: 43.10607
    lng: -87.95649
  phone: 414-249-4613
  website: https://www.ochc-milw.org
  external_ids:
    bphc: BPS-H80-039794
  sources:
  - hrsa/health-center-sites
  verified:
    'on': '2026-07-19'
    method: api
- id: wi/milwaukee/carmen-schools
  name: Carmen Schools
  categories:
  - community-health-center
  address:
    street: 5496 N 72nd St
    city: Milwaukee
    state: wi
    zip: '53218'
  place: '5553000'
  geo:
    lat: 43.11826
    lng: -88.00023
  phone: 414-837-4000
  website: https://www.ochc-milw.org
  external_ids:
    bphc: BPS-H80-035790
  sources:
  - hrsa/health-center-sites
  verified:
    'on': '2026-07-19'
    method: api
- id: wi/milwaukee/carson-academy
  name: Carson Academy
  categories:
  - child-care
  address:
    street: 4920 W Capitol Dr
    city: Milwaukee
    state: wi
    zip: '53216'
  place: '5553000'
  geo:
    lat: 43.09058
    lng: -87.97528
  phone: 414-393-4800
  sources:
  - acf/head-start-locations
  verified:
    'on': '2026-07-19'
    method: api
- id: wi/milwaukee/centers-for-independence-whole-health-clinical-g
  name: Centers for Independence Whole Health Clinical Group
  categories:
  - su-treatment
  - mh-treatment
  address:
    street: 2020 West Wells Street
    city: Milwaukee
    state: wi
    zip: '53233'
  place: '5553000'
  geo:
    lat: 43.04075
    lng: -87.93869
  phone: 414-476-9675
  website: https://www.cfihope.org/programs-services/behavioral-healt
  sources:
  - samhsa/findtreatment
  verified:
    'on': '2026-07-19'
    method: api
- id: wi/milwaukee/childrens-hospital-of-wisconsin-community-servic
  name: Childrens Hospital of Wisconsin Community Services
  categories:
  - mh-treatment
  address:
    street: 620 South 76th Street
    city: Milwaukee
    state: wi
    zip: '53214'
  place: '5553000'
  geo:
    lat: 43.02575
    lng: -88.00695
  phone: 414-292-4242
  website: https://childrenswi.org/
  sources:
  - samhsa/findtreatment
  verified:
    'on': '2026-07-19'
    method: api
- id: wi/milwaukee/childrens-wisconsin-psychiatry-and-behavioral-me
  name: Childrens Wisconsin Psychiatry and Behavioral Medicine
  categories:
  - mh-treatment
  address:
    street: 8915 West Connell Court
    city: Milwaukee
    state: wi
    zip: '53226'
  place: '5553000'
  geo:
    lat: 43.04247
    lng: -88.02411
  phone: 414-266-2932
  website: https://www.childrenswi.org
  sources:
  - samhsa/findtreatment
  verified:
    'on': '2026-07-19'
    method: api
- id: wi/milwaukee/clement-j-zablocki-vamc-mental-health-division
  name: Clement J Zablocki VAMC Mental Health Division
  categories:
  - su-treatment
  - mh-treatment
  address:
    street: 5000 West National Avenue
    city: Milwaukee
    state: wi
    zip: '53295'
  place: '5553000'
  geo:
    lat: 43.02066
    lng: -87.97747
  phone: 414-384-2000 x41275
  website: https://www.va.gov/milwaukee-health-care/locations/
  sources:
  - samhsa/findtreatment
  verified:
    'on': '2026-07-19'
    method: api
- id: wi/milwaukee/coa-goldin
  name: COA Goldin
  categories:
  - child-care
  address:
    street: 2320 W Burleigh St
    city: Milwaukee
    state: wi
    zip: '53206'
  place: '5553000'
  geo:
    lat: 43.07553
    lng: -87.94162
  phone: 414-562-2929
  sources:
  - acf/head-start-locations
  verified:
    'on': '2026-07-19'
    method: api
- id: wi/milwaukee/coa-riverwest
  name: COA Riverwest
  categories:
  - child-care
  address:
    street: 909 E Garfield Ave
    city: Milwaukee
    state: wi
    zip: '53212'
  place: '5553000'
  geo:
    lat: 43.05875
    lng: -87.90009
  phone: 414-562-2929
  sources:
  - acf/head-start-locations
  verified:
    'on': '2026-07-19'
    method: api
- id: wi/milwaukee/coa-youth-and-family-centers-burke
  name: COA Youth and Family Centers-Burke
  categories:
  - child-care
  address:
    street: 2320 W Burleigh St
    city: Milwaukee
    state: wi
    zip: '53206'
  place: '5553000'
  geo:
    lat: 43.07552
    lng: -87.9416
  phone: 414-562-2929
  sources:
  - acf/head-start-locations
  verified:
    'on': '2026-07-19'
    method: api
- id: wi/milwaukee/coa-youth-and-family-centers-riverwest
  name: COA Youth and Family Centers-Riverwest
  categories:
  - child-care
  address:
    street: 909 E North Ave
    city: Milwaukee
    state: wi
    zip: '53212'
  place: '5553000'
  geo:
    lat: 43.06003
    lng: -87.90001
  phone: 414-562-2929
  sources:
  - acf/head-start-locations
  verified:
    'on': '2026-07-19'
    method: api
- id: wi/milwaukee/columbia-saint-marys-hospital-behavioral-health
  name: Columbia Saint Marys Hospital Behavioral Health
  categories:
  - su-treatment
  - mh-treatment
  address:
    street: 2323 North Lake Drive
    city: Milwaukee
    state: wi
    zip: '53211'
  place: '5553000'
  geo:
    lat: 43.06175
    lng: -87.87983
  phone: 414-585-1620
  website: https://www.ascension.org
  sources:
  - samhsa/findtreatment
  verified:
    'on': '2026-07-19'
    method: api
- id: wi/milwaukee/columbia-saint-marys-hospital-milwaukee-campus-o
  name: Columbia Saint Marys Hospital Milwaukee Campus Outpatient
  categories:
  - su-treatment
  - mh-treatment
  address:
    street: 2323 North Lake Drive
    city: Milwaukee
    state: wi
    zip: '53211'
  place: '5553000'
  geo:
    lat: 43.06175
    lng: -87.87983
  phone: 414-585-1620
  website: https://healthcare.ascension.org
  sources:
  - samhsa/findtreatment
  verified:
    'on': '2026-07-19'
    method: api
- id: wi/milwaukee/community-medical-services-west-allis
  name: Community Medical Services West Allis
  categories:
  - su-treatment
  address:
    street: 2814 South 108th Street
    city: Milwaukee
    state: wi
    zip: '53227'
  place: '5553000'
  geo:
    lat: 42.99314
    lng: -88.04664
  phone: 414-885-3525
  website: https://communitymedicalservices.org
  sources:
  - samhsa/findtreatment
  verified:
    'on': '2026-07-19'
    method: api
- id: wi/milwaukee/congress
  name: Congress
  categories:
  - child-care
  address:
    street: 5225 W Lincoln Creek Dr
    city: Milwaukee
    state: wi
    zip: '53218'
  place: '5553000'
  geo:
    lat: 43.09838
    lng: -87.97877
  phone: 414-616-5300
  sources:
  - acf/head-start-locations
  verified:
    'on': '2026-07-19'
    method: api
- id: wi/milwaukee/doerfler-school
  name: Doerfler School
  categories:
  - child-care
  address:
    street: 3014 W Scott St
    city: Milwaukee
    state: wi
    zip: '53215'
  place: '5553000'
  geo:
    lat: 43.0199
    lng: -87.95201
  phone: 414-902-9500
  sources:
  - acf/head-start-locations
  verified:
    'on': '2026-07-19'
    method: api
- id: wi/milwaukee/dr-martin-luther-king-jr-school
  name: Dr. Martin Luther King Jr. School
  categories:
  - child-care
  address:
    street: 3275 N 3rd St
    city: Milwaukee
    state: wi
    zip: '53212'
  place: '5553000'
  geo:
    lat: 43.07791
    lng: -87.91414
  phone: 414-267-1500
  sources:
  - acf/head-start-locations
  verified:
    'on': '2026-07-19'
    method: api
- id: wi/milwaukee/forest-home-avenue
  name: Forest Home Avenue
  categories:
  - child-care
  address:
    street: 1516 W Forest Home Ave
    city: Milwaukee
    state: wi
    zip: '53204'
  place: '5553000'
  geo:
    lat: 43.01052
    lng: -87.93131
  phone: 414-902-6200
  sources:
  - acf/head-start-locations
  verified:
    'on': '2026-07-19'
    method: api
- id: wi/milwaukee/forward-choices-llc
  name: Forward Choices LLC
  categories:
  - su-treatment
  - mh-treatment
  address:
    street: 6040 West Lisbon Avenue
    city: Milwaukee
    state: wi
    zip: '53210'
  place: '5553000'
  geo:
    lat: 43.0689
    lng: -87.98842
  phone: 414-442-1751
  website: https://forwardchoices.com
  sources:
  - samhsa/findtreatment
  verified:
    'on': '2026-07-19'
    method: api
- id: wi/milwaukee/franklin-school
  name: Franklin School
  categories:
  - child-care
  address:
    street: 2308 W Nash St
    city: Milwaukee
    state: wi
    zip: '53206'
  place: '5553000'
  geo:
    lat: 43.08502
    lng: -87.9414
  phone: 414-875-4400
  sources:
  - acf/head-start-locations
  verified:
    'on': '2026-07-19'
    method: api
- id: wi/milwaukee/gateway-to-change-llc
  name: Gateway to Change LLC
  categories:
  - su-treatment
  address:
    street: 2319 West Capitol Drive
    city: Milwaukee
    state: wi
    zip: '53206'
  place: '5553000'
  geo:
    lat: 43.08943
    lng: -87.94148
  phone: 414-442-2033
  website: https://
  sources:
  - samhsa/findtreatment
  verified:
    'on': '2026-07-19'
    method: api
- id: wi/milwaukee/gerald-l-ignace-indian-health-center-inc
  name: Gerald L. Ignace Indian Health Center, Inc.
  categories:
  - community-health-center
  address:
    street: 930 W Historic Mitchell St
    city: Milwaukee
    state: wi
    zip: '53204'
  place: '5553000'
  geo:
    lat: 43.01257
    lng: -87.92369
  phone: 414-383-9526
  external_ids:
    bphc: BPS-H80-021555
  sources:
  - hrsa/health-center-sites
  verified:
    'on': '2026-07-19'
    method: api
- id: wi/milwaukee/grant-gordon-learning-center-formerly-lee-learni
  name: Grant Gordon Learning Center (formerly Lee Learning Center)
  categories:
  - child-care
  address:
    street: 921 W Meinecke Ave
    city: Milwaukee
    state: wi
    zip: '53206'
  place: '5553000'
  geo:
    lat: 43.06146
    lng: -87.92342
  phone: 414-252-0350
  sources:
  - acf/head-start-locations
  verified:
    'on': '2026-07-19'
    method: api
- id: wi/milwaukee/great-lakes-adult-and-teen-challenge-robby-dawso
  name: Great Lakes Adult and Teen Challenge Robby Dawson Home for Women
  categories:
  - su-treatment
  address:
    street: 727 North 31st Street
    city: Milwaukee
    state: wi
    zip: '53208'
  place: '5553000'
  geo:
    lat: 43.03946
    lng: -87.95343
  phone: 414-748-4357
  website: https://greatlakeswomensrehab.com
  sources:
  - samhsa/findtreatment
  verified:
    'on': '2026-07-19'
    method: api
- id: wi/milwaukee/guest-house-counseling-clinic
  name: Guest House Counseling Clinic
  categories:
  - su-treatment
  - mh-treatment
  address:
    street: 1216 North 13th Street
    city: Milwaukee
    state: wi
    zip: '53205'
  place: '5553000'
  geo:
    lat: 43.04629
    lng: -87.92846
  phone: 414-345-3240
  website: https://www.guesthouseofmilwaukee.org
  sources:
  - samhsa/findtreatment
  verified:
    'on': '2026-07-19'
    method: api
- id: wi/milwaukee/gwen-t-jackson-early-childhood-school
  name: Gwen T. Jackson Early Childhood  School
  categories:
  - child-care
  address:
    street: 2121 W Hadley St
    city: Milwaukee
    state: wi
    zip: '53206'
  place: '5553000'
  geo:
    lat: 43.06873
    lng: -87.93933
  phone: 414-267-5500
  sources:
  - acf/head-start-locations
  verified:
    'on': '2026-07-19'
    method: api
- id: wi/milwaukee/hawthorne
  name: Hawthorne
  categories:
  - child-care
  address:
    street: 6945 N 41st St
    city: Milwaukee
    state: wi
    zip: '53209'
  place: '5553000'
  geo:
    lat: 43.14402
    lng: -87.96435
  phone: 414-247-7200
  sources:
  - acf/head-start-locations
  verified:
    'on': '2026-07-19'
    method: api
- id: wi/milwaukee/hayes-bilingual
  name: Hayes Bilingual
  categories:
  - child-care
  address:
    street: 971 W Windlake Ave
    city: Milwaukee
    state: wi
    zip: '53204'
  place: '5553000'
  geo:
    lat: 43.00785
    lng: -87.92369
  phone: 414-902-9600
  sources:
  - acf/head-start-locations
  verified:
    'on': '2026-07-19'
    method: api
- id: wi/milwaukee/hillside-family-health-center
  name: Hillside Family Health Center
  categories:
  - community-health-center
  address:
    street: 1452 N 7th St
    city: Milwaukee
    state: wi
    zip: '53205'
  place: '5553000'
  geo:
    lat: 43.04968
    lng: -87.91928
  phone: 414-935-8000
  website: https://www.progressivechc.org
  external_ids:
    bphc: BPS-H80-002831
  sources:
  - hrsa/health-center-sites
  verified:
    'on': '2026-07-19'
    method: api
- id: wi/milwaukee/hmong-american-peace-academy
  name: Hmong American Peace Academy
  categories:
  - community-health-center
  address:
    street: 4601 N 84th St
    city: Milwaukee
    state: wi
    zip: '53225'
  place: '5553000'
  geo:
    lat: 43.10144
    lng: -88.01863
  phone: 414-800-1791
  website: https://www.ochc-milw.org
  external_ids:
    bphc: BPS-H80-037567
  sources:
  - hrsa/health-center-sites
  verified:
    'on': '2026-07-19'
    method: api
- id: wi/milwaukee/hopkins-lloyd-school
  name: Hopkins Lloyd School
  categories:
  - child-care
  address:
    street: 1503 W Hopkins St
    city: Milwaukee
    state: wi
    zip: '53206'
  place: '5553000'
  geo:
    lat: 43.07073
    lng: -87.93185
  phone: 414-267-0600
  sources:
  - acf/head-start-locations
  verified:
    'on': '2026-07-19'
    method: api
- id: wi/milwaukee/housing-authority-of-the-city-of-milwaukee
  name: Housing Authority Of The City Of Milwaukee
  categories:
  - housing-assistance
  address: {street: 809 N Broadway, city: Milwaukee, state: wi, zip: '53202'}
  description: Public housing and Housing Choice Voucher agency
  place: '5553000'
  geo: {lat: 43.0414, lng: -87.9084}
  phone: 414-286-5678
  sources:
  - hud/resource-locator
  verified: {'on': '2026-07-19', method: api}
- id: wi/milwaukee/isaac-coggs-heritage-health-ctr
  name: ISAAC COGGS HERITAGE HEALTH CTR
  categories:
  - community-health-center
  address:
    street: 8200 W Silver Spring Dr
    city: Milwaukee
    state: wi
    zip: '53218'
  place: '5553000'
  geo:
    lat: 43.12028
    lng: -88.0141
  phone: 414-760-3900
  website: https://www.mhsi.org
  external_ids:
    bphc: BPS-H80-004671
  sources:
  - hrsa/health-center-sites
  verified:
    'on': '2026-07-19'
    method: api
- id: wi/milwaukee/jewish-family-services
  name: Jewish Family Services
  categories:
  - su-treatment
  - mh-treatment
  address:
    street: 1300 North Jackson Street
    city: Milwaukee
    state: wi
    zip: '53202'
  place: '5553000'
  geo:
    lat: 43.04715
    lng: -87.90403
  phone: 414-225-1300
  website: https://jfsmilw.org
  sources:
  - samhsa/findtreatment
  verified:
    'on': '2026-07-19'
    method: api
- id: wi/milwaukee/jo-s-early-learning-academy
  name: Jo's Early Learning Academy
  categories:
  - child-care
  address:
    street: 3027 W Greenfield Ave
    city: Milwaukee
    state: wi
    zip: '53215'
  place: '5553000'
  geo:
    lat: 43.01666
    lng: -87.95239
  phone: 414-384-7825
  sources:
  - acf/head-start-locations
  verified:
    'on': '2026-07-19'
    method: api
- id: wi/milwaukee/kagel
  name: Kagel
  categories:
  - child-care
  address:
    street: 1210 W Mineral St
    city: Milwaukee
    state: wi
    zip: '53204'
  place: '5553000'
  geo:
    lat: 43.02131
    lng: -87.92732
  phone: 414-902-7400
  sources:
  - acf/head-start-locations
  verified:
    'on': '2026-07-19'
    method: api
- id: wi/milwaukee/keefe-avenue-school
  name: Keefe Avenue School
  categories:
  - child-care
  address:
    street: 1618 W Keefe Ave
    city: Milwaukee
    state: wi
    zip: '53206'
  place: '5553000'
  geo:
    lat: 43.0823
    lng: -87.93148
  phone: 414-267-4800
  sources:
  - acf/head-start-locations
  verified:
    'on': '2026-07-19'
    method: api
- id: wi/milwaukee/kilbourn
  name: Kilbourn
  categories:
  - child-care
  address:
    street: 5354 N 68th St
    city: Milwaukee
    state: wi
    zip: '53218'
  place: '5553000'
  geo:
    lat: 43.11489
    lng: -87.99539
  phone: 414-393-4500
  sources:
  - acf/head-start-locations
  verified:
    'on': '2026-07-19'
    method: api
- id: wi/milwaukee/kluge
  name: Kluge
  categories:
  - child-care
  address:
    street: 5760 N 67th St
    city: Milwaukee
    state: wi
    zip: '53218'
  place: '5553000'
  geo:
    lat: 43.12258
    lng: -87.99374
  phone: 414-578-5000
  sources:
  - acf/head-start-locations
  verified:
    'on': '2026-07-19'
    method: api
- id: wi/milwaukee/la-causa-inc
  name: La Causa Inc
  categories:
  - su-treatment
  - mh-treatment
  address:
    street: 5235 North Ironwood Road
    city: Milwaukee
    state: wi
    zip: '53217'
  place: '5553000'
  geo:
    lat: 43.11241
    lng: -87.91994
  phone: 414-602-1622
  website: https://www.lacausa.org
  sources:
  - samhsa/findtreatment
  verified:
    'on': '2026-07-19'
    method: api
- id: wi/milwaukee/la-causa-inc-2
  name: La Causa, Inc
  categories:
  - child-care
  address:
    street: 809 W Greenfield Ave
    city: Milwaukee
    state: wi
    zip: '53204'
  place: '5553000'
  geo:
    lat: 43.01669
    lng: -87.92154
  phone: 414-562-2929
  sources:
  - acf/head-start-locations
  verified:
    'on': '2026-07-19'
    method: api
- id: wi/milwaukee/lafollette-school
  name: LaFollette School
  categories:
  - child-care
  address:
    street: 3239 N 9th St
    city: Milwaukee
    state: wi
    zip: '53206'
  place: '5553000'
  geo:
    lat: 43.07728
    lng: -87.9231
  phone: 414-267-5200
  sources:
  - acf/head-start-locations
  verified:
    'on': '2026-07-19'
    method: api
- id: wi/milwaukee/lincoln-avenue
  name: Lincoln Avenue
  categories:
  - child-care
  address:
    street: 1817 W Lincoln Ave
    city: Milwaukee
    state: wi
    zip: '53215'
  place: '5553000'
  geo:
    lat: 43.00207
    lng: -87.93607
  phone: 414-902-9700
  sources:
  - acf/head-start-locations
  verified:
    'on': '2026-07-19'
    method: api
- id: wi/milwaukee/lisbon-avenue-health-center
  name: LISBON AVENUE HEALTH CENTER
  categories:
  - community-health-center
  address:
    street: 3522 W Lisbon Ave
    city: Milwaukee
    state: wi
    zip: '53208'
  place: '5553000'
  geo:
    lat: 43.05493
    lng: -87.95808
  phone: 414-935-8000
  website: https://www.progressivechc.org
  external_ids:
    bphc: BPS-H80-004235
  sources:
  - hrsa/health-center-sites
  verified:
    'on': '2026-07-19'
    method: api
- id: wi/milwaukee/longfellow
  name: Longfellow
  categories:
  - child-care
  address:
    street: 1021 S 21st St
    city: Milwaukee
    state: wi
    zip: '53204'
  place: '5553000'
  geo:
    lat: 43.01967
    lng: -87.94016
  phone: 414-902-9800
  sources:
  - acf/head-start-locations
  verified:
    'on': '2026-07-19'
    method: api
- id: wi/milwaukee/lowell-elementary
  name: Lowell Elementary
  categories:
  - child-care
  address:
    street: 4360 S 20th St
    city: Milwaukee
    state: wi
    zip: '53221'
  place: '5553000'
  geo:
    lat: 42.96437
    lng: -87.93731
  phone: 414-304-6600
  sources:
  - acf/head-start-locations
  verified:
    'on': '2026-07-19'
    method: api
- id: wi/milwaukee/lutheran-counseling-and-family-servs
  name: Lutheran Counseling and Family Servs
  categories:
  - su-treatment
  - mh-treatment
  address:
    street: 3800 North Mayfair Road
    city: Milwaukee
    state: wi
    zip: '53222'
  place: '5553000'
  geo:
    lat: 43.08817
    lng: -88.04729
  phone: 414-536-8333
  website: https://www.lcfswi.org
  sources:
  - samhsa/findtreatment
  verified:
    'on': '2026-07-19'
    method: api
- id: wi/milwaukee/malaika-early-learning-center
  name: Malaika Early Learning Center
  categories:
  - child-care
  address:
    street: 125 W Auer Ave
    city: Milwaukee
    state: wi
    zip: '53212'
  place: '5553000'
  geo:
    lat: 43.07613
    lng: -87.91148
  phone: 414-562-2929
  sources:
  - acf/head-start-locations
  verified:
    'on': '2026-07-19'
    method: api
- id: wi/milwaukee/manitoba
  name: Manitoba
  categories:
  - child-care
  address:
    street: 4040 W Forest Home Ave
    city: Milwaukee
    state: wi
    zip: '53215'
  place: '5553000'
  geo:
    lat: 42.99153
    lng: -87.96587
  phone: 414-912-8600
  sources:
  - acf/head-start-locations
  verified:
    'on': '2026-07-19'
    method: api
- id: wi/milwaukee/maple-tree
  name: Maple Tree
  categories:
  - child-care
  address:
    street: 6644 N 107th St
    city: Milwaukee
    state: wi
    zip: '53224'
  place: '5553000'
  geo:
    lat: 43.13879
    lng: -88.04287
  phone: 414-578-5100
  sources:
  - acf/head-start-locations
  verified:
    'on': '2026-07-19'
    method: api
- id: wi/milwaukee/marvin-pratt
  name: Marvin Pratt
  categories:
  - child-care
  address:
    street: 5131 N Green Bay Ave
    city: Milwaukee
    state: wi
    zip: '53209'
  place: '5553000'
  geo:
    lat: 43.1107
    lng: -87.93333
  phone: 414-247-7300
  sources:
  - acf/head-start-locations
  verified:
    'on': '2026-07-19'
    method: api
- id: wi/milwaukee/matt-talbot-recovery-center-mens-residential
  name: Matt Talbot Recovery Center Mens Residential
  categories:
  - su-treatment
  address:
    street: 2613 West North Avenue
    city: Milwaukee
    state: wi
    zip: '53205'
  place: '5553000'
  geo:
    lat: 43.06042
    lng: -87.94678
  phone: 414-510-7668
  website: https://www.mtrcinc.com
  sources:
  - samhsa/findtreatment
  verified:
    'on': '2026-07-19'
    method: api
- id: wi/milwaukee/md-therapy
  name: MD Therapy
  categories:
  - su-treatment
  - mh-treatment
  address:
    street: 6815 West Capitol Drive
    city: Milwaukee
    state: wi
    zip: '53216'
  place: '5553000'
  geo:
    lat: 43.08963
    lng: -87.99767
  phone: 414-466-3204
  website: https://mdtherapybh.com
  sources:
  - samhsa/findtreatment
  verified:
    'on': '2026-07-19'
    method: api
- id: wi/milwaukee/meta-house-inc-meta-house-residential-program
  name: Meta House Inc Meta House Residential Program
  categories:
  - su-treatment
  address:
    street: P.O. Box 11564
    city: Milwaukee
    state: wi
    zip: '53211'
  place: '5553000'
  phone: 414-962-1200
  website: https://www.metahouse.org
  sources:
  - samhsa/findtreatment
  verified:
    'on': '2026-07-19'
    method: api
- id: wi/milwaukee/meta-house-inc-outpatient-program
  name: Meta House Inc Outpatient Program
  categories:
  - su-treatment
  - mh-treatment
  address:
    street: 2625 North Weil Street
    city: Milwaukee
    state: wi
    zip: '53212'
  place: '5553000'
  geo:
    lat: 43.06607
    lng: -87.89952
  phone: 414-962-1200
  website: https://www.metahouse.org
  sources:
  - samhsa/findtreatment
  verified:
    'on': '2026-07-19'
    method: api
- id: wi/milwaukee/metcalfe-school
  name: Metcalfe School
  categories:
  - child-care
  address:
    street: 3400 W North Ave
    city: Milwaukee
    state: wi
    zip: '53208'
  place: '5553000'
  geo:
    lat: 43.06077
    lng: -87.95635
  phone: 414-874-3600
  sources:
  - acf/head-start-locations
  verified:
    'on': '2026-07-19'
    method: api
- id: wi/milwaukee/milwaukee
  name: Milwaukee
  place: '5553000'
  geo:
    lat: 43.05875
    lng: -87.93609
  provisional: true
  sources:
  - mutualaidhub/firestore
  verified:
    'on': '2026-07-19'
    method: api
  categories:
  - community-fridge
- id: wi/milwaukee/milwaukee-academy-of-chinese-language-macl
  name: Milwaukee Academy of Chinese Language (MACL)
  categories:
  - child-care
  address:
    street: 2430 W Wisconsin Ave
    city: Milwaukee
    state: wi
    zip: '53233'
  place: '5553000'
  geo:
    lat: 43.04001
    lng: -87.94382
  phone: 414-934-4340
  sources:
  - acf/head-start-locations
  verified:
    'on': '2026-07-19'
    method: api
- id: wi/milwaukee/milwaukee-co-dhhs-housing-division
  name: Milwaukee Co Dhhs - Housing Division
  categories:
  - housing-assistance
  address: {street: 600 W Walnut St Ste 100, city: Milwaukee, state: wi, zip: '53212'}
  description: Housing Choice Voucher (Section 8) agency
  place: '5553000'
  geo: {lat: 43.0528, lng: -87.91936}
  phone: 414-289-6542
  sources:
  - hud/resource-locator
  verified: {'on': '2026-07-19', method: api}
- id: wi/milwaukee/milwaukee-health-services-inc
  name: MILWAUKEE HEALTH SERVICES, INC.
  categories:
  - community-health-center
  address:
    street: 2555 N Dr Martin Luther King Jr Dr
    city: Milwaukee
    state: wi
    zip: '53212'
  place: '5553000'
  geo:
    lat: 43.06546
    lng: -87.91441
  phone: 414-372-8080
  website: https://www.mhsi.org
  external_ids:
    bphc: BPS-H80-001430
  sources:
  - hrsa/health-center-sites
  verified:
    'on': '2026-07-19'
    method: api
- id: wi/milwaukee/milwaukee-health-services-inc-behavioral-health
  name: Milwaukee Health Services Inc Behavioral Health Services Center
  categories:
  - su-treatment
  - mh-treatment
  address:
    street: 8200 West Silver Spring Drive
    city: Milwaukee
    state: wi
    zip: '53218'
  place: '5553000'
  geo:
    lat: 43.12062
    lng: -88.01435
  phone: 414-760-3900
  website: https://www.mhsi.org
  sources:
  - samhsa/findtreatment
  verified:
    'on': '2026-07-19'
    method: api
- id: wi/milwaukee/milwaukee-mental-health-associates
  name: Milwaukee Mental Health Associates
  categories:
  - su-treatment
  - mh-treatment
  address:
    city: Milwaukee
    state: wi
    zip: '53216'
  place: '5553000'
  phone: 414-873-1960
  website: https://
  sources:
  - samhsa/findtreatment
  verified:
    'on': '2026-07-19'
    method: api
- id: wi/milwaukee/mitchell
  name: Mitchell
  categories:
  - child-care
  address:
    street: 1728 S 23rd St
    city: Milwaukee
    state: wi
    zip: '53204'
  place: '5553000'
  geo:
    lat: 43.01184
    lng: -87.94161
  phone: 414-902-8100
  sources:
  - acf/head-start-locations
  verified:
    'on': '2026-07-19'
    method: api
- id: wi/milwaukee/mlk-heritage-health-center-behavioral-health-ser
  name: MLK Heritage Health Center Behavioral Health Services Center
  categories:
  - su-treatment
  - mh-treatment
  address:
    street: 2555 North Martin Luther King Drive
    city: Milwaukee
    state: wi
    zip: '53212'
  place: '5553000'
  geo:
    lat: 43.06542
    lng: -87.9144
  phone: 414-372-8080
  website: https://www.mhsi.org
  sources:
  - samhsa/findtreatment
  verified:
    'on': '2026-07-19'
    method: api
- id: wi/milwaukee/multi-cultural-counseling-services-dba-renew-cou
  name: Multi Cultural Counseling Services DBA Renew Counseling Services
  categories:
  - su-treatment
  - mh-treatment
  address:
    street: 2500 West Layton Avenue
    city: Milwaukee
    state: wi
    zip: '53221'
  place: '5553000'
  geo:
    lat: 42.9599
    lng: -87.94572
  phone: 414-383-4455
  website: https://
  sources:
  - samhsa/findtreatment
  verified:
    'on': '2026-07-19'
    method: api
- id: wi/milwaukee/muslim-community-health-center-milwaukee
  name: Muslim Community & Health Center Milwaukee
  categories:
  - community-health-center
  address:
    street: 803 W Layton Ave
    city: Milwaukee
    state: wi
    zip: '53221'
  place: '5553000'
  geo:
    lat: 42.95689
    lng: -87.92235
  phone: 414-939-4411
  website: http://mchcwi.org/
  external_ids:
    bphc: BPS-LAL-035333
  sources:
  - hrsa/health-center-sites
  verified:
    'on': '2026-07-19'
    method: api
- id: wi/milwaukee/neighborhood-house
  name: Neighborhood House
  categories:
  - child-care
  address:
    street: 2819 W Richardson Pl
    city: Milwaukee
    state: wi
    zip: '53208'
  place: '5553000'
  geo:
    lat: 43.04249
    lng: -87.94958
  phone: 414-562-2929
  sources:
  - acf/head-start-locations
  verified:
    'on': '2026-07-19'
    method: api
- id: wi/milwaukee/next-door-29th-st
  name: Next Door-29th St.
  categories:
  - child-care
  address:
    street: 2545 N 29th St
    city: Milwaukee
    state: wi
    zip: '53210'
  place: '5553000'
  geo:
    lat: 43.0651
    lng: -87.95004
  phone: 414-562-2929
  sources:
  - acf/head-start-locations
  verified:
    'on': '2026-07-19'
    method: api
- id: wi/milwaukee/next-door-29th-street
  name: Next Door-29th Street
  categories:
  - child-care
  address:
    street: 2545 N 29th St
    city: Milwaukee
    state: wi
    zip: '53210'
  place: '5553000'
  geo:
    lat: 43.0651
    lng: -87.95004
  phone: 414-562-2929
  sources:
  - acf/head-start-locations
  verified:
    'on': '2026-07-19'
    method: api
- id: wi/milwaukee/next-door-capitol
  name: Next Door-Capitol
  categories:
  - child-care
  address:
    street: 5310 W Capitol Dr
    city: Milwaukee
    state: wi
    zip: '53216'
  place: '5553000'
  geo:
    lat: 43.09046
    lng: -87.98008
  phone: 414-562-2929
  sources:
  - acf/head-start-locations
  verified:
    'on': '2026-07-19'
    method: api
- id: wi/milwaukee/next-door-capitol-drive
  name: Next Door-Capitol Drive
  categories:
  - child-care
  address:
    street: 5310 W Capitol Dr
    city: Milwaukee
    state: wi
    zip: '53216'
  place: '5553000'
  geo:
    lat: 43.09085
    lng: -87.98004
  phone: 414-562-2929
  sources:
  - acf/head-start-locations
  verified:
    'on': '2026-07-19'
    method: api
- id: wi/milwaukee/next-door-malaika
  name: Next Door-Malaika
  categories:
  - child-care
  address:
    street: 125 W Auer Ave
    city: Milwaukee
    state: wi
    zip: '53212'
  place: '5553000'
  geo:
    lat: 43.07603
    lng: -87.91157
  phone: 414-562-2929
  sources:
  - acf/head-start-locations
  verified:
    'on': '2026-07-19'
    method: api
- id: wi/milwaukee/nystrom-and-associates
  name: Nystrom and Associates
  categories:
  - su-treatment
  - mh-treatment
  address:
    street: 4131 West Loomis Road
    city: Milwaukee
    state: wi
    zip: '53221'
  place: '5553000'
  geo:
    lat: 42.96371
    lng: -87.96589
  phone: 414-424-2445
  website: https://www.nystromcounseling.com
  sources:
  - samhsa/findtreatment
  verified:
    'on': '2026-07-19'
    method: api
- id: wi/milwaukee/o-w-holmes
  name: O. W. Holmes
  categories:
  - child-care
  address:
    street: 2463 N Buffum St
    city: Milwaukee
    state: wi
    zip: '53212'
  place: '5553000'
  geo:
    lat: 43.06339
    lng: -87.90728
  phone: 414-267-1300
  sources:
  - acf/head-start-locations
  verified:
    'on': '2026-07-19'
    method: api
- id: wi/milwaukee/outreach-community-health-centers-incorporated
  name: Outreach Community Health Centers, Incorporated
  categories:
  - community-health-center
  address:
    street: 711 W Capitol Dr
    city: Milwaukee
    state: wi
    zip: '53206'
  place: '5553000'
  geo:
    lat: 43.08908
    lng: -87.92008
  phone: 414-374-2400
  website: https://www.ochc-milw.org
  external_ids:
    bphc: BPS-H80-002469
  sources:
  - hrsa/health-center-sites
  verified:
    'on': '2026-07-19'
    method: api
- id: wi/milwaukee/penfield-children-s-center
  name: Penfield Children's Center
  categories:
  - child-care
  address:
    street: 833 N 26th St
    city: Milwaukee
    state: wi
    zip: '53233'
  place: '5553000'
  geo:
    lat: 43.04104
    lng: -87.94699
  sources:
  - acf/head-start-locations
  verified:
    'on': '2026-07-19'
    method: api
- id: wi/milwaukee/rawhide-inc-youth-and-family-counseling
  name: Rawhide Inc Youth and Family Counseling
  categories:
  - su-treatment
  - mh-treatment
  address:
    street: 143 East Lincoln Avenue
    city: Milwaukee
    state: wi
    zip: '53207'
  place: '5553000'
  geo:
    lat: 43.0019
    lng: -87.90974
  phone: 877-300-9101
  website: https://www.rawhide.org
  sources:
  - samhsa/findtreatment
  verified:
    'on': '2026-07-19'
    method: api
- id: wi/milwaukee/rawhide-inc-youth-and-family-counseling-2
  name: Rawhide Inc Youth and Family Counseling
  categories:
  - su-treatment
  - mh-treatment
  address:
    street: 5555 North Port Washington Road
    city: Milwaukee
    state: wi
    zip: '53217'
  place: '5553000'
  geo:
    lat: 43.11744
    lng: -87.91732
  phone: 877-300-9101
  website: https://www.rawhide.org
  sources:
  - samhsa/findtreatment
  verified:
    'on': '2026-07-19'
    method: api
- id: wi/milwaukee/reach-inc-comprehensive-menth-health-clinic
  name: Reach Inc Comprehensive Menth Health Clinic
  categories:
  - su-treatment
  - mh-treatment
  address:
    street: 4550 West Bradley Road
    city: Milwaukee
    state: wi
    zip: '53223'
  place: '5553000'
  geo:
    lat: 43.16345
    lng: -87.96889
  phone: 414-371-1600
  website: https://www.reachclinic.org
  sources:
  - samhsa/findtreatment
  verified:
    'on': '2026-07-19'
    method: api
- id: wi/milwaukee/rivers-shore-comprehensive-treatment-c-milwaukee
  name: Rivers Shore Comprehensive Treatment C Milwaukee Health Services System LLC
  categories:
  - su-treatment
  address:
    street: 3707 North Richards Street
    city: Milwaukee
    state: wi
    zip: '53212'
  place: '5553000'
  geo:
    lat: 43.08432
    lng: -87.9082
  phone: 414-967-7006
  website: https://www.ctcprograms.com/
  sources:
  - samhsa/findtreatment
  verified:
    'on': '2026-07-19'
    method: api
- id: wi/milwaukee/riverwest-formerly-known-as-pierce
  name: Riverwest (formerly known as Pierce)
  categories:
  - child-care
  address:
    street: 2765 N Fratney St
    city: Milwaukee
    state: wi
    zip: '53212'
  place: '5553000'
  geo:
    lat: 43.06891
    lng: -87.90188
  phone: 414-267-4400
  sources:
  - acf/head-start-locations
  verified:
    'on': '2026-07-19'
    method: api
- id: wi/milwaukee/rogers-behavioral-health-brown-deer
  name: Rogers Behavioral Health Brown Deer
  categories:
  - su-treatment
  - mh-treatment
  address:
    street: 4600 West Schroeder Drive
    city: Milwaukee
    state: wi
    zip: '53223'
  place: '5553000'
  geo:
    lat: 43.18714
    lng: -87.96767
  phone: 414-865-2500
  website: https://www.rogersbh.org
  sources:
  - samhsa/findtreatment
  verified:
    'on': '2026-07-19'
    method: api
- id: wi/milwaukee/rogers-behavioral-health-lincoln-outpatient-cent
  name: Rogers Behavioral Health Lincoln Outpatient Center
  categories:
  - su-treatment
  - mh-treatment
  address:
    street: 2448 South 102nd Street
    city: Milwaukee
    state: wi
    zip: '53227'
  place: '5553000'
  geo:
    lat: 42.99954
    lng: -88.04124
  phone: 414-539-3030
  website: https://www.rogersbh.org
  sources:
  - samhsa/findtreatment
  verified:
    'on': '2026-07-19'
    method: api
- id: wi/milwaukee/rogers-behavioral-health-outpatient-center
  name: Rogers Behavioral Health Outpatient Center
  categories:
  - su-treatment
  - mh-treatment
  address:
    street: 4555 West Schroeder Drive
    city: Milwaukee
    state: wi
    zip: '53223'
  place: '5553000'
  geo:
    lat: 43.1857
    lng: -87.96771
  phone: 414-355-9000
  website: https://www.rogersbh.org
  sources:
  - samhsa/findtreatment
  verified:
    'on': '2026-07-19'
    method: api
- id: wi/milwaukee/rogers-behavioral-health-west-allis
  name: Rogers Behavioral Health West Allis
  categories:
  - su-treatment
  - mh-treatment
  address:
    street: 11101 West Lincoln Avenue
    city: Milwaukee
    state: wi
    zip: '53227'
  place: '5553000'
  geo:
    lat: 43.00144
    lng: -88.05128
  phone: 414-327-3000
  website: https://www.rogersbh.org
  sources:
  - samhsa/findtreatment
  verified:
    'on': '2026-07-19'
    method: api
- id: wi/milwaukee/roots-counseling-services-llc
  name: Roots Counseling Services LLC
  categories:
  - su-treatment
  address:
    street: 4485 North Oakland Avenue
    city: Milwaukee
    state: wi
    zip: '53211'
  place: '5553000'
  geo:
    lat: 43.09798
    lng: -87.88767
  phone: 414-273-8484
  website: https://www.rootsrecovery.org
  sources:
  - samhsa/findtreatment
  verified:
    'on': '2026-07-19'
    method: api
- id: wi/milwaukee/salvation-army-clinic
  name: Salvation Army Clinic
  categories:
  - community-health-center
  address:
    street: 1730 N 7th St
    city: Milwaukee
    state: wi
    zip: '53205'
  place: '5553000'
  geo:
    lat: 43.05376
    lng: -87.91947
  phone: 414-765-6360
  website: http://usc.salvationarmy.org/usc/www_usc_greatermilwaukee.nsf/vw-sublinks/EF43865DCFE6BDBB86257900007F6AA8?openDocument
  external_ids:
    bphc: BPS-H80-003734
  sources:
  - hrsa/health-center-sites
  verified:
    'on': '2026-07-19'
    method: api
- id: wi/milwaukee/sherman-multicultural-arts
  name: Sherman Multicultural Arts
  categories:
  - child-care
  address:
    street: 5110 W Locust St
    city: Milwaukee
    state: wi
    zip: '53210'
  place: '5553000'
  geo:
    lat: 43.07255
    lng: -87.97799
  phone: 414-874-5800
  sources:
  - acf/head-start-locations
  verified:
    'on': '2026-07-19'
    method: api
- id: wi/milwaukee/siefert
  name: Siefert
  categories:
  - child-care
  address:
    street: 1547 N 14th St
    city: Milwaukee
    state: wi
    zip: '53205'
  place: '5553000'
  geo:
    lat: 43.05119
    lng: -87.93022
  phone: 414-935-1500
  sources:
  - acf/head-start-locations
  verified:
    'on': '2026-07-19'
    method: api
- id: wi/milwaukee/sixteenth-street-community-health-centers-20th-s
  name: Sixteenth Street Community Health Centers-20th Street
  categories:
  - community-health-center
  address:
    street: 2906 S 20th St
    city: Milwaukee
    state: wi
    zip: '53215'
  place: '5553000'
  geo:
    lat: 42.99212
    lng: -87.93768
  phone: 414-645-0221
  website: https://www.sschc.net
  external_ids:
    bphc: BPS-H80-004241
  sources:
  - hrsa/health-center-sites
  verified:
    'on': '2026-07-19'
    method: api
- id: wi/milwaukee/sixteenth-street-community-health-centers-adm-en
  name: Sixteenth Street Community Health Centers-Adm/Environmental Hlth/WIC
  categories:
  - community-health-center
  address:
    street: 1337 S Cesar E Chavez Dr
    city: Milwaukee
    state: wi
    zip: '53204'
  place: '5553000'
  geo:
    lat: 43.01726
    lng: -87.93355
  phone: 414-672-1315
  website: https://www.sschc.net
  external_ids:
    bphc: BPS-H80-002516
  sources:
  - hrsa/health-center-sites
  verified:
    'on': '2026-07-19'
    method: api
- id: wi/milwaukee/sixteenth-street-community-health-centers-august
  name: Sixteenth Street Community Health Centers- Augustine Prep Academy
  categories:
  - community-health-center
  address:
    street: 2607 S 5th St STE B
    city: Milwaukee
    state: wi
    zip: '53207'
  place: '5553000'
  geo:
    lat: 42.99738
    lng: -87.91704
  phone: 414-810-1380
  website: https://www.sschc.org
  external_ids:
    bphc: BPS-H80-021727
  sources:
  - hrsa/health-center-sites
  verified:
    'on': '2026-07-19'
    method: api
- id: wi/milwaukee/sixteenth-street-community-health-centers-bay-vi
  name: Sixteenth Street Community Health Centers - Bay View High School
  categories:
  - community-health-center
  address:
    street: 2751 S Lenox St
    city: Milwaukee
    state: wi
    zip: '53207'
  place: '5553000'
  geo:
    lat: 42.99465
    lng: -87.89908
  phone: 414-897-5178
  website: https://sschc.org/locations/
  external_ids:
    bphc: BPS-H80-033702
  sources:
  - hrsa/health-center-sites
  verified:
    'on': '2026-07-19'
    method: api
- id: wi/milwaukee/sixteenth-street-community-health-centers-carmen
  name: Sixteenth Street Community Health Centers - Carmen Schools-South High School
  categories:
  - community-health-center
  address:
    street: 1712 S 32nd St
    city: Milwaukee
    state: wi
    zip: '53215'
  place: '5553000'
  geo:
    lat: 43.01198
    lng: -87.95398
  phone: 414-897-5178
  website: https://sschc.org/locations/
  external_ids:
    bphc: BPS-H80-032685
  sources:
  - hrsa/health-center-sites
  verified:
    'on': '2026-07-19'
    method: api
- id: wi/milwaukee/sixteenth-street-community-health-centers-carmen-2
  name: Sixteenth Street Community Health Centers - Carmen Schools-South Middle School
  categories:
  - community-health-center
  address:
    street: 2433 S 15th St
    city: Milwaukee
    state: wi
    zip: '53215'
  place: '5553000'
  geo:
    lat: 43.00033
    lng: -87.93128
  phone: 414-897-5178
  website: https://sschc.org/locations/
  external_ids:
    bphc: BPS-H80-032681
  sources:
  - hrsa/health-center-sites
  verified:
    'on': '2026-07-19'
    method: api
- id: wi/milwaukee/sixteenth-street-community-health-centers-carmen-3
  name: Sixteenth Street Community Health Centers - Carmen Schools-Southeast High School
  categories:
  - community-health-center
  address:
    street: 2500 W Oklahoma Ave
    city: Milwaukee
    state: wi
    zip: '53215'
  place: '5553000'
  geo:
    lat: 42.98856
    lng: -87.9457
  phone: 414-897-5178
  website: https://sschc.org/locations/
  external_ids:
    bphc: BPS-H80-032675
  sources:
  - hrsa/health-center-sites
  verified:
    'on': '2026-07-19'
    method: api
- id: wi/milwaukee/sixteenth-street-community-health-centers-chavez
  name: Sixteenth Street Community Health Centers  -  Chavez West
  categories:
  - community-health-center
  address:
    street: 1023 S Cesar E Chavez Dr
    city: Milwaukee
    state: wi
    zip: '53204'
  place: '5553000'
  geo:
    lat: 43.02061
    lng: -87.93339
  phone: 414-672-1353
  website: https://www.sschc.org
  external_ids:
    bphc: BPS-H80-041245
  sources:
  - hrsa/health-center-sites
  verified:
    'on': '2026-07-19'
    method: api
- id: wi/milwaukee/sixteenth-street-community-health-centers-chavez-2
  name: Sixteenth Street Community Health Centers-Chavez
  categories:
  - community-health-center
  address:
    street: 1032 S Cesar E Chavez Dr
    city: Milwaukee
    state: wi
    zip: '53204'
  place: '5553000'
  geo:
    lat: 43.02047
    lng: -87.93257
  phone: 414-672-1353
  website: https://www.sschc.net
  external_ids:
    bphc: BPS-H80-001579
  sources:
  - hrsa/health-center-sites
  verified:
    'on': '2026-07-19'
    method: api
- id: wi/milwaukee/sixteenth-street-community-health-centers-cristo
  name: Sixteenth Street Community Health Centers - Cristo Rey High School
  categories:
  - community-health-center
  address:
    street: 1818 W National Ave
    city: Milwaukee
    state: wi
    zip: '53204'
  place: '5553000'
  geo:
    lat: 43.0238
    lng: -87.93609
  phone: 414-436-4600
  external_ids:
    bphc: BPS-H80-031472
  sources:
  - hrsa/health-center-sites
  verified:
    'on': '2026-07-19'
    method: api
- id: wi/milwaukee/sixteenth-street-community-health-centers-doerfl
  name: Sixteenth Street Community Health Centers - Doerfler School
  categories:
  - community-health-center
  address:
    street: '3014 W Scott St RM Suite # 8A'
    city: Milwaukee
    state: wi
    zip: '53215'
  place: '5553000'
  geo:
    lat: 43.01902
    lng: -87.95206
  phone: 414-902-9500
  external_ids:
    bphc: BPS-H80-027416
  sources:
  - hrsa/health-center-sites
  verified:
    'on': '2026-07-19'
    method: api
- id: wi/milwaukee/sixteenth-street-community-health-centers-forest
  name: Sixteenth Street Community Health Centers - Forest Home Avenue School
  categories:
  - community-health-center
  address:
    street: 1516 W Forest Home Ave
    city: Milwaukee
    state: wi
    zip: '53204'
  place: '5553000'
  geo:
    lat: 43.01081
    lng: -87.9315
  phone: 414-897-5178
  website: https://sschc.org/locations/
  external_ids:
    bphc: BPS-H80-032682
  sources:
  - hrsa/health-center-sites
  verified:
    'on': '2026-07-19'
    method: api
- id: wi/milwaukee/sixteenth-street-community-health-centers-hiv-pr
  name: Sixteenth Street Community Health Centers-HIV Prevention
  categories:
  - community-health-center
  address:
    street: 1243 S Cesar E Chavez Dr
    city: Milwaukee
    state: wi
    zip: '53204'
  place: '5553000'
  geo:
    lat: 43.01809
    lng: -87.93342
  phone: 414-897-5169
  website: https://sschc.org/locations/
  external_ids:
    bphc: BPS-H80-036223
  sources:
  - hrsa/health-center-sites
  verified:
    'on': '2026-07-19'
    method: api
- id: wi/milwaukee/sixteenth-street-community-health-centers-layton
  name: Sixteenth Street Community Health Centers-Layton
  categories:
  - community-health-center
  address:
    street: 4570 S 27th St
    city: Milwaukee
    state: wi
    zip: '53221'
  place: '5553000'
  geo:
    lat: 42.96186
    lng: -87.94702
  phone: 414-672-1353
  external_ids:
    bphc: BPS-H80-021953
  sources:
  - hrsa/health-center-sites
  verified:
    'on': '2026-07-19'
    method: api
- id: wi/milwaukee/sixteenth-street-community-health-centers-nation
  name: Sixteenth Street Community Health Centers - National
  categories:
  - community-health-center
  address:
    street: 1635 W National Ave
    city: Milwaukee
    state: wi
    zip: '53204'
  place: '5553000'
  geo:
    lat: 43.02264
    lng: -87.93382
  phone: 414-672-1353
  external_ids:
    bphc: BPS-H80-030202
  sources:
  - hrsa/health-center-sites
  verified:
    'on': '2026-07-19'
    method: api
- id: wi/milwaukee/sixteenth-street-community-health-centers-nativi
  name: Sixteenth Street Community Health Centers - Nativity Jesuit Academy
  categories:
  - community-health-center
  address:
    street: 1515 S 29th St
    city: Milwaukee
    state: wi
    zip: '53215'
  place: '5553000'
  geo:
    lat: 43.01559
    lng: -87.95108
  phone: 414-897-5178
  website: https://sschc.org/locations/
  external_ids:
    bphc: BPS-H80-032677
  sources:
  - hrsa/health-center-sites
  verified:
    'on': '2026-07-19'
    method: api
- id: wi/milwaukee/sixteenth-street-community-health-centers-south
  name: Sixteenth Street Community Health Centers - South Division High School
  categories:
  - community-health-center
  address:
    street: 1515 W Lapham Blvd
    city: Milwaukee
    state: wi
    zip: '53204'
  place: '5553000'
  geo:
    lat: 43.01344
    lng: -87.9306
  phone: 414-897-5178
  website: https://sschc.org/locations/
  external_ids:
    bphc: BPS-H80-034843
  sources:
  - hrsa/health-center-sites
  verified:
    'on': '2026-07-19'
    method: api
- id: wi/milwaukee/sixteenth-street-community-health-centers-st-ant
  name: Sixteenth Street Community Health Centers-St Anthony School Upper Elementary
  categories:
  - community-health-center
  address:
    street: 1727 S 9th St
    city: Milwaukee
    state: wi
    zip: '53204'
  place: '5553000'
  geo:
    lat: 43.01165
    lng: -87.92306
  phone: 414-384-1730
  website: https://sschc.org/locations/
  external_ids:
    bphc: BPS-H80-036162
  sources:
  - hrsa/health-center-sites
  verified:
    'on': '2026-07-19'
    method: api
- id: wi/milwaukee/sixteenth-street-community-health-centers-st-ant-2
  name: Sixteenth Street Community Health Centers-St Anthony School-High
  categories:
  - community-health-center
  address:
    street: 4807 S 2nd St
    city: Milwaukee
    state: wi
    zip: '53207'
  place: '5553000'
  geo:
    lat: 42.95559
    lng: -87.91336
  phone: 414-763-6352
  external_ids:
    bphc: BPS-H80-017011
  sources:
  - hrsa/health-center-sites
  verified:
    'on': '2026-07-19'
    method: api
- id: wi/milwaukee/sixteenth-street-community-health-centers-st-ant-3
  name: Sixteenth Street Community Health Centers-St Anthony School-K3
  categories:
  - community-health-center
  address:
    street: 1644 S 9th St
    city: Milwaukee
    state: wi
    zip: '53204'
  place: '5553000'
  geo:
    lat: 43.01323
    lng: -87.92202
  phone: 414-212-8199
  external_ids:
    bphc: BPS-H80-016956
  sources:
  - hrsa/health-center-sites
  verified:
    'on': '2026-07-19'
    method: api
- id: wi/milwaukee/sixteenth-street-community-health-centers-st-ant-4
  name: Sixteenth Street Community Health Centers-St Anthony School-Lower Elementary
  categories:
  - community-health-center
  address:
    street: 1669 S 5th St
    city: Milwaukee
    state: wi
    zip: '53204'
  place: '5553000'
  geo:
    lat: 43.01285
    lng: -87.9168
  phone: 414-384-1729
  external_ids:
    bphc: BPS-H80-016931
  sources:
  - hrsa/health-center-sites
  verified:
    'on': '2026-07-19'
    method: api
- id: wi/milwaukee/sixteenth-street-community-health-centers-st-ant-5
  name: Sixteenth Street Community Health Centers-St Anthony School-Middle
  categories:
  - community-health-center
  address:
    street: 4801 S 2nd St
    city: Milwaukee
    state: wi
    zip: '53207'
  place: '5553000'
  geo:
    lat: 42.95697
    lng: -87.9135
  phone: 414-897-5178
  website: https://sschc.org/locations/
  external_ids:
    bphc: BPS-H80-036063
  sources:
  - hrsa/health-center-sites
  verified:
    'on': '2026-07-19'
    method: api
- id: wi/milwaukee/sixteenth-street-community-health-centers-st-jos
  name: Sixteenth Street Community Health Centers - St. Joseph Academy
  categories:
  - community-health-center
  address:
    street: 1600 W Oklahoma Ave
    city: Milwaukee
    state: wi
    zip: '53215'
  place: '5553000'
  geo:
    lat: 42.98904
    lng: -87.93442
  phone: 414-672-1353
  external_ids:
    bphc: BPS-H80-038829
  sources:
  - hrsa/health-center-sites
  verified:
    'on': '2026-07-19'
    method: api
- id: wi/milwaukee/sixteenth-street-community-health-centers-ucc-se
  name: Sixteenth Street Community Health Centers-UCC Senior Center
  categories:
  - community-health-center
  address:
    street: 730 W Washington St
    city: Milwaukee
    state: wi
    zip: '53204'
  place: '5553000'
  geo:
    lat: 43.02062
    lng: -87.92101
  phone: 414-672-1353
  external_ids:
    bphc: BPS-H80-010972
  sources:
  - hrsa/health-center-sites
  verified:
    'on': '2026-07-19'
    method: api
- id: wi/milwaukee/sixteenth-street-community-health-centers-united
  name: Sixteenth Street Community Health Centers - United Community Center-Acosta Middle School
  categories:
  - community-health-center
  address:
    street: 1038 S 6th St
    city: Milwaukee
    state: wi
    zip: '53204'
  place: '5553000'
  geo:
    lat: 43.02044
    lng: -87.9182
  phone: 414-897-5178
  website: https://sschc.org/locations/
  external_ids:
    bphc: BPS-H80-032683
  sources:
  - hrsa/health-center-sites
  verified:
    'on': '2026-07-19'
    method: api
- id: wi/milwaukee/sixteenth-street-community-health-centers-united-2
  name: Sixteenth Street Community Health Centers - United Community Center-Bruce-Guadalupe Community
    School
  categories:
  - community-health-center
  address:
    street: 1028 S 9th St
    city: Milwaukee
    state: wi
    zip: '53204'
  place: '5553000'
  geo:
    lat: 43.02056
    lng: -87.92198
  phone: 414-897-5178
  website: https://sschc.org/locations/
  external_ids:
    bphc: BPS-H80-032684
  sources:
  - hrsa/health-center-sites
  verified:
    'on': '2026-07-19'
    method: api
- id: wi/milwaukee/sixteenth-street-community-health-centers-united-3
  name: Sixteenth Street Community Health Centers - United Community Center-Bruce-Guadalupe Middle School
  categories:
  - community-health-center
  address:
    street: 920 S 9th St
    city: Milwaukee
    state: wi
    zip: '53204'
  place: '5553000'
  geo:
    lat: 43.02174
    lng: -87.92245
  phone: 414-897-5178
  website: https://sschc.org/locations/
  external_ids:
    bphc: BPS-H80-032678
  sources:
  - hrsa/health-center-sites
  verified:
    'on': '2026-07-19'
    method: api
- id: wi/milwaukee/sixteenth-street-community-health-centers-united-4
  name: Sixteenth Street Community Health Centers - United Community Center-Early Learning Academy
  categories:
  - community-health-center
  address:
    street: 2130 W Becher St
    city: Milwaukee
    state: wi
    zip: '53215'
  place: '5553000'
  geo:
    lat: 43.00668
    lng: -87.94009
  phone: 414-645-7001
  website: https://sschc.org/locations/
  external_ids:
    bphc: BPS-H80-034031
  sources:
  - hrsa/health-center-sites
  verified:
    'on': '2026-07-19'
    method: api
- id: wi/milwaukee/st-joseph-academy
  name: St. Joseph Academy
  categories:
  - child-care
  address:
    street: 1600 W Oklahoma Ave
    city: Milwaukee
    state: wi
    zip: '53215'
  place: '5553000'
  geo:
    lat: 42.98834
    lng: -87.93379
  phone: 414-562-2929
  sources:
  - acf/head-start-locations
  verified:
    'on': '2026-07-19'
    method: api
- id: wi/milwaukee/strong-child-and-adolescent-day-day-treatment-pr
  name: STRONG Child and Adolescent Day Day Treatment Program
  categories:
  - su-treatment
  - mh-treatment
  address:
    street: 510 East Burleigh Street
    city: Milwaukee
    state: wi
    zip: '53212'
  place: '5553000'
  geo:
    lat: 43.07496
    lng: -87.90475
  phone: 262-293-9747
  website: https://christianfamilysolutions.org
  sources:
  - samhsa/findtreatment
  verified:
    'on': '2026-07-19'
    method: api
- id: wi/milwaukee/tender-care-chrisitan-child-care
  name: Tender Care Chrisitan Child Care
  categories:
  - child-care
  address:
    street: 5229 W Capitol Dr
    city: Milwaukee
    state: wi
    zip: '53216'
  place: '5553000'
  geo:
    lat: 43.08957
    lng: -87.97922
  phone: 414-447-8396
  sources:
  - acf/head-start-locations
  verified:
    'on': '2026-07-19'
    method: api
- id: wi/milwaukee/tendercare-christian-child-care-center
  name: TenderCare Christian Child Care Center
  categories:
  - child-care
  address:
    street: 5229 W Capitol Dr
    city: Milwaukee
    state: wi
    zip: '53216'
  place: '5553000'
  geo:
    lat: 43.08957
    lng: -87.97922
  phone: 414-447-8396
  sources:
  - acf/head-start-locations
  verified:
    'on': '2026-07-19'
    method: api
- id: wi/milwaukee/thurston-woods-campus
  name: Thurston Woods Campus
  categories:
  - child-care
  address:
    street: 5966 N 35th St
    city: Milwaukee
    state: wi
    zip: '53209'
  place: '5553000'
  geo:
    lat: 43.12602
    lng: -87.95608
  phone: 414-393-2800
  sources:
  - acf/head-start-locations
  verified:
    'on': '2026-07-19'
    method: api
- id: wi/milwaukee/ucc-burnham-campus-site-2
  name: UCC Burnham Campus Site 2
  categories:
  - child-care
  address:
    street: 1648 S 37th St
    city: Milwaukee
    state: wi
    zip: '53215'
  place: '5553000'
  geo:
    lat: 43.01307
    lng: -87.96003
  phone: 414-645-7001
  sources:
  - acf/head-start-locations
  verified:
    'on': '2026-07-19'
    method: api
- id: wi/milwaukee/united-community-center
  name: United Community Center
  categories:
  - su-treatment
  - mh-treatment
  address:
    street: 1028 South 9th Street
    city: Milwaukee
    state: wi
    zip: '53204'
  place: '5553000'
  phone: 414-643-8530
  website: https://www.unitedcc.org
  sources:
  - samhsa/findtreatment
  verified:
    'on': '2026-07-19'
    method: api
- id: wi/milwaukee/united-community-center-bruce-guadalupe-communit
  name: United Community Center Bruce Guadalupe Community Preschool
  categories:
  - child-care
  address:
    street: 1028 S 9th St
    city: Milwaukee
    state: wi
    zip: '53204'
  place: '5553000'
  geo:
    lat: 43.02065
    lng: -87.92207
  phone: 414-645-4869
  sources:
  - acf/head-start-locations
  verified:
    'on': '2026-07-19'
    method: api
- id: wi/milwaukee/united-community-center-guadalupe-south
  name: United Community Center Guadalupe South
  categories:
  - child-care
  address:
    street: 239 W Washington St
    city: Milwaukee
    state: wi
    zip: '53204'
  place: '5553000'
  geo:
    lat: 43.01985
    lng: -87.91375
  phone: 414-999-4457
  sources:
  - acf/head-start-locations
  verified:
    'on': '2026-07-19'
    method: api
- id: wi/milwaukee/united-community-center-ricardo-diaz-early-learn
  name: United Community Center Ricardo Diaz Early Learning Academy
  categories:
  - child-care
  address:
    street: 2130 W Becher St
    city: Milwaukee
    state: wi
    zip: '53215'
  place: '5553000'
  geo:
    lat: 43.00686
    lng: -87.94059
  phone: 414-645-7001
  sources:
  - acf/head-start-locations
  verified:
    'on': '2026-07-19'
    method: api
- id: wi/milwaukee/vieau
  name: Vieau
  categories:
  - child-care
  address:
    street: 823 S 4th St
    city: Milwaukee
    state: wi
    zip: '53204'
  place: '5553000'
  geo:
    lat: 43.02285
    lng: -87.9159
  phone: 414-902-6100
  sources:
  - acf/head-start-locations
  verified:
    'on': '2026-07-19'
    method: api
- id: wi/milwaukee/vin-baker-recovery
  name: Vin Baker Recovery
  categories:
  - su-treatment
  - mh-treatment
  address:
    street: 4757 North 76th Street
    city: Milwaukee
    state: wi
    zip: '53218'
  place: '5553000'
  geo:
    lat: 43.10439
    lng: -88.00718
  phone: 414-539-6999
  website: https://www.vinbakerrecovery.com
  sources:
  - samhsa/findtreatment
  verified:
    'on': '2026-07-19'
    method: api
- id: wi/milwaukee/vivent-health
  name: Vivent Health
  categories:
  - su-treatment
  - mh-treatment
  address:
    street: 1311 North 6th Street
    city: Milwaukee
    state: wi
    zip: '53212'
  place: '5553000'
  geo:
    lat: 43.04743
    lng: -87.91923
  phone: 414-273-1991
  website: https://www.viventhealth.org
  sources:
  - samhsa/findtreatment
  verified:
    'on': '2026-07-19'
    method: api
- id: wi/milwaukee/wellpoint-care-network
  name: Wellpoint Care Network
  categories:
  - su-treatment
  - mh-treatment
  address:
    street: 8901 West Capitol Drive
    city: Milwaukee
    state: wi
    zip: '53222'
  place: '5553000'
  geo:
    lat: 43.08875
    lng: -88.02421
  phone: 414-465-1376
  website: https://www.wellpointcare.org
  sources:
  - samhsa/findtreatment
  verified:
    'on': '2026-07-19'
    method: api
- id: wi/milwaukee/wellpoint-care-network-2
  name: WellPoint Care Network
  categories:
  - community-health-center
  address:
    street: 8901 W Capitol Dr
    city: Milwaukee
    state: wi
    zip: '53222'
  place: '5553000'
  geo:
    lat: 43.08874
    lng: -88.02385
  phone: 414-465-5770
  website: https://wellpointcare.org/
  external_ids:
    bphc: BPS-H80-041217
  sources:
  - hrsa/health-center-sites
  verified:
    'on': '2026-07-19'
    method: api
- id: wi/milwaukee/west-grove-clinic-sc
  name: West Grove Clinic SC
  categories:
  - su-treatment
  - mh-treatment
  address:
    street: 10012 West Capitol Drive
    city: Milwaukee
    state: wi
    zip: '53222'
  place: '5553000'
  geo:
    lat: 43.09
    lng: -88.03854
  phone: 414-810-4844
  website: https://www.westgroveclinic.com
  sources:
  - samhsa/findtreatment
  verified:
    'on': '2026-07-19'
    method: api
- id: wi/milwaukee/westside-academy-i
  name: Westside Academy I
  categories:
  - child-care
  address:
    street: 1945 N 31st St
    city: Milwaukee
    state: wi
    zip: '53208'
  place: '5553000'
  geo:
    lat: 43.05578
    lng: -87.95329
  phone: 414-934-5000
  sources:
  - acf/head-start-locations
  verified:
    'on': '2026-07-19'
    method: api
- id: wi/milwaukee/wisconsin-community-services-inc-dba-unlimited-p
  name: Wisconsin Community Services Inc DBA Unlimited Potential
  categories:
  - su-treatment
  - mh-treatment
  address:
    street: 3732 West Wisconsin Avenue
    city: Milwaukee
    state: wi
    zip: '53208'
  place: '5553000'
  geo:
    lat: 43.03909
    lng: -87.96072
  phone: 414-290-0404
  website: https://www.wiscs.org/
  sources:
  - samhsa/findtreatment
  verified:
    'on': '2026-07-19'
    method: api
- id: wi/milwaukee/word-of-hope-ministries-atoda-program
  name: Word of Hope Ministries ATODA Program
  categories:
  - su-treatment
  - mh-treatment
  address:
    street: 2677 North 40th Street
    city: Milwaukee
    state: wi
    zip: '53210'
  place: '5553000'
  geo:
    lat: 43.06761
    lng: -87.96366
  phone: 414-447-1965 x222
  website: https://www.wohminc.org
  sources:
  - samhsa/findtreatment
  verified:
    'on': '2026-07-19'
    method: api
- id: wi/milwaukee/ymca-northside
  name: YMCA Northside
  categories:
  - child-care
  address:
    street: 1350 W North Ave
    city: Milwaukee
    state: wi
    zip: '53205'
  place: '5553000'
  geo:
    lat: 43.06073
    lng: -87.92941
  phone: 414-562-2929
  sources:
  - acf/head-start-locations
  verified:
    'on': '2026-07-19'
    method: api
