- id: wi/milwaukee/12th-street-urgent-care
  name: 12th Street Urgent Care
  categories:
  - community-health-center
  address:
    street: 945 N 12th St
    city: Milwaukee
    state: wi
    zip: '53233'
  place: '5553000'
  geo:
    lat: 43.04256
    lng: -87.92739
  phone: 414-935-8000
  website: https://www.progressivechc.org
  external_ids:
    bphc: BPS-H80-017614
  sources:
  - hrsa/health-center-sites
  verified:
    'on': '2026-07-19'
    method: api
- id: wi/milwaukee/access-recovery-mental-hlth-services
  name: Access Recovery Mental Hlth Services
  categories:
  - su-treatment
  - mh-treatment
  address:
    street: 2727 West Cleveland Avenue
    city: Milwaukee
    state: wi
    zip: '53215'
  place: '5553000'
  geo:
    lat: 42.99567
    lng: -87.94878
  phone: 414-269-8356
  website: https://www.armhswi.com
  sources:
  - samhsa/findtreatment
  verified:
    'on': '2026-07-19'
    method: api
- id: wi/milwaukee/acelero-learning-north-ave
  name: Acelero Learning North Ave
  categories:
  - child-care
  address:
    street: 4801 W North Ave
    city: Milwaukee
    state: wi
    zip: '53208'
  place: '5553000'
  geo:
    lat: 43.06039
    lng: -87.97378
  phone: 414-873-8940
  sources:
  - acf/head-start-locations
  verified:
    'on': '2026-07-19'
    method: api
- id: wi/milwaukee/acelero-learning-penfield
  name: Acelero Learning Penfield
  categories:
  - child-care
  address:
    street: 833 N 26th St
    city: Milwaukee
    state: wi
    zip: '53233'
  place: '5553000'
  geo:
    lat: 43.04113
    lng: -87.94734
  phone: 212-289-2402
  sources:
  - acf/head-start-locations
  verified:
    'on': '2026-07-19'
    method: api
- id: wi/milwaukee/acelero-learning-teutonia
  name: Acelero Learning Teutonia
  categories:
  - child-care
  address:
    street: 5719 N Teutonia Ave
    city: Milwaukee
    state: wi
    zip: '53209'
  place: '5553000'
  geo:
    lat: 43.12143
    lng: -87.95149
  phone: 414-226-5594
  sources:
  - acf/head-start-locations
  verified:
    'on': '2026-07-19'
    method: api
- id: wi/milwaukee/acelero-learning-walton
  name: Acelero Learning Walton
  categories:
  - child-care
  address:
    street: 7833 W Capitol Dr
    city: Milwaukee
    state: wi
    zip: '53222'
  place: '5553000'
  geo:
    lat: 43.08956
    lng: -88.01013
  phone: 414-616-5000
  sources:
  - acf/head-start-locations
  verified:
    'on': '2026-07-19'
    method: api
- id: wi/milwaukee/acelero-learning-woodland
  name: Acelero Learning Woodland
  categories:
  - child-care
  address:
    street: 3738 S 60th St
    city: Milwaukee
    state: wi
    zip: '53220'
  place: '5553000'
  geo:
    lat: 42.97673
    lng: -87.98736
  sources:
  - acf/head-start-locations
  verified:
    'on': '2026-07-19'
    method: api
- id: wi/milwaukee/addiction-services-and-pharmacotherapy-west-alli
  name: Addiction Services and Pharmacotherapy West Allis
  categories:
  - su-treatment
  address:
    street: 11390 West Theodore Trecker Way
    city: Milwaukee
    state: wi
    zip: '53214'
  place: '5553000'
  geo:
    lat: 43.02447
    lng: -88.05465
  phone: 414-928-1401
  website: https://www.clinicofhope.com
  sources:
  - samhsa/findtreatment
  verified:
    'on': '2026-07-19'
    method: api
- id: wi/milwaukee/alba
  name: Alba
  categories:
  - meal-program
  address: {street: 1712 S. 32Nd St., city: Milwaukee, state: wi, zip: '53215'}
  description: Free summer meals for kids and teens (2026 season) — sponsored by Milwaukee Public School
    District.
  place: '5553000'
  geo: {lat: 43.01197, lng: -87.95398}
  phone: (414) 902-7519
  external_ids: {usda_master: Cycle 08_WI_SFSP_0692}
  sources:
  - usda/summer-meal-sites
  verified: {'on': '2026-07-19', method: api}
- id: wi/milwaukee/alba-academy-of-language-and-fine-arts
  name: ALBA (Academy of Language and Fine Arts)
  categories:
  - child-care
  address:
    street: 1712 S 32nd St
    city: Milwaukee
    state: wi
    zip: '53215'
  place: '5553000'
  geo:
    lat: 43.01203
    lng: -87.95359
  phone: 414-902-7526
  sources:
  - acf/head-start-locations
  verified:
    'on': '2026-07-19'
    method: api
- id: wi/milwaukee/allen-field-school
  name: Allen Field School
  categories:
  - child-care
  address:
    street: 730 W Lapham Blvd
    city: Milwaukee
    state: wi
    zip: '53204'
  place: '5553000'
  geo:
    lat: 43.01471
    lng: -87.92069
  phone: 414-902-9200
  sources:
  - acf/head-start-locations
  verified:
    'on': '2026-07-19'
    method: api
- id: wi/milwaukee/allen-field-school-2
  name: Allen-Field School
  categories:
  - meal-program
  address: {street: 730 W Lapham Blvd, city: Milwaukee, state: wi, zip: '53204'}
  description: Free summer meals for kids and teens (2026 season) — sponsored by Milwaukee Center for
    Independence.
  place: '5553000'
  geo: {lat: 43.01488, lng: -87.92025}
  phone: (414) 902-9341
  external_ids: {usda_master: Cycle 05_WI_SFSP_0600}
  sources:
  - usda/summer-meal-sites
  verified: {'on': '2026-07-19', method: api}
- id: wi/milwaukee/alternatives-in-psychological-consultation-sc
  name: Alternatives in Psychological Consultation SC
  categories:
  - su-treatment
  - mh-treatment
  address:
    street: 6737 West Washington Street
    city: Milwaukee
    state: wi
    zip: '53214'
  place: '5553000'
  geo:
    lat: 43.02101
    lng: -87.99686
  phone: 414-358-7144
  website: https://www.altlig.com
  sources:
  - samhsa/findtreatment
  verified:
    'on': '2026-07-19'
    method: api
- id: wi/milwaukee/american-behavioral-clinics-bluemound-clinic
  name: American Behavioral Clinics Bluemound Clinic
  categories:
  - su-treatment
  - mh-treatment
  address:
    street: 10424 West Bluemound Road
    city: Milwaukee
    state: wi
    zip: '53226'
  place: '5553000'
  geo:
    lat: 43.03509
    lng: -88.04342
  phone: 414-877-4570
  website: https://www.americanbehavioralclinics.com
  sources:
  - samhsa/findtreatment
  verified:
    'on': '2026-07-19'
    method: api
- id: wi/milwaukee/american-behavioral-clinics-layton-clinic
  name: American Behavioral Clinics Layton Clinic
  categories:
  - su-treatment
  - mh-treatment
  address:
    street: 7330 West Layton Avenue
    city: Milwaukee
    state: wi
    zip: '53220'
  place: '5553000'
  geo:
    lat: 42.95989
    lng: -88.0056
  phone: 414-877-4570
  website: https://www.americanbehavioralclinics.com
  sources:
  - samhsa/findtreatment
  verified:
    'on': '2026-07-19'
    method: api
- id: wi/milwaukee/ascension-st-ben-s-clinic
  name: Ascension St. Ben's Clinic
  categories:
  - community-health-center
  address:
    street: 1004 N 10th St, Ste 100
    city: Milwaukee
    state: wi
    zip: '53233'
  place: '5553000'
  geo:
    lat: 43.04379
    lng: -87.92435
  phone: 414-527-8191
  website: https://healthcare.ascension.org/Locations/Wisconsin/WIMIL/Milwaukee-Ascension-St-Bens-Clinic
  external_ids:
    bphc: BPS-H80-030525
  sources:
  - hrsa/health-center-sites
  verified:
    'on': '2026-07-19'
    method: api
- id: wi/milwaukee/audubon-school
  name: Audubon School
  categories:
  - meal-program
  address: {street: 3300 S 39Th St, city: Milwaukee, state: wi, zip: '53215'}
  description: Free summer meals for kids and teens (2026 season) — sponsored by Milwaukee Center for
    Independence.
  place: '5553000'
  geo: {lat: 42.98414, lng: -87.96302}
  phone: (414) 902-7938
  external_ids: {usda_master: Cycle 05_WI_SFSP_0601}
  sources:
  - usda/summer-meal-sites
  verified: {'on': '2026-07-19', method: api}
- id: wi/milwaukee/auer-avenue-school
  name: Auer Avenue School
  categories:
  - child-care
  address:
    street: 2319 W Auer Ave
    city: Milwaukee
    state: wi
    zip: '53206'
  place: '5553000'
  geo:
    lat: 43.07631
    lng: -87.94057
  phone: 414-875-4500
  sources:
  - acf/head-start-locations
  verified:
    'on': '2026-07-19'
    method: api
- id: wi/milwaukee/auer-avenue-school-2
  name: Auer Avenue School
  categories:
  - meal-program
  address: {street: 2319 W Auer Ave, city: Milwaukee, state: wi, zip: '53206'}
  description: Free summer meals for kids and teens (2026 season) — sponsored by Milwaukee Center for
    Independence.
  place: '5553000'
  geo: {lat: 43.07691, lng: -87.94175}
  phone: (414) 334-4726
  external_ids: {usda_master: Cycle 05_WI_SFSP_0602}
  sources:
  - usda/summer-meal-sites
  verified: {'on': '2026-07-19', method: api}
- id: wi/milwaukee/bayview-high-school
  name: Bayview High School
  categories:
  - meal-program
  address: {street: 2751 S Lenox St, city: Milwaukee, state: wi, zip: '53207'}
  description: Free summer meals for kids and teens (2026 season) — sponsored by Milwaukee Center for
    Independence.
  place: '5553000'
  geo: {lat: 42.99463, lng: -87.89807}
  phone: (414) 294-2572
  external_ids: {usda_master: Cycle 05_WI_SFSP_0603}
  sources:
  - usda/summer-meal-sites
  verified: {'on': '2026-07-19', method: api}
- id: wi/milwaukee/be-the-change-health-and-wellness
  name: Be the Change Health and Wellness
  categories:
  - su-treatment
  address:
    street: 240 North Milwaukee Street
    city: Milwaukee
    state: wi
    zip: '53202'
  place: '5553000'
  geo:
    lat: 43.03365
    lng: -87.90557
  phone: 262-646-8288
  website: https://www.BetheChangeHealthWellness.com
  sources:
  - samhsa/findtreatment
  verified:
    'on': '2026-07-19'
    method: api
- id: wi/milwaukee/benedict-center-womens-harm-reduction-program
  name: Benedict Center Womens Harm Reduction Program
  categories:
  - su-treatment
  - mh-treatment
  address:
    street: 1849 North Martin Luther King Drive
    city: Milwaukee
    state: wi
    zip: '53212'
  place: '5553000'
  geo:
    lat: 43.05493
    lng: -87.91452
  phone: 414-347-1774 x202
  website: https://www.benedictcenter.org
  sources:
  - samhsa/findtreatment
  verified:
    'on': '2026-07-19'
    method: api
- id: wi/milwaukee/bethune
  name: Bethune
  categories:
  - child-care
  address:
    street: 1535 N 35th St
    city: Milwaukee
    state: wi
    zip: '53208'
  place: '5553000'
  geo:
    lat: 43.05096
    lng: -87.95783
  phone: 414-934-4600
  sources:
  - acf/head-start-locations
  verified:
    'on': '2026-07-19'
    method: api
- id: wi/milwaukee/bethune-academy
  name: Bethune Academy
  categories:
  - meal-program
  address: {street: 1535 N 35Th St, city: Milwaukee, state: wi, zip: '53208'}
  description: Free summer meals for kids and teens (2026 season) — sponsored by Milwaukee Center for
    Independence.
  place: '5553000'
  geo: {lat: 43.05085, lng: -87.95766}
  phone: (414) 934-4642
  external_ids: {usda_master: Cycle 05_WI_SFSP_0604}
  sources:
  - usda/summer-meal-sites
  verified: {'on': '2026-07-19', method: api}
- id: wi/milwaukee/browning-school
  name: Browning School
  categories:
  - child-care
  address:
    street: 5440 N 64th St
    city: Milwaukee
    state: wi
    zip: '53218'
  place: '5553000'
  geo:
    lat: 43.11756
    lng: -87.99058
  phone: 414-393-5200
  sources:
  - acf/head-start-locations
  verified:
    'on': '2026-07-19'
    method: api
- id: wi/milwaukee/browning-school-2
  name: Browning School
  categories:
  - meal-program
  address: {street: 5440 N 64Th, city: Milwaukee, state: wi, zip: '53218'}
  description: Free summer meals for kids and teens (2026 season) — sponsored by Milwaukee Center for
    Independence.
  place: '5553000'
  geo: {lat: 43.11758, lng: -87.99104}
  phone: (414) 463-7950
  external_ids: {usda_master: Cycle 05_WI_SFSP_0605}
  sources:
  - usda/summer-meal-sites
  verified: {'on': '2026-07-19', method: api}
- id: wi/milwaukee/bruce-elementary-school
  name: Bruce Elementary School
  categories:
  - child-care
  address:
    street: 6453 N 89th St
    city: Milwaukee
    state: wi
    zip: '53224'
  place: '5553000'
  geo:
    lat: 43.13558
    lng: -88.02369
  phone: 414-393-2100
  sources:
  - acf/head-start-locations
  verified:
    'on': '2026-07-19'
    method: api
- id: wi/milwaukee/burnham-playfield
  name: Burnham Playfield
  categories:
  - meal-program
  address: {street: 1755 S. 32Nd St., city: Milwaukee, state: wi, zip: '53215'}
  description: Free summer meals for kids and teens (2026 season) — sponsored by Milwaukee Center for
    Independence.
  place: '5553000'
  geo: {lat: 43.0112, lng: -87.95407}
  phone: (414) 475-8538
  external_ids: {usda_master: Cycle 05_WI_SFSP_0346}
  sources:
  - usda/summer-meal-sites
  verified: {'on': '2026-07-19', method: api}
- id: wi/milwaukee/c-h-mason-health-clinic
  name: C. H. Mason Health Clinic
  categories:
  - community-health-center
  address:
    street: 4858 N Mother Daniels Way
    city: Milwaukee
    state: wi
    zip: '53209'
  place: '5553000'
  geo:
    lat: 43.10607
    lng: -87.95649
  phone: 414-249-4613
  website: https://www.ochc-milw.org
  external_ids:
    bphc: BPS-H80-039794
  sources:
  - hrsa/health-center-sites
  verified:
    'on': '2026-07-19'
    method: api
- id: wi/milwaukee/carmen-hi-south-campus
  name: Carmen Hi South Campus
  categories:
  - meal-program
  address: {street: 1712 S. 32Nd St., city: Milwaukee, state: wi, zip: '53215'}
  description: Free summer meals for kids and teens (2026 season) — sponsored by Milwaukee Public School
    District.
  place: '5553000'
  geo: {lat: 43.01197, lng: -87.95398}
  phone: (414) 902-7519
  external_ids: {usda_master: Cycle 08_WI_SFSP_0309}
  sources:
  - usda/summer-meal-sites
  verified: {'on': '2026-07-19', method: api}
- id: wi/milwaukee/carmen-mid-hi-northwest-campus
  name: Carmen Mid/Hi Northwest Campus
  categories:
  - meal-program
  address: {street: 5496 N. 72Nd St., city: Milwaukee, state: wi, zip: '53218'}
  description: Free summer meals for kids and teens (2026 season) — sponsored by Milwaukee Public School
    District.
  place: '5553000'
  geo: {lat: 43.11854, lng: -88.00102}
  phone: (414) 393-3019
  external_ids: {usda_master: Cycle 08_WI_SFSP_0287}
  sources:
  - usda/summer-meal-sites
  verified: {'on': '2026-07-19', method: api}
- id: wi/milwaukee/carmen-playfield
  name: Carmen Playfield
  categories:
  - meal-program
  address: {street: 7320 W Carmen, city: Milwaukee, state: wi, zip: '53218'}
  description: Free summer meals for kids and teens (2026 season) — sponsored by Milwaukee Center for
    Independence.
  place: '5553000'
  geo: {lat: 43.12325, lng: -88.00248}
  phone: (414) 475-8775
  external_ids: {usda_master: Cycle 05_WI_SFSP_0379}
  sources:
  - usda/summer-meal-sites
  verified: {'on': '2026-07-19', method: api}
- id: wi/milwaukee/carmen-schools
  name: Carmen Schools
  categories:
  - community-health-center
  address:
    street: 5496 N 72nd St
    city: Milwaukee
    state: wi
    zip: '53218'
  place: '5553000'
  geo:
    lat: 43.11826
    lng: -88.00023
  phone: 414-837-4000
  website: https://www.ochc-milw.org
  external_ids:
    bphc: BPS-H80-035790
  sources:
  - hrsa/health-center-sites
  verified:
    'on': '2026-07-19'
    method: api
- id: wi/milwaukee/carson-academy
  name: Carson Academy
  categories:
  - child-care
  address:
    street: 4920 W Capitol Dr
    city: Milwaukee
    state: wi
    zip: '53216'
  place: '5553000'
  geo:
    lat: 43.09058
    lng: -87.97528
  phone: 414-393-4800
  sources:
  - acf/head-start-locations
  verified:
    'on': '2026-07-19'
    method: api
- id: wi/milwaukee/carson-academy-2
  name: Carson Academy
  categories:
  - meal-program
  address: {street: 4920 W Capitol Dr, city: Milwaukee, state: wi, zip: '53216'}
  description: Free summer meals for kids and teens (2026 season) — sponsored by Milwaukee Center for
    Independence.
  place: '5553000'
  geo: {lat: 43.08997, lng: -87.97529}
  phone: (414) 393-4820
  external_ids: {usda_master: Cycle 05_WI_SFSP_0606}
  sources:
  - usda/summer-meal-sites
  verified: {'on': '2026-07-19', method: api}
- id: wi/milwaukee/carver-academy
  name: Carver Academy
  categories:
  - meal-program
  address: {street: 1900 N 1St St, city: Milwaukee, state: wi, zip: '53212'}
  description: Free summer meals for kids and teens (2026 season) — sponsored by Milwaukee Center for
    Independence.
  place: '5553000'
  geo: {lat: 43.05584, lng: -87.91118}
  phone: (414) 267-0527
  external_ids: {usda_master: Cycle 05_WI_SFSP_0607}
  sources:
  - usda/summer-meal-sites
  verified: {'on': '2026-07-19', method: api}
- id: wi/milwaukee/carver-park
  name: Carver Park
  categories:
  - meal-program
  address: {street: 911 W. Brown St., city: Milwaukee, state: wi, zip: '53205'}
  description: Free summer meals for kids and teens (2026 season) — sponsored by The Salvation Army -
    Milwaukee.
  place: '5553000'
  geo: {lat: 43.0565, lng: -87.92324}
  phone: (414) 464-2940
  external_ids: {usda_master: Cycle 01_WI_SFSP_0458}
  sources:
  - usda/summer-meal-sites
  verified: {'on': '2026-07-19', method: api}
- id: wi/milwaukee/centers-for-independence-whole-health-clinical-g
  name: Centers for Independence Whole Health Clinical Group
  categories:
  - su-treatment
  - mh-treatment
  address:
    street: 2020 West Wells Street
    city: Milwaukee
    state: wi
    zip: '53233'
  place: '5553000'
  geo:
    lat: 43.04075
    lng: -87.93869
  phone: 414-476-9675
  website: https://www.cfihope.org/programs-services/behavioral-healt
  sources:
  - samhsa/findtreatment
  verified:
    'on': '2026-07-19'
    method: api
- id: wi/milwaukee/childrens-hospital-of-wisconsin-community-servic
  name: Childrens Hospital of Wisconsin Community Services
  categories:
  - mh-treatment
  address:
    street: 620 South 76th Street
    city: Milwaukee
    state: wi
    zip: '53214'
  place: '5553000'
  geo:
    lat: 43.02575
    lng: -88.00695
  phone: 414-292-4242
  website: https://childrenswi.org/
  sources:
  - samhsa/findtreatment
  verified:
    'on': '2026-07-19'
    method: api
- id: wi/milwaukee/childrens-wisconsin-psychiatry-and-behavioral-me
  name: Childrens Wisconsin Psychiatry and Behavioral Medicine
  categories:
  - mh-treatment
  address:
    street: 8915 West Connell Court
    city: Milwaukee
    state: wi
    zip: '53226'
  place: '5553000'
  geo:
    lat: 43.04247
    lng: -88.02411
  phone: 414-266-2932
  website: https://www.childrenswi.org
  sources:
  - samhsa/findtreatment
  verified:
    'on': '2026-07-19'
    method: api
- id: wi/milwaukee/christian-faith-academy
  name: Christian Faith Academy
  categories:
  - meal-program
  address: {street: 3965 N 15Th St, city: Milwaukee, state: wi, zip: '53206'}
  description: Free summer meals for kids and teens (2026 season) — sponsored by Milwaukee Center for
    Independence.
  place: '5553000'
  geo: {lat: 43.08904, lng: -87.9296}
  phone: (414) 234-7657
  external_ids: {usda_master: Cycle 05_WI_SFSP_0581}
  sources:
  - usda/summer-meal-sites
  verified: {'on': '2026-07-19', method: api}
- id: wi/milwaukee/citadel-corp-worship-and-community-cente
  name: Citadel Corp Worship And Community Cente
  categories:
  - meal-program
  address: {street: 4129 W Villard Ave, city: Milwaukee, state: wi, zip: '53209'}
  description: Free summer meals for kids and teens (2026 season) — sponsored by The Salvation Army -
    Milwaukee.
  place: '5553000'
  geo: {lat: 43.11194, lng: -87.96416}
  phone: (414) 463-3300
  external_ids: {usda_master: Cycle 01_WI_SFSP_0389}
  sources:
  - usda/summer-meal-sites
  verified: {'on': '2026-07-19', method: api}
- id: wi/milwaukee/clement-avenue-el
  name: Clement Avenue El
  categories:
  - meal-program
  address: {street: 3666 S. Clement Ave, city: Milwaukee, state: wi, zip: '53207'}
  description: Free summer meals for kids and teens (2026 season) — sponsored by Milwaukee Public School
    District.
  place: '5553000'
  geo: {lat: 42.97784, lng: -87.89444}
  phone: (414) 294-1519
  external_ids: {usda_master: Cycle 08_WI_SFSP_0474}
  sources:
  - usda/summer-meal-sites
  verified: {'on': '2026-07-19', method: api}
- id: wi/milwaukee/clement-j-zablocki-vamc-mental-health-division
  name: Clement J Zablocki VAMC Mental Health Division
  categories:
  - su-treatment
  - mh-treatment
  address:
    street: 5000 West National Avenue
    city: Milwaukee
    state: wi
    zip: '53295'
  place: '5553000'
  geo:
    lat: 43.02066
    lng: -87.97747
  phone: 414-384-2000 x41275
  website: https://www.va.gov/milwaukee-health-care/locations/
  sources:
  - samhsa/findtreatment
  verified:
    'on': '2026-07-19'
    method: api
- id: wi/milwaukee/clovernook-playground
  name: Clovernook Playground
  categories:
  - meal-program
  address: {street: 6594 N Landers, city: Milwaukee, state: wi, zip: '53223'}
  description: Free summer meals for kids and teens (2026 season) — sponsored by Milwaukee Center for
    Independence.
  place: '5553000'
  geo: {lat: 43.13721, lng: -87.99956}
  phone: (414) 475-8775
  external_ids: {usda_master: Cycle 05_WI_SFSP_0340}
  sources:
  - usda/summer-meal-sites
  verified: {'on': '2026-07-19', method: api}
- id: wi/milwaukee/club-rec-hamilton
  name: Club Rec @ Hamilton
  categories:
  - meal-program
  address: {street: 6215 W Warnimont Ave, city: Milwaukee, state: wi, zip: '53220'}
  description: Free summer meals for kids and teens (2026 season) — sponsored by Milwaukee Center for
    Independence.
  place: '5553000'
  geo: {lat: 42.97915, lng: -87.99057}
  phone: (414) 333-6153
  external_ids: {usda_master: Cycle 05_WI_SFSP_0513}
  sources:
  - usda/summer-meal-sites
  verified: {'on': '2026-07-19', method: api}
- id: wi/milwaukee/coa-goldin
  name: COA Goldin
  categories:
  - child-care
  address:
    street: 2320 W Burleigh St
    city: Milwaukee
    state: wi
    zip: '53206'
  place: '5553000'
  geo:
    lat: 43.07553
    lng: -87.94162
  phone: 414-562-2929
  sources:
  - acf/head-start-locations
  verified:
    'on': '2026-07-19'
    method: api
- id: wi/milwaukee/coa-riverwest
  name: COA Riverwest
  categories:
  - child-care
  address:
    street: 909 E Garfield Ave
    city: Milwaukee
    state: wi
    zip: '53212'
  place: '5553000'
  geo:
    lat: 43.05875
    lng: -87.90009
  phone: 414-562-2929
  sources:
  - acf/head-start-locations
  verified:
    'on': '2026-07-19'
    method: api
- id: wi/milwaukee/coa-youth-and-family-centers-burke
  name: COA Youth and Family Centers-Burke
  categories:
  - child-care
  address:
    street: 2320 W Burleigh St
    city: Milwaukee
    state: wi
    zip: '53206'
  place: '5553000'
  geo:
    lat: 43.07552
    lng: -87.9416
  phone: 414-562-2929
  sources:
  - acf/head-start-locations
  verified:
    'on': '2026-07-19'
    method: api
- id: wi/milwaukee/coa-youth-and-family-centers-riverwest
  name: COA Youth and Family Centers-Riverwest
  categories:
  - child-care
  address:
    street: 909 E North Ave
    city: Milwaukee
    state: wi
    zip: '53212'
  place: '5553000'
  geo:
    lat: 43.06003
    lng: -87.90001
  phone: 414-562-2929
  sources:
  - acf/head-start-locations
  verified:
    'on': '2026-07-19'
    method: api
- id: wi/milwaukee/cold-spring-church-and-community-center
  name: Cold Spring Church And Community Center
  categories:
  - meal-program
  address: {street: 2900 W Coldspring Rd, city: Milwaukee, state: wi, zip: '53221'}
  description: Free summer meals for kids and teens (2026 season) — sponsored by The Salvation Army -
    Milwaukee.
  place: '5553000'
  geo: {lat: 42.96668, lng: -87.95095}
  phone: (414) 763-9797
  external_ids: {usda_master: Cycle 01_WI_SFSP_0388}
  sources:
  - usda/summer-meal-sites
  verified: {'on': '2026-07-19', method: api}
- id: wi/milwaukee/columbia-saint-marys-hospital-behavioral-health
  name: Columbia Saint Marys Hospital Behavioral Health
  categories:
  - su-treatment
  - mh-treatment
  address:
    street: 2323 North Lake Drive
    city: Milwaukee
    state: wi
    zip: '53211'
  place: '5553000'
  geo:
    lat: 43.06175
    lng: -87.87983
  phone: 414-585-1620
  website: https://www.ascension.org
  sources:
  - samhsa/findtreatment
  verified:
    'on': '2026-07-19'
    method: api
- id: wi/milwaukee/columbia-saint-marys-hospital-milwaukee-campus-o
  name: Columbia Saint Marys Hospital Milwaukee Campus Outpatient
  categories:
  - su-treatment
  - mh-treatment
  address:
    street: 2323 North Lake Drive
    city: Milwaukee
    state: wi
    zip: '53211'
  place: '5553000'
  geo:
    lat: 43.06175
    lng: -87.87983
  phone: 414-585-1620
  website: https://healthcare.ascension.org
  sources:
  - samhsa/findtreatment
  verified:
    'on': '2026-07-19'
    method: api
- id: wi/milwaukee/community-medical-services-west-allis
  name: Community Medical Services West Allis
  categories:
  - su-treatment
  address:
    street: 2814 South 108th Street
    city: Milwaukee
    state: wi
    zip: '53227'
  place: '5553000'
  geo:
    lat: 42.99314
    lng: -88.04664
  phone: 414-885-3525
  website: https://communitymedicalservices.org
  sources:
  - samhsa/findtreatment
  verified:
    'on': '2026-07-19'
    method: api
- id: wi/milwaukee/congress
  name: Congress
  categories:
  - child-care
  address:
    street: 5225 W Lincoln Creek Dr
    city: Milwaukee
    state: wi
    zip: '53218'
  place: '5553000'
  geo:
    lat: 43.09838
    lng: -87.97877
  phone: 414-616-5300
  sources:
  - acf/head-start-locations
  verified:
    'on': '2026-07-19'
    method: api
- id: wi/milwaukee/congress-el
  name: Congress El
  categories:
  - meal-program
  address: {street: 5225 W. Lincoln Creek Drive, city: Milwaukee, state: wi, zip: '53218'}
  description: Free summer meals for kids and teens (2026 season) — sponsored by Milwaukee Public School
    District.
  place: '5553000'
  geo: {lat: 43.09947, lng: -87.97868}
  phone: (414) 616-5319
  external_ids: {usda_master: Cycle 08_WI_SFSP_0476}
  sources:
  - usda/summer-meal-sites
  verified: {'on': '2026-07-19', method: api}
- id: wi/milwaukee/daniels-mardak-bgc
  name: Daniels Mardak Bgc
  categories:
  - meal-program
  address: {street: 4834 N 35Th Street, city: Milwaukee, state: wi, zip: '53209'}
  description: Free summer meals for kids and teens (2026 season) — sponsored by Boys & Girls Clubs of
    Greater Milwaukee.
  place: '5553000'
  geo: {lat: 43.10452, lng: -87.95665}
  phone: (414) 578-1228
  external_ids: {usda_master: Cycle 08_WI_SFSP_1056}
  sources:
  - usda/summer-meal-sites
  verified: {'on': '2026-07-19', method: api}
- id: wi/milwaukee/darrell-l-hines-acadmey
  name: Darrell L Hines Acadmey
  categories:
  - meal-program
  address: {street: 7151 N 86Th St, city: Milwaukee, state: wi, zip: '53224'}
  description: Free summer meals for kids and teens (2026 season) — sponsored by Milwaukee Center for
    Independence.
  place: '5553000'
  geo: {lat: 43.14746, lng: -88.01794}
  phone: (414) 368-1393
  external_ids: {usda_master: Cycle 05_WI_SFSP_0567}
  sources:
  - usda/summer-meal-sites
  verified: {'on': '2026-07-19', method: api}
- id: wi/milwaukee/davis-bgc
  name: Davis Bgc
  categories:
  - meal-program
  address: {street: 1975 S 24Th St, city: Milwaukee, state: wi, zip: '53204'}
  description: Free summer meals for kids and teens (2026 season) — sponsored by Boys & Girls Clubs of
    Greater Milwaukee.
  place: '5553000'
  geo: {lat: 43.00885, lng: -87.94374}
  phone: (414) 267-8100
  external_ids: {usda_master: Cycle 08_WI_SFSP_1063}
  sources:
  - usda/summer-meal-sites
  verified: {'on': '2026-07-19', method: api}
- id: wi/milwaukee/dineen-park
  name: Dineen Park
  categories:
  - meal-program
  address: {street: 6901 W Vienna Ave, city: Milwaukee, state: wi, zip: '53216'}
  description: Free summer meals for kids and teens (2026 season) — sponsored by Milwaukee Center for
    Independence.
  place: '5553000'
  geo: {lat: 43.08533, lng: -87.99793}
  phone: (414) 357-1947
  external_ids: {usda_master: Cycle 05_WI_SFSP_0893}
  sources:
  - usda/summer-meal-sites
  verified: {'on': '2026-07-19', method: api}
- id: wi/milwaukee/doerfler-school
  name: Doerfler School
  categories:
  - child-care
  address:
    street: 3014 W Scott St
    city: Milwaukee
    state: wi
    zip: '53215'
  place: '5553000'
  geo:
    lat: 43.0199
    lng: -87.95201
  phone: 414-902-9500
  sources:
  - acf/head-start-locations
  verified:
    'on': '2026-07-19'
    method: api
- id: wi/milwaukee/doerfler-school-2
  name: Doerfler School
  categories:
  - meal-program
  address: {street: 3014 W Scott St, city: Milwaukee, state: wi, zip: '53215'}
  description: Free summer meals for kids and teens (2026 season) — sponsored by Milwaukee Center for
    Independence.
  place: '5553000'
  geo: {lat: 43.01909, lng: -87.95204}
  phone: (414) 902-9507
  external_ids: {usda_master: Cycle 05_WI_SFSP_0608}
  sources:
  - usda/summer-meal-sites
  verified: {'on': '2026-07-19', method: api}
- id: wi/milwaukee/donovan-hines-foundation
  name: Donovan Hines Foundation
  categories:
  - meal-program
  address: {street: 6091 N Teutonia Ave, city: Milwaukee, state: wi, zip: '53209'}
  description: Free summer meals for kids and teens (2026 season) — sponsored by Milwaukee Center for
    Independence.
  place: '5553000'
  geo: {lat: 43.1294, lng: -87.95233}
  phone: (414) 595-5643
  external_ids: {usda_master: Cycle 05_WI_SFSP_0388}
  sources:
  - usda/summer-meal-sites
  verified: {'on': '2026-07-19', method: api}
- id: wi/milwaukee/dr-martin-luther-king-jr-school
  name: Dr. Martin Luther King Jr. School
  categories:
  - child-care
  address:
    street: 3275 N 3rd St
    city: Milwaukee
    state: wi
    zip: '53212'
  place: '5553000'
  geo:
    lat: 43.07791
    lng: -87.91414
  phone: 414-267-1500
  sources:
  - acf/head-start-locations
  verified:
    'on': '2026-07-19'
    method: api
- id: wi/milwaukee/eighty-first-street-school
  name: Eighty-First Street School
  categories:
  - meal-program
  address: {street: 2964 N 81St St, city: Milwaukee, state: wi, zip: '53222'}
  description: Free summer meals for kids and teens (2026 season) — sponsored by Milwaukee Center for
    Independence.
  place: '5553000'
  geo: {lat: 43.07299, lng: -88.01364}
  phone: (414) 874-5425
  external_ids: {usda_master: Cycle 05_WI_SFSP_0609}
  sources:
  - usda/summer-meal-sites
  verified: {'on': '2026-07-19', method: api}
- id: wi/milwaukee/el-bethel-church
  name: El Bethel Church
  categories:
  - meal-program
  address: {street: 5401 W. Good Hope Rd., city: Milwaukee, state: wi, zip: '53233'}
  description: Free summer meals for kids and teens (2026 season) — sponsored by The Salvation Army -
    Milwaukee.
  place: '5553000'
  geo: {lat: 43.14845, lng: -87.97944}
  phone: (414) 793-3228
  external_ids: {usda_master: Cycle 01_WI_SFSP_0457}
  sources:
  - usda/summer-meal-sites
  verified: {'on': '2026-07-19', method: api}
- id: wi/milwaukee/elm-creative-arts-el
  name: Elm Creative Arts El
  categories:
  - meal-program
  address: {street: 900 W. Walnut Ave., city: Milwaukee, state: wi, zip: '53205'}
  description: Free summer meals for kids and teens (2026 season) — sponsored by Milwaukee Public School
    District.
  place: '5553000'
  geo: {lat: 43.0527, lng: -87.92357}
  phone: (414) 267-1819
  external_ids: {usda_master: Cycle 08_WI_SFSP_0477}
  sources:
  - usda/summer-meal-sites
  verified: {'on': '2026-07-19', method: api}
- id: wi/milwaukee/emigh-playground
  name: Emigh Playground
  categories:
  - meal-program
  address: {street: 495 E Morgan, city: Milwaukee, state: wi, zip: '53207'}
  description: Free summer meals for kids and teens (2026 season) — sponsored by Milwaukee Center for
    Independence.
  place: '5553000'
  geo: {lat: 42.981, lng: -87.90296}
  phone: (414) 475-8814
  external_ids: {usda_master: Cycle 05_WI_SFSP_0416}
  sources:
  - usda/summer-meal-sites
  verified: {'on': '2026-07-19', method: api}
- id: wi/milwaukee/engleburg-school
  name: Engleburg School
  categories:
  - meal-program
  address: {street: 5100 N 91St St, city: Milwaukee, state: wi, zip: '53225'}
  description: Free summer meals for kids and teens (2026 season) — sponsored by Milwaukee Center for
    Independence.
  place: '5553000'
  geo: {lat: 43.11078, lng: -88.02582}
  phone: (414) 616-5652
  external_ids: {usda_master: Cycle 05_WI_SFSP_0610}
  sources:
  - usda/summer-meal-sites
  verified: {'on': '2026-07-19', method: api}
- id: wi/milwaukee/escuela-vieau
  name: Escuela Vieau
  categories:
  - meal-program
  address: {street: 823 S 4Th St, city: Milwaukee, state: wi, zip: '53204'}
  description: Free summer meals for kids and teens (2026 season) — sponsored by Milwaukee Center for
    Independence.
  place: '5553000'
  geo: {lat: 43.02271, lng: -87.91598}
  phone: (414) 902-6105
  external_ids: {usda_master: Cycle 05_WI_SFSP_0611}
  sources:
  - usda/summer-meal-sites
  verified: {'on': '2026-07-19', method: api}
- id: wi/milwaukee/fifty-third-street-el
  name: Fifty-Third Street El
  categories:
  - meal-program
  address: {street: 3618 N 53 St, city: Milwaukee, state: wi, zip: '53216'}
  description: Free summer meals for kids and teens (2026 season) — sponsored by Milwaukee Public School
    District.
  place: '5553000'
  geo: {lat: 43.0842, lng: -87.97959}
  phone: (414) 874-5319
  external_ids: {usda_master: Cycle 08_WI_SFSP_0478}
  sources:
  - usda/summer-meal-sites
  verified: {'on': '2026-07-19', method: api}
- id: wi/milwaukee/five-star-resource-center-24th-st
  name: Five Star Resource Center (24Th St.)
  categories:
  - meal-program
  address: {street: 1710 N. 24Th St., city: Milwaukee, state: wi, zip: '53205'}
  description: Free summer meals for kids and teens (2026 season) — sponsored by The Salvation Army -
    Milwaukee.
  place: '5553000'
  geo: {lat: 43.05312, lng: -87.94272}
  phone: (702) 846-7315
  external_ids: {usda_master: Cycle 01_WI_SFSP_0455}
  sources:
  - usda/summer-meal-sites
  verified: {'on': '2026-07-19', method: api}
- id: wi/milwaukee/five-star-resource-center-garfield-st
  name: Five Star Resource Center (Garfield St.)
  categories:
  - meal-program
  address: {street: 1138 W. Garfield Ave., city: Milwaukee, state: wi, zip: '53205'}
  description: Free summer meals for kids and teens (2026 season) — sponsored by The Salvation Army -
    Milwaukee.
  place: '5553000'
  geo: {lat: 43.05926, lng: -87.92652}
  external_ids: {usda_master: Cycle 01_WI_SFSP_0456}
  sources:
  - usda/summer-meal-sites
  verified: {'on': '2026-07-19', method: api}
- id: wi/milwaukee/florist-garden
  name: Florist Garden
  categories:
  - meal-program
  address: {street: 3402 W Florist Ave, city: Milwaukee, state: wi, zip: '53209'}
  description: Free summer meals for kids and teens (2026 season) — sponsored by Milwaukee Center for
    Independence.
  place: '5553000'
  geo: {lat: 43.12656, lng: -87.95508}
  phone: (414) 395-4873
  external_ids: {usda_master: Cycle 05_WI_SFSP_0393}
  sources:
  - usda/summer-meal-sites
  verified: {'on': '2026-07-19', method: api}
- id: wi/milwaukee/forest-home-ave-school
  name: Forest Home Ave School
  categories:
  - meal-program
  address: {street: 1516 W Forest Home Ave, city: Milwaukee, state: wi, zip: '53204'}
  description: Free summer meals for kids and teens (2026 season) — sponsored by Milwaukee Center for
    Independence.
  place: '5553000'
  geo: {lat: 43.01035, lng: -87.93125}
  phone: (414) 902-6288
  external_ids: {usda_master: Cycle 05_WI_SFSP_0514}
  sources:
  - usda/summer-meal-sites
  verified: {'on': '2026-07-19', method: api}
- id: wi/milwaukee/forest-home-avenue
  name: Forest Home Avenue
  categories:
  - child-care
  address:
    street: 1516 W Forest Home Ave
    city: Milwaukee
    state: wi
    zip: '53204'
  place: '5553000'
  geo:
    lat: 43.01052
    lng: -87.93131
  phone: 414-902-6200
  sources:
  - acf/head-start-locations
  verified:
    'on': '2026-07-19'
    method: api
- id: wi/milwaukee/forward-choices-llc
  name: Forward Choices LLC
  categories:
  - su-treatment
  - mh-treatment
  address:
    street: 6040 West Lisbon Avenue
    city: Milwaukee
    state: wi
    zip: '53210'
  place: '5553000'
  geo:
    lat: 43.0689
    lng: -87.98842
  phone: 414-442-1751
  website: https://forwardchoices.com
  sources:
  - samhsa/findtreatment
  verified:
    'on': '2026-07-19'
    method: api
- id: wi/milwaukee/franklin-school
  name: Franklin School
  categories:
  - child-care
  address:
    street: 2308 W Nash St
    city: Milwaukee
    state: wi
    zip: '53206'
  place: '5553000'
  geo:
    lat: 43.08502
    lng: -87.9414
  phone: 414-875-4400
  sources:
  - acf/head-start-locations
  verified:
    'on': '2026-07-19'
    method: api
- id: wi/milwaukee/franklin-square
  name: Franklin Square
  categories:
  - meal-program
  address: {street: 2643 N 13Th St, city: Milwaukee, state: wi, zip: '53206'}
  description: Free summer meals for kids and teens (2026 season) — sponsored by Milwaukee Center for
    Independence.
  place: '5553000'
  geo: {lat: 43.06578, lng: -87.92774}
  phone: (414) 475-8814
  external_ids: {usda_master: Cycle 05_WI_SFSP_0337}
  sources:
  - usda/summer-meal-sites
  verified: {'on': '2026-07-19', method: api}
- id: wi/milwaukee/fratney-el
  name: Fratney El
  categories:
  - meal-program
  address: {street: 3255 N Fratney St., city: Milwaukee, state: wi, zip: '53212'}
  description: Free summer meals for kids and teens (2026 season) — sponsored by Milwaukee Public School
    District.
  place: '5553000'
  geo: {lat: 43.07752, lng: -87.90145}
  phone: (414) 267-1119
  external_ids: {usda_master: Cycle 08_WI_SFSP_0467}
  sources:
  - usda/summer-meal-sites
  verified: {'on': '2026-07-19', method: api}
- id: wi/milwaukee/gateway-to-change-llc
  name: Gateway to Change LLC
  categories:
  - su-treatment
  address:
    street: 2319 West Capitol Drive
    city: Milwaukee
    state: wi
    zip: '53206'
  place: '5553000'
  geo:
    lat: 43.08943
    lng: -87.94148
  phone: 414-442-2033
  website: https://
  sources:
  - samhsa/findtreatment
  verified:
    'on': '2026-07-19'
    method: api
- id: wi/milwaukee/gerald-l-ignace-indian-health-center-inc
  name: Gerald L. Ignace Indian Health Center, Inc.
  categories:
  - community-health-center
  address:
    street: 930 W Historic Mitchell St
    city: Milwaukee
    state: wi
    zip: '53204'
  place: '5553000'
  geo:
    lat: 43.01257
    lng: -87.92369
  phone: 414-383-9526
  external_ids:
    bphc: BPS-H80-021555
  sources:
  - hrsa/health-center-sites
  verified:
    'on': '2026-07-19'
    method: api
- id: wi/milwaukee/goodrich-el
  name: Goodrich El
  categories:
  - meal-program
  address: {street: 8251 N Celina St, city: Milwaukee, state: wi, zip: '53224'}
  description: Free summer meals for kids and teens (2026 season) — sponsored by Milwaukee Public School
    District.
  place: '5553000'
  geo: {lat: 43.16724, lng: -88.03721}
  phone: (414) 236-1519
  external_ids: {usda_master: Cycle 08_WI_SFSP_0492}
  sources:
  - usda/summer-meal-sites
  verified: {'on': '2026-07-19', method: api}
- id: wi/milwaukee/grant-gordon-learning-center-formerly-lee-learni
  name: Grant Gordon Learning Center (formerly Lee Learning Center)
  categories:
  - child-care
  address:
    street: 921 W Meinecke Ave
    city: Milwaukee
    state: wi
    zip: '53206'
  place: '5553000'
  geo:
    lat: 43.06146
    lng: -87.92342
  phone: 414-252-0350
  sources:
  - acf/head-start-locations
  verified:
    'on': '2026-07-19'
    method: api
- id: wi/milwaukee/grantosa-drive-school
  name: Grantosa Drive School
  categories:
  - meal-program
  address: {street: 4850 N82Nd St, city: Milwaukee, state: wi, zip: '53218'}
  description: Free summer meals for kids and teens (2026 season) — sponsored by Milwaukee Center for
    Independence.
  place: '5553000'
  geo: {lat: 43.10611, lng: -88.01354}
  phone: (414) 393-4400
  external_ids: {usda_master: Cycle 05_WI_SFSP_0612}
  sources:
  - usda/summer-meal-sites
  verified: {'on': '2026-07-19', method: api}
- id: wi/milwaukee/great-lakes-adult-and-teen-challenge-robby-dawso
  name: Great Lakes Adult and Teen Challenge Robby Dawson Home for Women
  categories:
  - su-treatment
  address:
    street: 727 North 31st Street
    city: Milwaukee
    state: wi
    zip: '53208'
  place: '5553000'
  geo:
    lat: 43.03946
    lng: -87.95343
  phone: 414-748-4357
  website: https://greatlakeswomensrehab.com
  sources:
  - samhsa/findtreatment
  verified:
    'on': '2026-07-19'
    method: api
- id: wi/milwaukee/green-bay-playground
  name: Green Bay Playground
  categories:
  - meal-program
  address: {street: 3818 N 8Th St, city: Milwaukee, state: wi, zip: '53206'}
  description: Free summer meals for kids and teens (2026 season) — sponsored by Milwaukee Center for
    Independence.
  place: '5553000'
  geo: {lat: 43.08688, lng: -87.92101}
  phone: (414) 475-8814
  external_ids: {usda_master: Cycle 05_WI_SFSP_0359}
  sources:
  - usda/summer-meal-sites
  verified: {'on': '2026-07-19', method: api}
- id: wi/milwaukee/greenfield-bilingual-school
  name: Greenfield Bilingual School
  categories:
  - meal-program
  address: {street: 1711 S 35Th St, city: Milwaukee, state: wi, zip: '53215'}
  description: Free summer meals for kids and teens (2026 season) — sponsored by Milwaukee Center for
    Independence.
  place: '5553000'
  geo: {lat: 43.01177, lng: -87.9577}
  phone: (414) 902-8393
  external_ids: {usda_master: Cycle 05_WI_SFSP_0613}
  sources:
  - usda/summer-meal-sites
  verified: {'on': '2026-07-19', method: api}
- id: wi/milwaukee/guest-house-counseling-clinic
  name: Guest House Counseling Clinic
  categories:
  - su-treatment
  - mh-treatment
  address:
    street: 1216 North 13th Street
    city: Milwaukee
    state: wi
    zip: '53205'
  place: '5553000'
  geo:
    lat: 43.04629
    lng: -87.92846
  phone: 414-345-3240
  website: https://www.guesthouseofmilwaukee.org
  sources:
  - samhsa/findtreatment
  verified:
    'on': '2026-07-19'
    method: api
- id: wi/milwaukee/gwen-t-jackson-early-childhood-school
  name: Gwen T. Jackson Early Childhood  School
  categories:
  - child-care
  address:
    street: 2121 W Hadley St
    city: Milwaukee
    state: wi
    zip: '53206'
  place: '5553000'
  geo:
    lat: 43.06873
    lng: -87.93933
  phone: 414-267-5500
  sources:
  - acf/head-start-locations
  verified:
    'on': '2026-07-19'
    method: api
- id: wi/milwaukee/hapa-hmong-amer-peace-ac
  name: Hapa- Hmong Amer Peace Ac
  categories:
  - meal-program
  address: {street: 4601 N 84Th St., city: Milwaukee, state: wi, zip: '53225'}
  description: Free summer meals for kids and teens (2026 season) — sponsored by Milwaukee Public School
    District.
  place: '5553000'
  geo: {lat: 43.10139, lng: -88.01732}
  phone: (414) 383-4944
  external_ids: {usda_master: Cycle 08_WI_SFSP_0544}
  sources:
  - usda/summer-meal-sites
  verified: {'on': '2026-07-19', method: api}
- id: wi/milwaukee/harriet-tubman-park
  name: Harriet Tubman Park
  categories:
  - meal-program
  address: {street: 4750 N 48 Street, city: Milwaukee, state: wi, zip: '53218'}
  description: Free summer meals for kids and teens (2026 season) — sponsored by Milwaukee Center for
    Independence.
  place: '5553000'
  geo: {lat: 43.10325, lng: -87.97256}
  phone: (414) 475-8596
  external_ids: {usda_master: Cycle 05_WI_SFSP_0310}
  sources:
  - usda/summer-meal-sites
  verified: {'on': '2026-07-19', method: api}
- id: wi/milwaukee/hawthorne
  name: Hawthorne
  categories:
  - child-care
  address:
    street: 6945 N 41st St
    city: Milwaukee
    state: wi
    zip: '53209'
  place: '5553000'
  geo:
    lat: 43.14402
    lng: -87.96435
  phone: 414-247-7200
  sources:
  - acf/head-start-locations
  verified:
    'on': '2026-07-19'
    method: api
- id: wi/milwaukee/hayes-bilingual
  name: Hayes Bilingual
  categories:
  - child-care
  address:
    street: 971 W Windlake Ave
    city: Milwaukee
    state: wi
    zip: '53204'
  place: '5553000'
  geo:
    lat: 43.00785
    lng: -87.92369
  phone: 414-902-9600
  sources:
  - acf/head-start-locations
  verified:
    'on': '2026-07-19'
    method: api
- id: wi/milwaukee/hayes-bilingual-school
  name: Hayes Bilingual School
  categories:
  - meal-program
  address: {street: 971 W Windlake Ave, city: Milwaukee, state: wi, zip: '53204'}
  description: Free summer meals for kids and teens (2026 season) — sponsored by Milwaukee Center for
    Independence.
  place: '5553000'
  geo: {lat: 43.00843, lng: -87.92383}
  phone: (414) 902-7250
  external_ids: {usda_master: Cycle 05_WI_SFSP_0614}
  sources:
  - usda/summer-meal-sites
  verified: {'on': '2026-07-19', method: api}
- id: wi/milwaukee/helping-better-the-kids
  name: Helping Better The Kids
  categories:
  - meal-program
  address: {street: 936 W. Atkinson Ave., city: Milwaukee, state: wi, zip: '53206'}
  description: Free summer meals for kids and teens (2026 season) — sponsored by The Salvation Army -
    Milwaukee.
  place: '5553000'
  geo: {lat: 43.08381, lng: -87.92307}
  phone: (414) 349-2736
  external_ids: {usda_master: Cycle 01_WI_SFSP_0452}
  sources:
  - usda/summer-meal-sites
  verified: {'on': '2026-07-19', method: api}
- id: wi/milwaukee/hillside-family-health-center
  name: Hillside Family Health Center
  categories:
  - community-health-center
  address:
    street: 1452 N 7th St
    city: Milwaukee
    state: wi
    zip: '53205'
  place: '5553000'
  geo:
    lat: 43.04968
    lng: -87.91928
  phone: 414-935-8000
  website: https://www.progressivechc.org
  external_ids:
    bphc: BPS-H80-002831
  sources:
  - hrsa/health-center-sites
  verified:
    'on': '2026-07-19'
    method: api
- id: wi/milwaukee/hmong-american-peace-academy
  name: Hmong American Peace Academy
  categories:
  - community-health-center
  address:
    street: 4601 N 84th St
    city: Milwaukee
    state: wi
    zip: '53225'
  place: '5553000'
  geo:
    lat: 43.10144
    lng: -88.01863
  phone: 414-800-1791
  website: https://www.ochc-milw.org
  external_ids:
    bphc: BPS-H80-037567
  sources:
  - hrsa/health-center-sites
  verified:
    'on': '2026-07-19'
    method: api
- id: wi/milwaukee/holt-playground
  name: Holt Playground
  categories:
  - meal-program
  address: {street: 1716 W Holt, city: Milwaukee, state: wi, zip: '53215'}
  description: Free summer meals for kids and teens (2026 season) — sponsored by Milwaukee Center for
    Independence.
  place: '5553000'
  geo: {lat: 42.98297, lng: -87.9356}
  phone: (414) 647-9962
  external_ids: {usda_master: Cycle 05_WI_SFSP_0341}
  sources:
  - usda/summer-meal-sites
  verified: {'on': '2026-07-19', method: api}
- id: wi/milwaukee/hopkin-lloyd-school
  name: Hopkin-Lloyd School
  categories:
  - meal-program
  address: {street: 1503 W Hopkins St, city: Milwaukee, state: wi, zip: '53206'}
  description: Free summer meals for kids and teens (2026 season) — sponsored by Milwaukee Center for
    Independence.
  place: '5553000'
  geo: {lat: 43.07129, lng: -87.93173}
  phone: (414) 267-0600
  external_ids: {usda_master: Cycle 05_WI_SFSP_0615}
  sources:
  - usda/summer-meal-sites
  verified: {'on': '2026-07-19', method: api}
- id: wi/milwaukee/hopkins-lloyd-school
  name: Hopkins Lloyd School
  categories:
  - child-care
  address:
    street: 1503 W Hopkins St
    city: Milwaukee
    state: wi
    zip: '53206'
  place: '5553000'
  geo:
    lat: 43.07073
    lng: -87.93185
  phone: 414-267-0600
  sources:
  - acf/head-start-locations
  verified:
    'on': '2026-07-19'
    method: api
- id: wi/milwaukee/hopkins-lloyd-school-2
  name: Hopkins-Lloyd School
  categories:
  - meal-program
  address: {street: 1503 W Hopkins St, city: Milwaukee, state: wi, zip: '53206'}
  description: Free summer meals for kids and teens (2026 season) — sponsored by Milwaukee Center for
    Independence.
  place: '5553000'
  geo: {lat: 43.07129, lng: -87.93173}
  phone: (414) 267-0600
  external_ids: {usda_master: Cycle 09_WI_SFSP_0487}
  sources:
  - usda/summer-meal-sites
  verified: {'on': '2026-07-19', method: api}
- id: wi/milwaukee/housing-authority-of-the-city-of-milwaukee
  name: Housing Authority Of The City Of Milwaukee
  categories:
  - housing-assistance
  address:
    street: 809 N Broadway
    city: Milwaukee
    state: wi
    zip: '53202'
  description: Public housing and Housing Choice Voucher agency
  place: '5553000'
  geo:
    lat: 43.0414
    lng: -87.9084
  phone: 414-286-5678
  sources:
  - hud/resource-locator
  verified:
    'on': '2026-07-19'
    method: api
- id: wi/milwaukee/isaac-coggs-heritage-health-ctr
  name: ISAAC COGGS HERITAGE HEALTH CTR
  categories:
  - community-health-center
  address:
    street: 8200 W Silver Spring Dr
    city: Milwaukee
    state: wi
    zip: '53218'
  place: '5553000'
  geo:
    lat: 43.12028
    lng: -88.0141
  phone: 414-760-3900
  website: https://www.mhsi.org
  external_ids:
    bphc: BPS-H80-004671
  sources:
  - hrsa/health-center-sites
  verified:
    'on': '2026-07-19'
    method: api
- id: wi/milwaukee/james-madison-academic-campus
  name: James Madison Academic Campus
  categories:
  - meal-program
  address: {street: 8135 W Florist A, city: Milwaukee, state: wi, zip: '53218'}
  description: Free summer meals for kids and teens (2026 season) — sponsored by Milwaukee Public School
    District.
  place: '5553000'
  geo: {lat: 43.12683, lng: -88.01343}
  phone: (414) 393-6119
  external_ids: {usda_master: Cycle 08_WI_SFSP_0537}
  sources:
  - usda/summer-meal-sites
  verified: {'on': '2026-07-19', method: api}
- id: wi/milwaukee/jewish-family-services
  name: Jewish Family Services
  categories:
  - su-treatment
  - mh-treatment
  address:
    street: 1300 North Jackson Street
    city: Milwaukee
    state: wi
    zip: '53202'
  place: '5553000'
  geo:
    lat: 43.04715
    lng: -87.90403
  phone: 414-225-1300
  website: https://jfsmilw.org
  sources:
  - samhsa/findtreatment
  verified:
    'on': '2026-07-19'
    method: api
- id: wi/milwaukee/jo-s-early-learning-academy
  name: Jo's Early Learning Academy
  categories:
  - child-care
  address:
    street: 3027 W Greenfield Ave
    city: Milwaukee
    state: wi
    zip: '53215'
  place: '5553000'
  geo:
    lat: 43.01666
    lng: -87.95239
  phone: 414-384-7825
  sources:
  - acf/head-start-locations
  verified:
    'on': '2026-07-19'
    method: api
- id: wi/milwaukee/kagel
  name: Kagel
  categories:
  - child-care
  address:
    street: 1210 W Mineral St
    city: Milwaukee
    state: wi
    zip: '53204'
  place: '5553000'
  geo:
    lat: 43.02131
    lng: -87.92732
  phone: 414-902-7400
  sources:
  - acf/head-start-locations
  verified:
    'on': '2026-07-19'
    method: api
- id: wi/milwaukee/kagel-school
  name: Kagel School
  categories:
  - meal-program
  address: {street: 1210 W Mineral St, city: Milwaukee, state: wi, zip: '53204'}
  description: Free summer meals for kids and teens (2026 season) — sponsored by Milwaukee Center for
    Independence.
  place: '5553000'
  geo: {lat: 43.02121, lng: -87.92733}
  phone: (414) 902-7446
  external_ids: {usda_master: Cycle 05_WI_SFSP_0616}
  sources:
  - usda/summer-meal-sites
  verified: {'on': '2026-07-19', method: api}
- id: wi/milwaukee/keefe-avenue-elementary
  name: Keefe Avenue Elementary
  categories:
  - meal-program
  address: {street: 1618 W Keefe Ave, city: Milwaukee, state: wi, zip: '53206'}
  description: Free summer meals for kids and teens (2026 season) — sponsored by Milwaukee Public School
    District.
  place: '5553000'
  geo: {lat: 43.08179, lng: -87.93167}
  phone: (414) 267-4819
  external_ids: {usda_master: Cycle 08_WI_SFSP_0582}
  sources:
  - usda/summer-meal-sites
  verified: {'on': '2026-07-19', method: api}
- id: wi/milwaukee/keefe-avenue-school
  name: Keefe Avenue School
  categories:
  - child-care
  address:
    street: 1618 W Keefe Ave
    city: Milwaukee
    state: wi
    zip: '53206'
  place: '5553000'
  geo:
    lat: 43.0823
    lng: -87.93148
  phone: 414-267-4800
  sources:
  - acf/head-start-locations
  verified:
    'on': '2026-07-19'
    method: api
- id: wi/milwaukee/kilbourn
  name: Kilbourn
  categories:
  - child-care
  address:
    street: 5354 N 68th St
    city: Milwaukee
    state: wi
    zip: '53218'
  place: '5553000'
  geo:
    lat: 43.11489
    lng: -87.99539
  phone: 414-393-4500
  sources:
  - acf/head-start-locations
  verified:
    'on': '2026-07-19'
    method: api
- id: wi/milwaukee/king-international
  name: King International
  categories:
  - meal-program
  address: {street: 1801 W Olive St, city: Milwaukee, state: wi, zip: '53209'}
  description: Free summer meals for kids and teens (2026 season) — sponsored by Milwaukee Public School
    District.
  place: '5553000'
  geo: {lat: 43.09396, lng: -87.93306}
  phone: (414) 267-0719
  external_ids: {usda_master: Cycle 08_WI_SFSP_0971}
  sources:
  - usda/summer-meal-sites
  verified: {'on': '2026-07-19', method: api}
- id: wi/milwaukee/kluge
  name: Kluge
  categories:
  - child-care
  address:
    street: 5760 N 67th St
    city: Milwaukee
    state: wi
    zip: '53218'
  place: '5553000'
  geo:
    lat: 43.12258
    lng: -87.99374
  phone: 414-578-5000
  sources:
  - acf/head-start-locations
  verified:
    'on': '2026-07-19'
    method: api
- id: wi/milwaukee/la-causa-inc
  name: La Causa Inc
  categories:
  - su-treatment
  - mh-treatment
  address:
    street: 5235 North Ironwood Road
    city: Milwaukee
    state: wi
    zip: '53217'
  place: '5553000'
  geo:
    lat: 43.11241
    lng: -87.91994
  phone: 414-602-1622
  website: https://www.lacausa.org
  sources:
  - samhsa/findtreatment
  verified:
    'on': '2026-07-19'
    method: api
- id: wi/milwaukee/la-causa-inc-2
  name: La Causa, Inc
  categories:
  - child-care
  address:
    street: 809 W Greenfield Ave
    city: Milwaukee
    state: wi
    zip: '53204'
  place: '5553000'
  geo:
    lat: 43.01669
    lng: -87.92154
  phone: 414-562-2929
  sources:
  - acf/head-start-locations
  verified:
    'on': '2026-07-19'
    method: api
- id: wi/milwaukee/lafollette-school
  name: LaFollette School
  categories:
  - child-care
  address:
    street: 3239 N 9th St
    city: Milwaukee
    state: wi
    zip: '53206'
  place: '5553000'
  geo:
    lat: 43.07728
    lng: -87.9231
  phone: 414-267-5200
  sources:
  - acf/head-start-locations
  verified:
    'on': '2026-07-19'
    method: api
- id: wi/milwaukee/lafollette-school-2
  name: Lafollette School
  categories:
  - meal-program
  address: {street: 3239 N 9Th St, city: Milwaukee, state: wi, zip: '53206'}
  description: Free summer meals for kids and teens (2026 season) — sponsored by Milwaukee Center for
    Independence.
  place: '5553000'
  geo: {lat: 43.07722, lng: -87.9229}
  phone: (414) 267-5252
  external_ids: {usda_master: Cycle 05_WI_SFSP_0617}
  sources:
  - usda/summer-meal-sites
  verified: {'on': '2026-07-19', method: api}
- id: wi/milwaukee/lincoln-avenue
  name: Lincoln Avenue
  categories:
  - child-care
  address:
    street: 1817 W Lincoln Ave
    city: Milwaukee
    state: wi
    zip: '53215'
  place: '5553000'
  geo:
    lat: 43.00207
    lng: -87.93607
  phone: 414-902-9700
  sources:
  - acf/head-start-locations
  verified:
    'on': '2026-07-19'
    method: api
- id: wi/milwaukee/lincoln-avenue-school
  name: Lincoln Avenue School
  categories:
  - meal-program
  address: {street: 1817 W Lincoln Ave, city: Milwaukee, state: wi, zip: '53215'}
  description: Free summer meals for kids and teens (2026 season) — sponsored by Milwaukee Center for
    Independence.
  place: '5553000'
  geo: {lat: 43.00296, lng: -87.93607}
  phone: (414) 902-9767
  external_ids: {usda_master: Cycle 05_WI_SFSP_0618}
  sources:
  - usda/summer-meal-sites
  verified: {'on': '2026-07-19', method: api}
- id: wi/milwaukee/lisbon-avenue-health-center
  name: LISBON AVENUE HEALTH CENTER
  categories:
  - community-health-center
  address:
    street: 3522 W Lisbon Ave
    city: Milwaukee
    state: wi
    zip: '53208'
  place: '5553000'
  geo:
    lat: 43.05493
    lng: -87.95808
  phone: 414-935-8000
  website: https://www.progressivechc.org
  external_ids:
    bphc: BPS-H80-004235
  sources:
  - hrsa/health-center-sites
  verified:
    'on': '2026-07-19'
    method: api
- id: wi/milwaukee/longfellow
  name: Longfellow
  categories:
  - child-care
  address:
    street: 1021 S 21st St
    city: Milwaukee
    state: wi
    zip: '53204'
  place: '5553000'
  geo:
    lat: 43.01967
    lng: -87.94016
  phone: 414-902-9800
  sources:
  - acf/head-start-locations
  verified:
    'on': '2026-07-19'
    method: api
- id: wi/milwaukee/longfellow-school
  name: Longfellow School
  categories:
  - meal-program
  address: {street: 1021 S 21St St, city: Milwaukee, state: wi, zip: '53204'}
  description: Free summer meals for kids and teens (2026 season) — sponsored by Milwaukee Center for
    Independence.
  place: '5553000'
  geo: {lat: 43.02049, lng: -87.9395}
  phone: (414) 647-0548
  external_ids: {usda_master: Cycle 05_WI_SFSP_0619}
  sources:
  - usda/summer-meal-sites
  verified: {'on': '2026-07-19', method: api}
- id: wi/milwaukee/lowell-elementary
  name: Lowell Elementary
  categories:
  - child-care
  address:
    street: 4360 S 20th St
    city: Milwaukee
    state: wi
    zip: '53221'
  place: '5553000'
  geo:
    lat: 42.96437
    lng: -87.93731
  phone: 414-304-6600
  sources:
  - acf/head-start-locations
  verified:
    'on': '2026-07-19'
    method: api
- id: wi/milwaukee/lutheran-counseling-and-family-servs
  name: Lutheran Counseling and Family Servs
  categories:
  - su-treatment
  - mh-treatment
  address:
    street: 3800 North Mayfair Road
    city: Milwaukee
    state: wi
    zip: '53222'
  place: '5553000'
  geo:
    lat: 43.08817
    lng: -88.04729
  phone: 414-536-8333
  website: https://www.lcfswi.org
  sources:
  - samhsa/findtreatment
  verified:
    'on': '2026-07-19'
    method: api
- id: wi/milwaukee/lyons-park
  name: Lyons Park
  categories:
  - meal-program
  address: {street: 3301 S 55Th St, city: Milwaukee, state: wi, zip: '53219'}
  description: Free summer meals for kids and teens (2026 season) — sponsored by Milwaukee Center for
    Independence.
  place: '5553000'
  geo: {lat: 42.98474, lng: -87.98294}
  phone: (414) 531-5469
  external_ids: {usda_master: Cycle 05_WI_SFSP_0408}
  sources:
  - usda/summer-meal-sites
  verified: {'on': '2026-07-19', method: api}
- id: wi/milwaukee/ma-ruf-youth-center
  name: Ma'Ruf Youth Center
  categories:
  - meal-program
  address: {street: 2110 W. Hampton Ave., city: Milwaukee, state: wi, zip: '53209'}
  description: Free summer meals for kids and teens (2026 season) — sponsored by The Salvation Army -
    Milwaukee.
  place: '5553000'
  geo: {lat: 43.1045, lng: -87.93857}
  phone: (608) 305-4234
  external_ids: {usda_master: Cycle 07_WI_SFSP_0287}
  sources:
  - usda/summer-meal-sites
  verified: {'on': '2026-07-19', method: api}
- id: wi/milwaukee/macdowell-montessori-sch
  name: Macdowell Montessori Sch
  categories:
  - meal-program
  address: {street: 6415 W. Mt Vernon Ave, city: Milwaukee, state: wi, zip: '53213'}
  description: Free summer meals for kids and teens (2026 season) — sponsored by Milwaukee Public School
    District.
  place: '5553000'
  geo: {lat: 43.03388, lng: -87.99277}
  phone: (414) 935-1419
  external_ids: {usda_master: Cycle 08_WI_SFSP_0493}
  sources:
  - usda/summer-meal-sites
  verified: {'on': '2026-07-19', method: api}
- id: wi/milwaukee/malaika-early-learning-center
  name: Malaika Early Learning Center
  categories:
  - child-care
  address:
    street: 125 W Auer Ave
    city: Milwaukee
    state: wi
    zip: '53212'
  place: '5553000'
  geo:
    lat: 43.07613
    lng: -87.91148
  phone: 414-562-2929
  sources:
  - acf/head-start-locations
  verified:
    'on': '2026-07-19'
    method: api
- id: wi/milwaukee/manitoba
  name: Manitoba
  categories:
  - child-care
  address:
    street: 4040 W Forest Home Ave
    city: Milwaukee
    state: wi
    zip: '53215'
  place: '5553000'
  geo:
    lat: 42.99153
    lng: -87.96587
  phone: 414-912-8600
  sources:
  - acf/head-start-locations
  verified:
    'on': '2026-07-19'
    method: api
- id: wi/milwaukee/maple-tree
  name: Maple Tree
  categories:
  - child-care
  address:
    street: 6644 N 107th St
    city: Milwaukee
    state: wi
    zip: '53224'
  place: '5553000'
  geo:
    lat: 43.13879
    lng: -88.04287
  phone: 414-578-5100
  sources:
  - acf/head-start-locations
  verified:
    'on': '2026-07-19'
    method: api
- id: wi/milwaukee/maple-tree-school
  name: Maple Tree School
  categories:
  - meal-program
  address: {street: 6644 N 107Th St, city: Milwaukee, state: wi, zip: '53224'}
  description: Free summer meals for kids and teens (2026 season) — sponsored by Milwaukee Center for
    Independence.
  place: '5553000'
  geo: {lat: 43.13929, lng: -88.04518}
  phone: (414) 578-5128
  external_ids: {usda_master: Cycle 05_WI_SFSP_0516}
  sources:
  - usda/summer-meal-sites
  verified: {'on': '2026-07-19', method: api}
- id: wi/milwaukee/marshall-hi
  name: Marshall Hi
  categories:
  - meal-program
  address: {street: 4141 N. 64Th Street, city: Milwaukee, state: wi, zip: '53216'}
  description: Free summer meals for kids and teens (2026 season) — sponsored by Milwaukee Public School
    District.
  place: '5553000'
  geo: {lat: 43.09301, lng: -87.99202}
  phone: (414) 393-2319
  external_ids: {usda_master: Cycle 08_WI_SFSP_0494}
  sources:
  - usda/summer-meal-sites
  verified: {'on': '2026-07-19', method: api}
- id: wi/milwaukee/marvin-e-pratt-school
  name: Marvin E Pratt School
  categories:
  - meal-program
  address: {street: 5131 N Green Bay Ave, city: Milwaukee, state: wi, zip: '53209'}
  description: Free summer meals for kids and teens (2026 season) — sponsored by Milwaukee Center for
    Independence.
  place: '5553000'
  geo: {lat: 43.11061, lng: -87.93287}
  phone: (414) 247-7310
  external_ids: {usda_master: Cycle 05_WI_SFSP_0620}
  sources:
  - usda/summer-meal-sites
  verified: {'on': '2026-07-19', method: api}
- id: wi/milwaukee/marvin-pratt
  name: Marvin Pratt
  categories:
  - child-care
  address:
    street: 5131 N Green Bay Ave
    city: Milwaukee
    state: wi
    zip: '53209'
  place: '5553000'
  geo:
    lat: 43.1107
    lng: -87.93333
  phone: 414-247-7300
  sources:
  - acf/head-start-locations
  verified:
    'on': '2026-07-19'
    method: api
- id: wi/milwaukee/mary-ryan-bgc
  name: Mary Ryan Bgc
  categories:
  - meal-program
  address: {street: 3000 N. Sherman Blvd, city: Milwaukee, state: wi, zip: '53210'}
  description: Free summer meals for kids and teens (2026 season) — sponsored by Boys & Girls Clubs of
    Greater Milwaukee.
  place: '5553000'
  geo: {lat: 43.07371, lng: -87.96726}
  phone: (414) 447-5333
  external_ids: {usda_master: Cycle 08_WI_SFSP_1057}
  sources:
  - usda/summer-meal-sites
  verified: {'on': '2026-07-19', method: api}
- id: wi/milwaukee/matt-talbot-recovery-center-mens-residential
  name: Matt Talbot Recovery Center Mens Residential
  categories:
  - su-treatment
  address:
    street: 2613 West North Avenue
    city: Milwaukee
    state: wi
    zip: '53205'
  place: '5553000'
  geo:
    lat: 43.06042
    lng: -87.94678
  phone: 414-510-7668
  website: https://www.mtrcinc.com
  sources:
  - samhsa/findtreatment
  verified:
    'on': '2026-07-19'
    method: api
- id: wi/milwaukee/md-therapy
  name: MD Therapy
  categories:
  - su-treatment
  - mh-treatment
  address:
    street: 6815 West Capitol Drive
    city: Milwaukee
    state: wi
    zip: '53216'
  place: '5553000'
  geo:
    lat: 43.08963
    lng: -87.99767
  phone: 414-466-3204
  website: https://mdtherapybh.com
  sources:
  - samhsa/findtreatment
  verified:
    'on': '2026-07-19'
    method: api
- id: wi/milwaukee/meadow-village
  name: Meadow Village
  categories:
  - meal-program
  address: {street: 1424 N 17Th St, city: Milwaukee, state: wi, zip: '53205'}
  description: Free summer meals for kids and teens (2026 season) — sponsored by Milwaukee Center for
    Independence.
  place: '5553000'
  geo: {lat: 43.04921, lng: -87.93381}
  phone: (414) 238-2480
  external_ids: {usda_master: Cycle 05_WI_SFSP_0373}
  sources:
  - usda/summer-meal-sites
  verified: {'on': '2026-07-19', method: api}
- id: wi/milwaukee/merrill-park
  name: Merrill Park
  categories:
  - meal-program
  address: {street: 461 N 35Th St, city: Milwaukee, state: wi, zip: '53208'}
  description: Free summer meals for kids and teens (2026 season) — sponsored by Milwaukee Center for
    Independence.
  place: '5553000'
  geo: {lat: 43.03618, lng: -87.95775}
  phone: (414) 475-8538
  external_ids: {usda_master: Cycle 05_WI_SFSP_0309}
  sources:
  - usda/summer-meal-sites
  verified: {'on': '2026-07-19', method: api}
- id: wi/milwaukee/meta-house-inc-meta-house-residential-program
  name: Meta House Inc Meta House Residential Program
  categories:
  - su-treatment
  address:
    street: P.O. Box 11564
    city: Milwaukee
    state: wi
    zip: '53211'
  place: '5553000'
  phone: 414-962-1200
  website: https://www.metahouse.org
  sources:
  - samhsa/findtreatment
  verified:
    'on': '2026-07-19'
    method: api
- id: wi/milwaukee/meta-house-inc-outpatient-program
  name: Meta House Inc Outpatient Program
  categories:
  - su-treatment
  - mh-treatment
  address:
    street: 2625 North Weil Street
    city: Milwaukee
    state: wi
    zip: '53212'
  place: '5553000'
  geo:
    lat: 43.06607
    lng: -87.89952
  phone: 414-962-1200
  website: https://www.metahouse.org
  sources:
  - samhsa/findtreatment
  verified:
    'on': '2026-07-19'
    method: api
- id: wi/milwaukee/metcalfe-el
  name: Metcalfe El
  categories:
  - meal-program
  address: {street: 3400 W North Ave, city: Milwaukee, state: wi, zip: '53208'}
  description: Free summer meals for kids and teens (2026 season) — sponsored by Milwaukee Public School
    District.
  place: '5553000'
  geo: {lat: 43.06064, lng: -87.95627}
  phone: (414) 874-3619
  external_ids: {usda_master: Cycle 08_WI_SFSP_0479}
  sources:
  - usda/summer-meal-sites
  verified: {'on': '2026-07-19', method: api}
- id: wi/milwaukee/metcalfe-school
  name: Metcalfe School
  categories:
  - child-care
  address:
    street: 3400 W North Ave
    city: Milwaukee
    state: wi
    zip: '53208'
  place: '5553000'
  geo:
    lat: 43.06077
    lng: -87.95635
  phone: 414-874-3600
  sources:
  - acf/head-start-locations
  verified:
    'on': '2026-07-19'
    method: api
- id: wi/milwaukee/middle-ground
  name: Middle Ground
  categories:
  - meal-program
  address: {street: 2474 N 37Th St, city: Milwaukee, state: wi, zip: '53210'}
  description: Free summer meals for kids and teens (2026 season) — sponsored by Milwaukee Center for
    Independence.
  place: '5553000'
  geo: {lat: 43.06404, lng: -87.95983}
  phone: (414) 445-2485
  external_ids: {usda_master: Cycle 05_WI_SFSP_0394}
  sources:
  - usda/summer-meal-sites
  verified: {'on': '2026-07-19', method: api}
- id: wi/milwaukee/milw-acad-of-chinese-lang
  name: Milw Acad Of Chinese Lang
  categories:
  - meal-program
  address: {street: 2430 W Wisconsin Ave, city: Milwaukee, state: wi, zip: '53233'}
  description: Free summer meals for kids and teens (2026 season) — sponsored by Milwaukee Public School
    District.
  place: '5553000'
  geo: {lat: 43.03879, lng: -87.94393}
  phone: (414) 934-4219
  external_ids: {usda_master: Cycle 08_WI_SFSP_0480}
  sources:
  - usda/summer-meal-sites
  verified: {'on': '2026-07-19', method: api}
- id: wi/milwaukee/milwaukee
  name: Milwaukee
  place: '5553000'
  geo:
    lat: 43.05875
    lng: -87.93609
  provisional: true
  sources:
  - mutualaidhub/firestore
  verified:
    'on': '2026-07-19'
    method: api
  categories:
  - community-fridge
- id: wi/milwaukee/milwaukee-academy-of-chinese-language-macl
  name: Milwaukee Academy of Chinese Language (MACL)
  categories:
  - child-care
  address:
    street: 2430 W Wisconsin Ave
    city: Milwaukee
    state: wi
    zip: '53233'
  place: '5553000'
  geo:
    lat: 43.04001
    lng: -87.94382
  phone: 414-934-4340
  sources:
  - acf/head-start-locations
  verified:
    'on': '2026-07-19'
    method: api
- id: wi/milwaukee/milwaukee-academy-of-science
  name: Milwaukee Academy Of Science
  categories:
  - meal-program
  address: {street: 2000 W. Kilbourn Ave, city: Milwaukee, state: wi, zip: '53233'}
  description: Free summer meals for kids and teens (2026 season) — sponsored by Boys & Girls Clubs of
    Greater Milwaukee.
  place: '5553000'
  geo: {lat: 43.04166, lng: -87.93985}
  phone: (414) 933-0302
  external_ids: {usda_master: Cycle 08_WI_SFSP_0433}
  sources:
  - usda/summer-meal-sites
  verified: {'on': '2026-07-19', method: api}
- id: wi/milwaukee/milwaukee-co-dhhs-housing-division
  name: Milwaukee Co Dhhs - Housing Division
  categories:
  - housing-assistance
  address:
    street: 600 W Walnut St Ste 100
    city: Milwaukee
    state: wi
    zip: '53212'
  description: Housing Choice Voucher (Section 8) agency
  place: '5553000'
  geo:
    lat: 43.0528
    lng: -87.91936
  phone: 414-289-6542
  sources:
  - hud/resource-locator
  verified:
    'on': '2026-07-19'
    method: api
- id: wi/milwaukee/milwaukee-health-services-inc
  name: MILWAUKEE HEALTH SERVICES, INC.
  categories:
  - community-health-center
  address:
    street: 2555 N Dr Martin Luther King Jr Dr
    city: Milwaukee
    state: wi
    zip: '53212'
  place: '5553000'
  geo:
    lat: 43.06546
    lng: -87.91441
  phone: 414-372-8080
  website: https://www.mhsi.org
  external_ids:
    bphc: BPS-H80-001430
  sources:
  - hrsa/health-center-sites
  verified:
    'on': '2026-07-19'
    method: api
- id: wi/milwaukee/milwaukee-health-services-inc-behavioral-health
  name: Milwaukee Health Services Inc Behavioral Health Services Center
  categories:
  - su-treatment
  - mh-treatment
  address:
    street: 8200 West Silver Spring Drive
    city: Milwaukee
    state: wi
    zip: '53218'
  place: '5553000'
  geo:
    lat: 43.12062
    lng: -88.01435
  phone: 414-760-3900
  website: https://www.mhsi.org
  sources:
  - samhsa/findtreatment
  verified:
    'on': '2026-07-19'
    method: api
- id: wi/milwaukee/milwaukee-hs-of-the-arts
  name: Milwaukee Hs Of The Arts
  categories:
  - meal-program
  address: {street: 2300 W Highland Ave, city: Milwaukee, state: wi, zip: '53233'}
  description: Free summer meals for kids and teens (2026 season) — sponsored by Milwaukee Center for
    Independence.
  place: '5553000'
  geo: {lat: 43.04444, lng: -87.94159}
  phone: (414) 333-8522
  external_ids: {usda_master: Cycle 05_WI_SFSP_0621}
  sources:
  - usda/summer-meal-sites
  verified: {'on': '2026-07-19', method: api}
- id: wi/milwaukee/milwaukee-mental-health-associates
  name: Milwaukee Mental Health Associates
  categories:
  - su-treatment
  - mh-treatment
  address:
    city: Milwaukee
    state: wi
    zip: '53216'
  place: '5553000'
  phone: 414-873-1960
  website: https://
  sources:
  - samhsa/findtreatment
  verified:
    'on': '2026-07-19'
    method: api
- id: wi/milwaukee/mitchell
  name: Mitchell
  categories:
  - child-care
  address:
    street: 1728 S 23rd St
    city: Milwaukee
    state: wi
    zip: '53204'
  place: '5553000'
  geo:
    lat: 43.01184
    lng: -87.94161
  phone: 414-902-8100
  sources:
  - acf/head-start-locations
  verified:
    'on': '2026-07-19'
    method: api
- id: wi/milwaukee/mitchell-school
  name: Mitchell School
  categories:
  - meal-program
  address: {street: 1728 S 23Rd St, city: Milwaukee, state: wi, zip: '53204'}
  description: Free summer meals for kids and teens (2026 season) — sponsored by Milwaukee Center for
    Independence.
  place: '5553000'
  geo: {lat: 43.01179, lng: -87.94228}
  phone: (414) 902-8141
  external_ids: {usda_master: Cycle 05_WI_SFSP_0622}
  sources:
  - usda/summer-meal-sites
  verified: {'on': '2026-07-19', method: api}
- id: wi/milwaukee/mlk-heritage-health-center-behavioral-health-ser
  name: MLK Heritage Health Center Behavioral Health Services Center
  categories:
  - su-treatment
  - mh-treatment
  address:
    street: 2555 North Martin Luther King Drive
    city: Milwaukee
    state: wi
    zip: '53212'
  place: '5553000'
  geo:
    lat: 43.06542
    lng: -87.9144
  phone: 414-372-8080
  website: https://www.mhsi.org
  sources:
  - samhsa/findtreatment
  verified:
    'on': '2026-07-19'
    method: api
- id: wi/milwaukee/modrzejewski-playfield
  name: Modrzejewski Playfield
  categories:
  - meal-program
  address: {street: 1020 W Cleveland Ave, city: Milwaukee, state: wi, zip: '53215'}
  description: Free summer meals for kids and teens (2026 season) — sponsored by Milwaukee Center for
    Independence.
  place: '5553000'
  geo: {lat: 42.99559, lng: -87.92557}
  phone: (414) 475-8814
  external_ids: {usda_master: Cycle 05_WI_SFSP_0409}
  sources:
  - usda/summer-meal-sites
  verified: {'on': '2026-07-19', method: api}
- id: wi/milwaukee/moody-pavilion
  name: Moody Pavilion
  categories:
  - meal-program
  address: {street: 2201 W Auer Ave, city: Milwaukee, state: wi, zip: '53206'}
  description: Free summer meals for kids and teens (2026 season) — sponsored by Milwaukee Center for
    Independence.
  place: '5553000'
  geo: {lat: 43.07689, lng: -87.94021}
  phone: (414) 265-7696
  external_ids: {usda_master: Cycle 05_WI_SFSP_0330}
  sources:
  - usda/summer-meal-sites
  verified: {'on': '2026-07-19', method: api}
- id: wi/milwaukee/morgandale
  name: Morgandale
  categories:
  - meal-program
  address: {street: 3635 S. 17Th St., city: Milwaukee, state: wi, zip: '53221'}
  description: Free summer meals for kids and teens (2026 season) — sponsored by Milwaukee Public School
    District.
  place: '5553000'
  geo: {lat: 42.97854, lng: -87.93517}
  phone: (414) 902-9919
  external_ids: {usda_master: Cycle 08_WI_SFSP_0495}
  sources:
  - usda/summer-meal-sites
  verified: {'on': '2026-07-19', method: api}
- id: wi/milwaukee/multi-cultural-counseling-services-dba-renew-cou
  name: Multi Cultural Counseling Services DBA Renew Counseling Services
  categories:
  - su-treatment
  - mh-treatment
  address:
    street: 2500 West Layton Avenue
    city: Milwaukee
    state: wi
    zip: '53221'
  place: '5553000'
  geo:
    lat: 42.9599
    lng: -87.94572
  phone: 414-383-4455
  website: https://
  sources:
  - samhsa/findtreatment
  verified:
    'on': '2026-07-19'
    method: api
- id: wi/milwaukee/muslim-community-health-center-milwaukee
  name: Muslim Community & Health Center Milwaukee
  categories:
  - community-health-center
  address:
    street: 803 W Layton Ave
    city: Milwaukee
    state: wi
    zip: '53221'
  place: '5553000'
  geo:
    lat: 42.95689
    lng: -87.92235
  phone: 414-939-4411
  website: http://mchcwi.org/
  external_ids:
    bphc: BPS-LAL-035333
  sources:
  - hrsa/health-center-sites
  verified:
    'on': '2026-07-19'
    method: api
- id: wi/milwaukee/neighborhood-house
  name: Neighborhood House
  categories:
  - child-care
  address:
    street: 2819 W Richardson Pl
    city: Milwaukee
    state: wi
    zip: '53208'
  place: '5553000'
  geo:
    lat: 43.04249
    lng: -87.94958
  phone: 414-562-2929
  sources:
  - acf/head-start-locations
  verified:
    'on': '2026-07-19'
    method: api
- id: wi/milwaukee/next-door-29th-st
  name: Next Door-29th St.
  categories:
  - child-care
  address:
    street: 2545 N 29th St
    city: Milwaukee
    state: wi
    zip: '53210'
  place: '5553000'
  geo:
    lat: 43.0651
    lng: -87.95004
  phone: 414-562-2929
  sources:
  - acf/head-start-locations
  verified:
    'on': '2026-07-19'
    method: api
- id: wi/milwaukee/next-door-29th-street
  name: Next Door-29th Street
  categories:
  - child-care
  address:
    street: 2545 N 29th St
    city: Milwaukee
    state: wi
    zip: '53210'
  place: '5553000'
  geo:
    lat: 43.0651
    lng: -87.95004
  phone: 414-562-2929
  sources:
  - acf/head-start-locations
  verified:
    'on': '2026-07-19'
    method: api
- id: wi/milwaukee/next-door-capitol
  name: Next Door-Capitol
  categories:
  - child-care
  address:
    street: 5310 W Capitol Dr
    city: Milwaukee
    state: wi
    zip: '53216'
  place: '5553000'
  geo:
    lat: 43.09046
    lng: -87.98008
  phone: 414-562-2929
  sources:
  - acf/head-start-locations
  verified:
    'on': '2026-07-19'
    method: api
- id: wi/milwaukee/next-door-capitol-drive
  name: Next Door-Capitol Drive
  categories:
  - child-care
  address:
    street: 5310 W Capitol Dr
    city: Milwaukee
    state: wi
    zip: '53216'
  place: '5553000'
  geo:
    lat: 43.09085
    lng: -87.98004
  phone: 414-562-2929
  sources:
  - acf/head-start-locations
  verified:
    'on': '2026-07-19'
    method: api
- id: wi/milwaukee/next-door-malaika
  name: Next Door-Malaika
  categories:
  - child-care
  address:
    street: 125 W Auer Ave
    city: Milwaukee
    state: wi
    zip: '53212'
  place: '5553000'
  geo:
    lat: 43.07603
    lng: -87.91157
  phone: 414-562-2929
  sources:
  - acf/head-start-locations
  verified:
    'on': '2026-07-19'
    method: api
- id: wi/milwaukee/north-division-hi
  name: North Division Hi
  categories:
  - meal-program
  address: {street: 1011 W Center St, city: Milwaukee, state: wi, zip: '53206'}
  description: Free summer meals for kids and teens (2026 season) — sponsored by Milwaukee Public School
    District.
  place: '5553000'
  geo: {lat: 43.06762, lng: -87.92508}
  phone: (414) 267-4919
  external_ids: {usda_master: Cycle 08_WI_SFSP_0473}
  sources:
  - usda/summer-meal-sites
  verified: {'on': '2026-07-19', method: api}
- id: wi/milwaukee/nystrom-and-associates
  name: Nystrom and Associates
  categories:
  - su-treatment
  - mh-treatment
  address:
    street: 4131 West Loomis Road
    city: Milwaukee
    state: wi
    zip: '53221'
  place: '5553000'
  geo:
    lat: 42.96371
    lng: -87.96589
  phone: 414-424-2445
  website: https://www.nystromcounseling.com
  sources:
  - samhsa/findtreatment
  verified:
    'on': '2026-07-19'
    method: api
- id: wi/milwaukee/o-w-holmes
  name: O. W. Holmes
  categories:
  - child-care
  address:
    street: 2463 N Buffum St
    city: Milwaukee
    state: wi
    zip: '53212'
  place: '5553000'
  geo:
    lat: 43.06339
    lng: -87.90728
  phone: 414-267-1300
  sources:
  - acf/head-start-locations
  verified:
    'on': '2026-07-19'
    method: api
- id: wi/milwaukee/o-w-holmes-school
  name: O.W. Holmes School
  categories:
  - meal-program
  address: {street: 2463 N Buffum St, city: Milwaukee, state: wi, zip: '53212'}
  description: Free summer meals for kids and teens (2026 season) — sponsored by Milwaukee Center for
    Independence.
  place: '5553000'
  geo: {lat: 43.06344, lng: -87.9066}
  phone: (414) 267-1305
  external_ids: {usda_master: Cycle 05_WI_SFSP_0425}
  sources:
  - usda/summer-meal-sites
  verified: {'on': '2026-07-19', method: api}
- id: wi/milwaukee/obama-scte
  name: Obama Scte
  categories:
  - meal-program
  address: {street: 5075 N. Sherman, city: Milwaukee, state: wi, zip: '53209'}
  description: Free summer meals for kids and teens (2026 season) — sponsored by Milwaukee Public School
    District.
  place: '5553000'
  geo: {lat: 43.10981, lng: -87.9666}
  phone: (414) 393-4919
  external_ids: {usda_master: Cycle 08_WI_SFSP_0554}
  sources:
  - usda/summer-meal-sites
  verified: {'on': '2026-07-19', method: api}
- id: wi/milwaukee/our-next-generation
  name: Our Next Generation
  categories:
  - meal-program
  address: {street: 3421 W Lisbon Ave, city: Milwaukee, state: wi, zip: '53208'}
  description: Free summer meals for kids and teens (2026 season) — sponsored by Milwaukee Center for
    Independence.
  place: '5553000'
  geo: {lat: 43.05458, lng: -87.9572}
  phone: (414) 344-2111
  external_ids: {usda_master: Cycle 05_WI_SFSP_0331}
  sources:
  - usda/summer-meal-sites
  verified: {'on': '2026-07-19', method: api}
- id: wi/milwaukee/outreach-community-health-centers-incorporated
  name: Outreach Community Health Centers, Incorporated
  categories:
  - community-health-center
  address:
    street: 711 W Capitol Dr
    city: Milwaukee
    state: wi
    zip: '53206'
  place: '5553000'
  geo:
    lat: 43.08908
    lng: -87.92008
  phone: 414-374-2400
  website: https://www.ochc-milw.org
  external_ids:
    bphc: BPS-H80-002469
  sources:
  - hrsa/health-center-sites
  verified:
    'on': '2026-07-19'
    method: api
- id: wi/milwaukee/penfield-children-s-center
  name: Penfield Children's Center
  categories:
  - child-care
  address:
    street: 833 N 26th St
    city: Milwaukee
    state: wi
    zip: '53233'
  place: '5553000'
  geo:
    lat: 43.04104
    lng: -87.94699
  sources:
  - acf/head-start-locations
  verified:
    'on': '2026-07-19'
    method: api
- id: wi/milwaukee/pieper-hillside-bgc
  name: Pieper-Hillside Bgc
  categories:
  - meal-program
  address: {street: 611 W. Cherry St, city: Milwaukee, state: wi, zip: '53212'}
  description: Free summer meals for kids and teens (2026 season) — sponsored by Boys & Girls Clubs of
    Greater Milwaukee.
  place: '5553000'
  geo: {lat: 43.04996, lng: -87.91927}
  phone: (414) 291-0347
  external_ids: {usda_master: Cycle 08_WI_SFSP_1058}
  sources:
  - usda/summer-meal-sites
  verified: {'on': '2026-07-19', method: api}
- id: wi/milwaukee/pulaski-hi
  name: Pulaski Hi
  categories:
  - meal-program
  address: {street: 2500 W. Oklahoma Ave., city: Milwaukee, state: wi, zip: '53215'}
  description: Free summer meals for kids and teens (2026 season) — sponsored by Milwaukee Public School
    District.
  place: '5553000'
  geo: {lat: 42.98856, lng: -87.9457}
  phone: (414) 902-8919
  external_ids: {usda_master: Cycle 08_WI_SFSP_0565}
  sources:
  - usda/summer-meal-sites
  verified: {'on': '2026-07-19', method: api}
- id: wi/milwaukee/rawhide-inc-youth-and-family-counseling
  name: Rawhide Inc Youth and Family Counseling
  categories:
  - su-treatment
  - mh-treatment
  address:
    street: 143 East Lincoln Avenue
    city: Milwaukee
    state: wi
    zip: '53207'
  place: '5553000'
  geo:
    lat: 43.0019
    lng: -87.90974
  phone: 877-300-9101
  website: https://www.rawhide.org
  sources:
  - samhsa/findtreatment
  verified:
    'on': '2026-07-19'
    method: api
- id: wi/milwaukee/rawhide-inc-youth-and-family-counseling-2
  name: Rawhide Inc Youth and Family Counseling
  categories:
  - su-treatment
  - mh-treatment
  address:
    street: 5555 North Port Washington Road
    city: Milwaukee
    state: wi
    zip: '53217'
  place: '5553000'
  geo:
    lat: 43.11744
    lng: -87.91732
  phone: 877-300-9101
  website: https://www.rawhide.org
  sources:
  - samhsa/findtreatment
  verified:
    'on': '2026-07-19'
    method: api
- id: wi/milwaukee/reach-inc-comprehensive-menth-health-clinic
  name: Reach Inc Comprehensive Menth Health Clinic
  categories:
  - su-treatment
  - mh-treatment
  address:
    street: 4550 West Bradley Road
    city: Milwaukee
    state: wi
    zip: '53223'
  place: '5553000'
  geo:
    lat: 43.16345
    lng: -87.96889
  phone: 414-371-1600
  website: https://www.reachclinic.org
  sources:
  - samhsa/findtreatment
  verified:
    'on': '2026-07-19'
    method: api
- id: wi/milwaukee/resource-and-beyond
  name: Resource And Beyond
  categories:
  - meal-program
  address: {street: 8704 W. Brown Deer Rd., city: Milwaukee, state: wi, zip: '53223'}
  description: Free summer meals for kids and teens (2026 season) — sponsored by The Salvation Army -
    Milwaukee.
  place: '5553000'
  geo: {lat: 43.17788, lng: -88.0195}
  phone: (414) 795-8772
  external_ids: {usda_master: Cycle 01_WI_SFSP_0454}
  sources:
  - usda/summer-meal-sites
  verified: {'on': '2026-07-19', method: api}
- id: wi/milwaukee/resources-beyond-crossover-center
  name: Resources & Beyond @ Crossover Center
  categories:
  - meal-program
  address: {street: 9155 N 76Th St, city: Milwaukee, state: wi, zip: '53223'}
  description: Free summer meals for kids and teens (2026 season) — sponsored by Milwaukee Center for
    Independence.
  place: '5553000'
  geo: {lat: 43.18529, lng: -88.00445}
  phone: (414) 795-8772
  external_ids: {usda_master: Cycle 05_WI_SFSP_0401}
  sources:
  - usda/summer-meal-sites
  verified: {'on': '2026-07-19', method: api}
- id: wi/milwaukee/riley-dual-language-montessori
  name: Riley Dual Language Montessori
  categories:
  - meal-program
  address: {street: 2424 S 4Th St, city: Milwaukee, state: wi, zip: '53207'}
  description: Free summer meals for kids and teens (2026 season) — sponsored by Milwaukee Center for
    Independence.
  place: '5553000'
  geo: {lat: 43.00083, lng: -87.91491}
  phone: (414) 902-7198
  external_ids: {usda_master: Cycle 05_WI_SFSP_0426}
  sources:
  - usda/summer-meal-sites
  verified: {'on': '2026-07-19', method: api}
- id: wi/milwaukee/risen-savior-lutheran-youth-haven
  name: Risen Savior Lutheran Youth Haven
  categories:
  - meal-program
  address: {street: 9550 W Brown Deer Road, city: Milwaukee, state: wi, zip: '53224'}
  description: Free summer meals for kids and teens (2026 season) — sponsored by Milwaukee Center for
    Independence.
  place: '5553000'
  geo: {lat: 43.17779, lng: -88.02992}
  phone: (414) 354-7320
  external_ids: {usda_master: Cycle 05_WI_SFSP_0667}
  sources:
  - usda/summer-meal-sites
  verified: {'on': '2026-07-19', method: api}
- id: wi/milwaukee/rivers-shore-comprehensive-treatment-c-milwaukee
  name: Rivers Shore Comprehensive Treatment C Milwaukee Health Services System LLC
  categories:
  - su-treatment
  address:
    street: 3707 North Richards Street
    city: Milwaukee
    state: wi
    zip: '53212'
  place: '5553000'
  geo:
    lat: 43.08432
    lng: -87.9082
  phone: 414-967-7006
  website: https://www.ctcprograms.com/
  sources:
  - samhsa/findtreatment
  verified:
    'on': '2026-07-19'
    method: api
- id: wi/milwaukee/riverwest-formerly-known-as-pierce
  name: Riverwest (formerly known as Pierce)
  categories:
  - child-care
  address:
    street: 2765 N Fratney St
    city: Milwaukee
    state: wi
    zip: '53212'
  place: '5553000'
  geo:
    lat: 43.06891
    lng: -87.90188
  phone: 414-267-4400
  sources:
  - acf/head-start-locations
  verified:
    'on': '2026-07-19'
    method: api
- id: wi/milwaukee/rogers-behavioral-health-brown-deer
  name: Rogers Behavioral Health Brown Deer
  categories:
  - su-treatment
  - mh-treatment
  address:
    street: 4600 West Schroeder Drive
    city: Milwaukee
    state: wi
    zip: '53223'
  place: '5553000'
  geo:
    lat: 43.18714
    lng: -87.96767
  phone: 414-865-2500
  website: https://www.rogersbh.org
  sources:
  - samhsa/findtreatment
  verified:
    'on': '2026-07-19'
    method: api
- id: wi/milwaukee/rogers-behavioral-health-lincoln-outpatient-cent
  name: Rogers Behavioral Health Lincoln Outpatient Center
  categories:
  - su-treatment
  - mh-treatment
  address:
    street: 2448 South 102nd Street
    city: Milwaukee
    state: wi
    zip: '53227'
  place: '5553000'
  geo:
    lat: 42.99954
    lng: -88.04124
  phone: 414-539-3030
  website: https://www.rogersbh.org
  sources:
  - samhsa/findtreatment
  verified:
    'on': '2026-07-19'
    method: api
- id: wi/milwaukee/rogers-behavioral-health-outpatient-center
  name: Rogers Behavioral Health Outpatient Center
  categories:
  - su-treatment
  - mh-treatment
  address:
    street: 4555 West Schroeder Drive
    city: Milwaukee
    state: wi
    zip: '53223'
  place: '5553000'
  geo:
    lat: 43.1857
    lng: -87.96771
  phone: 414-355-9000
  website: https://www.rogersbh.org
  sources:
  - samhsa/findtreatment
  verified:
    'on': '2026-07-19'
    method: api
- id: wi/milwaukee/rogers-behavioral-health-west-allis
  name: Rogers Behavioral Health West Allis
  categories:
  - su-treatment
  - mh-treatment
  address:
    street: 11101 West Lincoln Avenue
    city: Milwaukee
    state: wi
    zip: '53227'
  place: '5553000'
  geo:
    lat: 43.00144
    lng: -88.05128
  phone: 414-327-3000
  website: https://www.rogersbh.org
  sources:
  - samhsa/findtreatment
  verified:
    'on': '2026-07-19'
    method: api
- id: wi/milwaukee/rogers-street-acad
  name: Rogers Street Acad
  categories:
  - meal-program
  address: {street: 2430 W Rogers St, city: Milwaukee, state: wi, zip: '53204'}
  description: Free summer meals for kids and teens (2026 season) — sponsored by Milwaukee Public School
    District.
  place: '5553000'
  geo: {lat: 43.00858, lng: -87.94476}
  phone: (414) 902-1119
  external_ids: {usda_master: Cycle 08_WI_SFSP_0481}
  sources:
  - usda/summer-meal-sites
  verified: {'on': '2026-07-19', method: api}
- id: wi/milwaukee/roots-counseling-services-llc
  name: Roots Counseling Services LLC
  categories:
  - su-treatment
  address:
    street: 4485 North Oakland Avenue
    city: Milwaukee
    state: wi
    zip: '53211'
  place: '5553000'
  geo:
    lat: 43.09798
    lng: -87.88767
  phone: 414-273-8484
  website: https://www.rootsrecovery.org
  sources:
  - samhsa/findtreatment
  verified:
    'on': '2026-07-19'
    method: api
- id: wi/milwaukee/salvation-army-clinic
  name: Salvation Army Clinic
  categories:
  - community-health-center
  address:
    street: 1730 N 7th St
    city: Milwaukee
    state: wi
    zip: '53205'
  place: '5553000'
  geo:
    lat: 43.05376
    lng: -87.91947
  phone: 414-765-6360
  website: http://usc.salvationarmy.org/usc/www_usc_greatermilwaukee.nsf/vw-sublinks/EF43865DCFE6BDBB86257900007F6AA8?openDocument
  external_ids:
    bphc: BPS-H80-003734
  sources:
  - hrsa/health-center-sites
  verified:
    'on': '2026-07-19'
    method: api
- id: wi/milwaukee/salvation-army-distribution-center
  name: Salvation Army Distribution Center
  categories:
  - meal-program
  address: {street: 5880 N 60Th St, city: Milwaukee, state: wi, zip: '53218'}
  description: Free summer meals for kids and teens (2026 season) — sponsored by The Salvation Army -
    Milwaukee.
  place: '5553000'
  geo: {lat: 43.12454, lng: -87.98587}
  phone: (414) 464-2940
  external_ids: {usda_master: Cycle 01_WI_SFSP_0459}
  sources:
  - usda/summer-meal-sites
  verified: {'on': '2026-07-19', method: api}
- id: wi/milwaukee/sherman-multicultrual-arts-school
  name: Sherman Multicultrual Arts School
  categories:
  - meal-program
  address: {street: 5110 W Locust St, city: Milwaukee, state: wi, zip: '53210'}
  description: Free summer meals for kids and teens (2026 season) — sponsored by Milwaukee Center for
    Independence.
  place: '5553000'
  geo: {lat: 43.07167, lng: -87.97799}
  phone: (414) 874-5814
  external_ids: {usda_master: Cycle 05_WI_SFSP_0623}
  sources:
  - usda/summer-meal-sites
  verified: {'on': '2026-07-19', method: api}
- id: wi/milwaukee/sherman-multicultural-arts
  name: Sherman Multicultural Arts
  categories:
  - child-care
  address:
    street: 5110 W Locust St
    city: Milwaukee
    state: wi
    zip: '53210'
  place: '5553000'
  geo:
    lat: 43.07255
    lng: -87.97799
  phone: 414-874-5800
  sources:
  - acf/head-start-locations
  verified:
    'on': '2026-07-19'
    method: api
- id: wi/milwaukee/sherman-multicultural-arts-school
  name: Sherman Multicultural Arts School
  categories:
  - meal-program
  address: {street: 5110 W Locust St, city: Milwaukee, state: wi, zip: '53210'}
  description: Free summer meals for kids and teens (2026 season) — sponsored by Milwaukee Center for
    Independence.
  place: '5553000'
  geo: {lat: 43.07167, lng: -87.97799}
  phone: (414) 874-5814
  external_ids: {usda_master: Cycle 09_WI_SFSP_0495}
  sources:
  - usda/summer-meal-sites
  verified: {'on': '2026-07-19', method: api}
- id: wi/milwaukee/siefert
  name: Siefert
  categories:
  - child-care
  address:
    street: 1547 N 14th St
    city: Milwaukee
    state: wi
    zip: '53205'
  place: '5553000'
  geo:
    lat: 43.05119
    lng: -87.93022
  phone: 414-935-1500
  sources:
  - acf/head-start-locations
  verified:
    'on': '2026-07-19'
    method: api
- id: wi/milwaukee/siefert-school
  name: Siefert School
  categories:
  - meal-program
  address: {street: 1547 N 14Th St, city: Milwaukee, state: wi, zip: '53205'}
  description: Free summer meals for kids and teens (2026 season) — sponsored by Milwaukee Center for
    Independence.
  place: '5553000'
  geo: {lat: 43.05116, lng: -87.93003}
  phone: (414) 935-1500
  external_ids: {usda_master: Cycle 05_WI_SFSP_0624}
  sources:
  - usda/summer-meal-sites
  verified: {'on': '2026-07-19', method: api}
