- id: wi/monona/eastmorland-little-free-food-pantry
  name: Eastmorland Little Free Food Pantry
  categories:
  - food-pantry
  place: '5553675'
  geo:
    lat: 43.09083
    lng: -89.32403
  website: https://mapping.littlefreepantry.org/pantry/5164
  external_ids:
    lfp: '5164'
  sources:
  - littlefreepantry/map
  verified:
    'on': '2026-07-19'
    method: scrape
- id: wi/monona/pax-lux-midwifery
  name: Pax & Lux Midwifery
  categories:
  - food-pantry
  place: '5553675'
  geo:
    lat: 43.07127
    lng: -89.32804
  website: https://mapping.littlefreepantry.org/pantry/3898
  external_ids:
    lfp: '3898'
  sources:
  - littlefreepantry/map
  verified:
    'on': '2026-07-19'
    method: scrape
- id: wi/monona/rhonda-moorehead
  name: Rhonda Moorehead
  categories:
  - food-pantry
  place: '5553675'
  geo:
    lat: 43.04839
    lng: -89.29934
  website: https://mapping.littlefreepantry.org/pantry/857
  external_ids:
    lfp: '857'
  sources:
  - littlefreepantry/map
  verified:
    'on': '2026-07-19'
    method: scrape
- id: wi/monona/the-vine-little-free-pantry
  name: The Vine Little Free Pantry
  categories:
  - food-pantry
  place: '5553675'
  geo:
    lat: 43.03605
    lng: -89.3973
  website: https://mapping.littlefreepantry.org/pantry/1592
  external_ids:
    lfp: '1592'
  sources:
  - littlefreepantry/map
  verified:
    'on': '2026-07-19'
    method: scrape
- id: wi/monona/wildwood-clinic-pantry
  name: Wildwood Clinic Pantry
  categories:
  - food-pantry
  place: '5553675'
  geo:
    lat: 43.08349
    lng: -89.2969
  website: https://mapping.littlefreepantry.org/pantry/1714
  external_ids:
    lfp: '1714'
  sources:
  - littlefreepantry/map
  verified:
    'on': '2026-07-19'
    method: scrape
