- id: wi/onalaska/ams-of-wisconsin-llc
  name: AMS of Wisconsin LLC
  categories:
  - su-treatment
  address:
    street: 9532 East 16 Frontage Road
    city: Onalaska
    state: wi
    zip: '54650'
  place: '5559925'
  geo:
    lat: 43.884
    lng: -91.17259
  phone: 608-783-0506 x106
  website: https://www.amswisconsin.com
  sources:
  - samhsa/findtreatment
  verified:
    'on': '2026-07-19'
    method: api
- id: wi/onalaska/emily-s-little-free-pantry
  name: Emily's little free pantry
  categories:
  - food-pantry
  place: '5559925'
  geo:
    lat: 43.8884
    lng: -91.21596
  external_ids:
    lfp: '577'
  sources:
  - littlefreepantry/map
  verified:
    'on': '2026-07-19'
    method: scrape
- id: wi/onalaska/gundersen-lutheran-medical-ctr-inc-behavioral-he
  name: Gundersen Lutheran Medical Ctr Inc Behavioral Health Department
  categories:
  - su-treatment
  - mh-treatment
  address:
    city: Onalaska
    state: wi
    zip: '54650'
  place: '5559925'
  phone: 608-775-8974
  website: https://www.gundersenhealth.org
  sources:
  - samhsa/findtreatment
  verified:
    'on': '2026-07-19'
    method: api
- id: wi/onalaska/helping-hearts-little-pantry
  name: Helping Hearts Little Pantry
  categories:
  - food-pantry
  place: '5559925'
  geo:
    lat: 43.88297
    lng: -91.23215
  external_ids:
    lfp: '1022'
  sources:
  - littlefreepantry/map
  verified:
    'on': '2026-07-19'
    method: scrape
- id: wi/onalaska/mayo-clinic-health-system-onalaska
  name: Mayo Clinic Health System Onalaska
  categories:
  - su-treatment
  - mh-treatment
  address:
    street: 191 Theater Road
    city: Onalaska
    state: wi
    zip: '54650'
  place: '5559925'
  geo:
    lat: 43.88002
    lng: -91.19787
  phone: 608-392-9555
  website: https://www.mayoclinichealthsystem.org/locations/onalaska
  sources:
  - samhsa/findtreatment
  verified:
    'on': '2026-07-19'
    method: api
- id: wi/onalaska/onalaska
  name: Onalaska
  categories:
  - child-care
  address:
    street: 212 4th Ave N
    city: Onalaska
    state: wi
    zip: '54650'
  place: '5559925'
  geo:
    lat: 43.88478
    lng: -91.23224
  phone: 608-783-6920
  sources:
  - acf/head-start-locations
  verified:
    'on': '2026-07-19'
    method: api
- id: wi/onalaska/onalaska-main-street-hs-and-ehs
  name: Onalaska Main Street HS and EHS
  categories:
  - child-care
  address:
    street: 310 Main St
    city: Onalaska
    state: wi
    zip: '54650'
  place: '5559925'
  geo:
    lat: 43.88291
    lng: -91.23283
  phone: 608-785-2070
  sources:
  - acf/head-start-locations
  verified:
    'on': '2026-07-19'
    method: api
