- id: wi/reedsburg/community-services-associates-pauquette-ctr-for
  name: Community Services Associates Pauquette Ctr for Psychological Servs
  categories:
  - su-treatment
  - mh-treatment
  address:
    street: 710 North Webb Avenue
    city: Reedsburg
    state: wi
    zip: '53959'
  place: '5566800'
  geo:
    lat: 43.54045
    lng: -90.00929
  phone: 608-524-5151
  website: https://www.paquette.com
  sources:
  - samhsa/findtreatment
  verified:
    'on': '2026-07-19'
    method: api
- id: wi/reedsburg/goodmans-behav-health-clinic-llc
  name: Goodmans Behav Health Clinic LLC
  categories:
  - su-treatment
  - mh-treatment
  address:
    street: 2213 East Main Street
    city: Reedsburg
    state: wi
    zip: '53959'
  place: '5566800'
  geo:
    lat: 43.53294
    lng: -89.97613
  phone: 608-768-4545
  website: https://
  sources:
  - samhsa/findtreatment
  verified:
    'on': '2026-07-19'
    method: api
- id: wi/reedsburg/reedsburg-area-learning-center
  name: Reedsburg Area Learning Center
  categories:
  - child-care
  address:
    street: 400 Alexander Ave
    city: Reedsburg
    state: wi
    zip: '53959'
  place: '5566800'
  geo:
    lat: 43.52933
    lng: -90.02602
  phone: 608-524-2700
  sources:
  - acf/head-start-locations
  verified:
    'on': '2026-07-19'
    method: api
- id: wi/reedsburg/scenic-bluffs-health-center-reedsburg
  name: Scenic Bluffs Health Center- Reedsburg
  categories:
  - community-health-center
  address:
    street: 1950 N Dewey Ave
    city: Reedsburg
    state: wi
    zip: '53959'
  place: '5566800'
  geo:
    lat: 43.54913
    lng: -89.99351
  phone: 608-654-5100
  external_ids:
    bphc: BPS-H80-039960
  sources:
  - hrsa/health-center-sites
  verified:
    'on': '2026-07-19'
    method: api
- id: wi/reedsburg/st-john-lutheran-little-free-pantry
  name: St. John Lutheran Little Free Pantry
  categories:
  - food-pantry
  place: '5566800'
  geo:
    lat: 43.5382
    lng: -90.00616
  external_ids:
    lfp: '4056'
  sources:
  - littlefreepantry/map
  verified:
    'on': '2026-07-19'
    method: scrape
