- id: wi/richland-center/community-services-associates-pauquette-ctr-for
  name: Community Services Associates Pauquette Ctr for Psychological Servs
  categories:
  - su-treatment
  - mh-treatment
  address:
    street: 23295 U.S. Highway 14
    city: Richland Center
    state: wi
    zip: '53581'
  place: '5567625'
  geo:
    lat: 43.34435
    lng: -90.40454
  phone: 608-405-5712
  website: https://www.pauquette.com
  sources:
  - samhsa/findtreatment
  verified:
    'on': '2026-07-19'
    method: api
- id: wi/richland-center/ithaca-school-rnc
  name: Ithaca School Rnc
  categories:
  - meal-program
  address:
    street: 24615 State Hwy 58
    city: Richland Center
    state: wi
    zip: '53581'
  description: Free summer meals for kids and teens (2026 season) — sponsored by Ithaca School District.
  place: '5567625'
  geo:
    lat: 43.34133
    lng: -90.28185
  phone: (608) 585-2512
  external_ids:
    usda_master: Cycle 01_WI_SFSP_0004
  sources:
  - usda/summer-meal-sites
  verified:
    'on': '2026-07-19'
    method: api
- id: wi/richland-center/richland-center-ehs-expansion-classroom
  name: Richland Center EHS Expansion Classroom
  categories:
  - child-care
  address:
    street: 586 N Main St
    city: Richland Center
    state: wi
    zip: '53581'
  place: '5567625'
  geo:
    lat: 43.33965
    lng: -90.38688
  phone: 608-935-3379
  sources:
  - acf/head-start-locations
  verified:
    'on': '2026-07-19'
    method: api
- id: wi/richland-center/richland-center-head-start
  name: Richland  Center Head Start
  categories:
  - child-care
  address:
    street: 586 N Main St
    street2: Jefferson Elementary School
    city: Richland Center
    state: wi
    zip: '53581'
  place: '5567625'
  geo:
    lat: 43.33965
    lng: -90.38688
  phone: 608-935-5422
  sources:
  - acf/head-start-locations
  verified:
    'on': '2026-07-19'
    method: api
- id: wi/richland-center/richland-center-housing-authority
  name: Richland Center Housing Authority
  categories:
  - housing-assistance
  address:
    street: 701 W Seminary St
    city: Richland Center
    state: wi
    zip: '53581'
  description: Public housing (Low-Rent) agency
  place: '5567625'
  geo:
    lat: 43.33453
    lng: -90.3917
  phone: 608-647-4877
  sources:
  - hud/resource-locator
  verified:
    'on': '2026-07-19'
    method: api
- id: wi/richland-center/richland-cnty-hlth-and-human-servs
  name: Richland Cnty Hlth and Human Servs
  categories:
  - su-treatment
  - mh-treatment
  address:
    street: 221 West Seminary Street
    city: Richland Center
    state: wi
    zip: '53581'
  place: '5567625'
  geo:
    lat: 43.3344
    lng: -90.38705
  phone: 608-647-8821
  website: https://www.co.richland.wi.us
  sources:
  - samhsa/findtreatment
  verified:
    'on': '2026-07-19'
    method: api
- id: wi/richland-center/richland-county-housing-authority
  name: Richland County Housing Authority
  categories:
  - housing-assistance
  address:
    street: 290 W Union St
    city: Richland Center
    state: wi
    zip: '53581'
  description: Housing Choice Voucher (Section 8) agency
  place: '5567625'
  geo:
    lat: 43.33754
    lng: -90.38767
  phone: 608-647-3214
  sources:
  - hud/resource-locator
  verified:
    'on': '2026-07-19'
    method: api
