- id: wi/stoughton/blessing-box
  name: Blessing Box
  categories:
  - food-pantry
  place: '5577675'
  geo:
    lat: 42.93265
    lng: -89.23561
  website: https://mapping.littlefreepantry.org/pantry/3866
  external_ids:
    lfp: '3866'
  sources:
  - littlefreepantry/map
  verified:
    'on': '2026-07-19'
    method: scrape
- id: wi/stoughton/north-street-blessing-box
  name: North Street Blessing Box
  categories:
  - food-pantry
  place: '5577675'
  geo:
    lat: 42.91842
    lng: -89.21963
  website: https://mapping.littlefreepantry.org/pantry/6055
  external_ids:
    lfp: '6055'
  sources:
  - littlefreepantry/map
  verified:
    'on': '2026-07-19'
    method: scrape
- id: wi/stoughton/stoughton-area-community-cupboard
  name: Stoughton Area Community Cupboard
  categories:
  - food-pantry
  place: '5577675'
  geo:
    lat: 42.91454
    lng: -89.23604
  website: https://mapping.littlefreepantry.org/pantry/1666
  external_ids:
    lfp: '1666'
  sources:
  - littlefreepantry/map
  verified:
    'on': '2026-07-19'
    method: scrape
- id: wi/stoughton/stoughton-head-start
  name: Stoughton Head Start
  categories:
  - child-care
  address:
    street: 315 Mandt Pkwy
    city: Stoughton
    state: wi
    zip: '53589'
  description: Head Start early childhood program — 11 funded slots; operated by Dane County Parent Council,
    Inc..
  place: '5577675'
  geo:
    lat: 42.91054
    lng: -89.21738
  phone: 608-877-0466
  sources:
  - acf/head-start-locations
  verified:
    'on': '2026-07-19'
    method: api
- id: wi/stoughton/stoughton-hospital-association
  name: Stoughton Hospital Association
  categories:
  - su-treatment
  - mh-treatment
  address:
    street: 900 Ridge Street
    city: Stoughton
    state: wi
    zip: '53589'
  place: '5577675'
  geo:
    lat: 42.92076
    lng: -89.21027
  phone: 608-873-6611
  website: https://stoughtonhealth.com
  services:
  - Hospital inpatient/24-hour hospital inpatient
  - Seniors or older adults
  - Veterans
  - Clients who have experienced intimate partner violence, domestic violence
  - Clients who have experienced trauma
  - Persons with Alzheimer's or dementia
  - Persons experiencing first-episode psychosis
  - Persons with post-traumatic stress disorder (PTSD)
  eligibility: Serves adults, seniors.
  cost: varies
  sources:
  - samhsa/findtreatment
  verified:
    'on': '2026-07-19'
    method: api
