- id: wi/stoughton/blessing-box
  name: Blessing Box
  categories:
  - food-pantry
  place: '5577675'
  geo:
    lat: 42.93265
    lng: -89.23561
  external_ids:
    lfp: '3866'
  sources:
  - littlefreepantry/map
  verified:
    'on': '2026-07-19'
    method: scrape
- id: wi/stoughton/north-street-blessing-box
  name: North Street Blessing Box
  categories:
  - food-pantry
  place: '5577675'
  geo:
    lat: 42.91842
    lng: -89.21963
  external_ids:
    lfp: '6055'
  sources:
  - littlefreepantry/map
  verified:
    'on': '2026-07-19'
    method: scrape
- id: wi/stoughton/stoughton-area-community-cupboard
  name: Stoughton Area Community Cupboard
  categories:
  - food-pantry
  place: '5577675'
  geo:
    lat: 42.91454
    lng: -89.23604
  external_ids:
    lfp: '1666'
  sources:
  - littlefreepantry/map
  verified:
    'on': '2026-07-19'
    method: scrape
- id: wi/stoughton/stoughton-head-start
  name: Stoughton Head Start
  categories:
  - child-care
  address:
    street: 315 Mandt Pkwy
    city: Stoughton
    state: wi
    zip: '53589'
  place: '5577675'
  geo:
    lat: 42.91054
    lng: -89.21738
  phone: 608-877-0466
  sources:
  - acf/head-start-locations
  verified:
    'on': '2026-07-19'
    method: api
- id: wi/stoughton/stoughton-hospital-association
  name: Stoughton Hospital Association
  categories:
  - su-treatment
  - mh-treatment
  address:
    street: 900 Ridge Street
    city: Stoughton
    state: wi
    zip: '53589'
  place: '5577675'
  geo:
    lat: 42.92076
    lng: -89.21027
  phone: 608-873-6611
  website: https://stoughtonhealth.com
  sources:
  - samhsa/findtreatment
  verified:
    'on': '2026-07-19'
    method: api
