- id: wi/sun-prairie/children-s-dental-center-sun-prairie
  name: Children's Dental Center - Sun Prairie
  categories:
  - community-health-center
  cost: sliding-scale
  address: {street: 250 N City Station Dr, city: Sun Prairie, state: wi, zip: '53590'}
  place: '5578600'
  geo: {lat: 43.17741, lng: -89.26657}
  phone: 608-453-5600
  external_ids: {bphc: BPS-H80-041342}
  sources:
  - hrsa/health-center-sites
  verified: {'on': '2026-07-19', method: api}
- id: wi/sun-prairie/first-care-clinic-sun-prairie
  name: First Care Clinic (Sun Prairie)
  categories:
  - free-clinic
  - health
  address: {street: 1632 W Main St, city: Sun Prairie, state: wi, zip: '53590'}
  geo: {lat: 43.17834, lng: -89.24115}
  place: '5578600'
  phone: 608-259-1605
  website: https://firstcareclinic.org/medical-services/
  cost: free
  external_ids: {nafc: first-care-clinic-sun-prairie}
  sources:
  - nafc/find-a-clinic
  verified: {'on': '2026-07-21', method: scrape}
- id: wi/sun-prairie/great-beginnings-sun-prairie
  name: Great Beginnings Sun Prairie
  categories:
  - child-care
  address: {street: 1510 W Main St, city: Sun Prairie, state: wi, zip: '53590'}
  description: Head Start early childhood program — 8 funded slots; operated by Dane County Parent Council,
    Inc..
  place: '5578600'
  geo: {lat: 43.17889, lng: -89.23823}
  phone: 608-318-0011
  sources:
  - acf/head-start-locations
  verified: {'on': '2026-07-19', method: api}
- id: wi/sun-prairie/mckenzie-family-boys-girls-club
  name: McKenzie Family Boys & Girls Club
  categories:
  - family-youth
  description: Boys & Girls Club
  address: {street: 232 Windsor St, city: Sun Prairie, state: wi, zip: '53590'}
  geo: {lat: 43.1881, lng: -89.21599}
  place: '5578600'
  phone: 608-661-4570
  website: http://www.bgcdc.org
  services:
  - Teen center
  - Summer programs
  - Meals
  external_ids: {bgca_site: '9845', bgca_org: '10499'}
  sources:
  - bgca/find-a-club
  verified: {'on': '2026-07-21', method: api}
- id: wi/sun-prairie/prairie-counseling-services
  name: Prairie Counseling Services
  categories:
  - su-treatment
  - mh-treatment
  address: {street: 1460 West Main Street, city: Sun Prairie, state: wi, zip: '53590'}
  place: '5578600'
  geo: {lat: 43.17925, lng: -89.23783}
  phone: 608-837-4814
  website: https://www.prairiecounseling.com
  services:
  - Outpatient
  - Regular outpatient treatment
  eligibility: Serves children/adolescents, young adults, adults, seniors.
  cost: varies
  sources:
  - samhsa/findtreatment
  verified: {'on': '2026-07-19', method: api}
- id: wi/sun-prairie/sun-prairie-clinic
  name: Sun Prairie Clinic
  categories:
  - community-health-center
  cost: sliding-scale
  address: {street: 1270 W Main St, city: Sun Prairie, state: wi, zip: '53590'}
  place: '5578600'
  geo: {lat: 43.17996, lng: -89.23504}
  phone: 608-443-5482
  external_ids: {bphc: BPS-H80-010312}
  sources:
  - hrsa/health-center-sites
  verified: {'on': '2026-07-19', method: api}
