- id: wi/tomah/ahuco
  name: Ahuco
  categories:
  - child-care
  address:
    street: 321 Epoch Ave
    city: Tomah
    state: wi
    zip: '54660'
  place: '5580075'
  geo:
    lat: 44.0356
    lng: -90.42537
  phone: 608-372-6669
  sources:
  - acf/head-start-locations
  verified:
    'on': '2026-07-19'
    method: api
- id: wi/tomah/gundersen-lutheran-medical-ctr-inc-behavioral-he
  name: Gundersen Lutheran Medical Ctr Inc Behavioral Health Department
  categories:
  - su-treatment
  - mh-treatment
  address:
    city: Tomah
    state: wi
    zip: '54660'
  place: '5580075'
  phone: 608-374-3853
  website: https://www.gundersenhealth.org
  sources:
  - samhsa/findtreatment
  verified:
    'on': '2026-07-19'
    method: api
- id: wi/tomah/mayo-clinic-health-system-tomah-clinic
  name: Mayo Clinic Health System Tomah Clinic
  categories:
  - su-treatment
  - mh-treatment
  address:
    street: 325 Butts Avenue
    city: Tomah
    state: wi
    zip: '54660'
  place: '5580075'
  geo:
    lat: 43.98352
    lng: -90.51548
  phone: 608-392-9555
  website: https://www.mayoclinichealthsystem.org/locations/tomah
  sources:
  - samhsa/findtreatment
  verified:
    'on': '2026-07-19'
    method: api
- id: wi/tomah/tomah-center
  name: Tomah Center
  categories:
  - child-care
  address:
    street: 402 Pine St
    city: Tomah
    state: wi
    zip: '54660'
  place: '5580075'
  geo:
    lat: 43.99297
    lng: -90.49927
  phone: 608-372-3781
  sources:
  - acf/head-start-locations
  verified:
    'on': '2026-07-19'
    method: api
- id: wi/tomah/tomah-public-housing-authority
  name: Tomah Public Housing Authority
  categories:
  - housing-assistance
  address: {street: 720 Williams St, city: Tomah, state: wi, zip: '54660'}
  description: Public housing and Housing Choice Voucher agency
  place: '5580075'
  geo: {lat: 43.98648, lng: -90.51463}
  phone: 608-374-7455
  sources:
  - hud/resource-locator
  verified: {'on': '2026-07-19', method: api}
- id: wi/tomah/tomah-vamc-mental-health-service-line
  name: Tomah VAMC Mental Health Service Line
  categories:
  - su-treatment
  - mh-treatment
  address:
    street: 500 East Veterans Street
    city: Tomah
    state: wi
    zip: '54660'
  place: '5580075'
  geo:
    lat: 44.00338
    lng: -90.49389
  phone: 608-372-3971
  website: https://www.va.gov/tomah-health-care/locations/tomah-va-medical-center/
  sources:
  - samhsa/findtreatment
  verified:
    'on': '2026-07-19'
    method: api
