- id: wi/waukesha-4250/ana-s-community-pantry
  name: Ana's Community Pantry
  categories:
  - food-pantry
  place: '5584250'
  geo:
    lat: 43.01249
    lng: -88.22362
  external_ids:
    lfp: '1576'
  sources:
  - littlefreepantry/map
  verified:
    'on': '2026-07-19'
    method: scrape
- id: wi/waukesha-4250/ascension-lutheran-church
  name: Ascension Lutheran Church
  categories:
  - food-pantry
  place: '5584250'
  geo:
    lat: 43.00901
    lng: -88.25261
  external_ids:
    lfp: '499'
  sources:
  - littlefreepantry/map
  verified:
    'on': '2026-07-19'
    method: scrape
- id: wi/waukesha-4250/banting-elementary-school
  name: Banting Elementary School
  categories:
  - meal-program
  address:
    street: 2019 Butler Drive
    city: Waukesha
    state: wi
    zip: '53186'
  description: Free summer meals for kids and teens (2026 season) — sponsored by Waukesha School District.
  place: '5584250'
  geo:
    lat: 43.02896
    lng: -88.20629
  phone: (262) 970-1210
  external_ids:
    usda_master: Cycle 01_WI_SFSP_0375
  sources:
  - usda/summer-meal-sites
  verified:
    'on': '2026-07-19'
    method: api
- id: wi/waukesha-4250/blessing-box
  name: Blessing Box
  categories:
  - food-pantry
  place: '5584250'
  geo:
    lat: 43.01688
    lng: -88.26037
  external_ids:
    lfp: '1389'
  sources:
  - littlefreepantry/map
  verified:
    'on': '2026-07-19'
    method: scrape
- id: wi/waukesha-4250/cleanslate-centers-waukesha
  name: CleanSlate Centers Waukesha
  categories:
  - su-treatment
  address:
    street: 20611 Watertown Road
    city: Waukesha
    state: wi
    zip: '53186'
  place: '5584250'
  geo:
    lat: 43.03781
    lng: -88.17002
  phone: 262-901-4450
  website: https://www.cleanslatecenters.com
  sources:
  - samhsa/findtreatment
  verified:
    'on': '2026-07-19'
    method: api
- id: wi/waukesha-4250/denoon-recovery-center
  name: Denoon Recovery Center
  categories:
  - su-treatment
  - mh-treatment
  address:
    street: S22W22660 East Broadway Street
    city: Waukesha
    state: wi
    zip: '53186'
  place: '5584250'
  geo:
    lat: 43.00428
    lng: -88.20022
  phone: 262-933-4242
  website: https://www.denoonrecovery.com/
  sources:
  - samhsa/findtreatment
  verified:
    'on': '2026-07-19'
    method: api
- id: wi/waukesha-4250/efficiency-management-consulting-dba-a-healing-c
  name: Efficiency Management Consulting DBA A Healing Center
  categories:
  - su-treatment
  - mh-treatment
  address:
    street: 20860 Watertown Road
    city: Waukesha
    state: wi
    zip: '53186'
  place: '5584250'
  geo:
    lat: 43.03915
    lng: -88.17226
  phone: 262-821-6117
  website: https://
  sources:
  - samhsa/findtreatment
  verified:
    'on': '2026-07-19'
    method: api
- id: wi/waukesha-4250/family-services-of-waukesha
  name: Family Services of Waukesha
  categories:
  - mh-treatment
  address:
    street: 2727 North Grandview Boulevard
    city: Waukesha
    state: wi
    zip: '53188'
  place: '5584250'
  geo:
    lat: 43.04199
    lng: -88.25548
  phone: 262-547-5567
  website: https://www.fswaukesha.org
  sources:
  - samhsa/findtreatment
  verified:
    'on': '2026-07-19'
    method: api
- id: wi/waukesha-4250/family-services-of-waukesha-youth-clinic
  name: Family Services of Waukesha Youth Clinic
  categories:
  - mh-treatment
  address:
    street: 2727 North Grandview Boulevard
    city: Waukesha
    state: wi
    zip: '53188'
  place: '5584250'
  geo:
    lat: 43.04199
    lng: -88.25548
  phone: 262-544-9622
  website: https://www.fswaukesha.org
  sources:
  - samhsa/findtreatment
  verified:
    'on': '2026-07-19'
    method: api
- id: wi/waukesha-4250/heyer-elementary-school
  name: Heyer Elementary School
  categories:
  - meal-program
  address:
    street: 1209 Heyer Drive
    city: Waukesha
    state: wi
    zip: '53186'
  description: Free summer meals for kids and teens (2026 season) — sponsored by Waukesha School District.
  place: '5584250'
  geo:
    lat: 42.98985
    lng: -88.21177
  phone: (262) 970-1710
  external_ids:
    usda_master: Cycle 01_WI_SFSP_0492
  sources:
  - usda/summer-meal-sites
  verified:
    'on': '2026-07-19'
    method: api
- id: wi/waukesha-4250/iris-health-clinic
  name: Iris Health Clinic
  categories:
  - su-treatment
  address:
    street: 255 West Broadway
    city: Waukesha
    state: wi
    zip: '53186'
  place: '5584250'
  phone: 262-701-7257
  website: https://www.irishealthclinic.com
  sources:
  - samhsa/findtreatment
  verified:
    'on': '2026-07-19'
    method: api
- id: wi/waukesha-4250/la-casa-de-esperanza-inc
  name: La Casa de Esperanza, Inc.
  categories:
  - child-care
  address:
    street: 410 Arcadian Ave
    city: Waukesha
    state: wi
    zip: '53186'
  place: '5584250'
  geo:
    lat: 43.01201
    lng: -88.22289
  phone: 262-547-0887
  sources:
  - acf/head-start-locations
  verified:
    'on': '2026-07-19'
    method: api
- id: wi/waukesha-4250/little-food-pantry
  name: Little Food Pantry
  categories:
  - food-pantry
  place: '5584250'
  geo:
    lat: 42.98951
    lng: -88.24473
  external_ids:
    lfp: '2480'
  sources:
  - littlefreepantry/map
  verified:
    'on': '2026-07-19'
    method: scrape
- id: wi/waukesha-4250/national-centers-for-learning-excellence-inc
  name: National Centers for Learning Excellence, Inc
  categories:
  - child-care
  address:
    street: N4W22000 Bluemound Rd
    city: Waukesha
    state: wi
    zip: '53186'
  place: '5584250'
  geo:
    lat: 43.03694
    lng: -88.18704
  phone: 262-548-8080
  sources:
  - acf/head-start-locations
  verified:
    'on': '2026-07-19'
    method: api
- id: wi/waukesha-4250/newport-academy-teen-and-adolescent-outpatient
  name: Newport Academy Teen and Adolescent Outpatient
  categories:
  - su-treatment
  - mh-treatment
  address:
    street: N19 W24101 Riverwood Drive
    city: Waukesha
    state: wi
    zip: '53188'
  place: '5584250'
  geo:
    lat: 43.05644
    lng: -88.22705
  phone: 877-820-6371
  website: https://www.newportacademy.com
  sources:
  - samhsa/findtreatment
  verified:
    'on': '2026-07-19'
    method: api
- id: wi/waukesha-4250/prohealth-care-behavioral-health-services
  name: ProHealth Care Behavioral Health Services
  categories:
  - su-treatment
  - mh-treatment
  address:
    street: 721 American Avenue
    city: Waukesha
    state: wi
    zip: '53188'
  place: '5584250'
  geo:
    lat: 43.01087
    lng: -88.24231
  phone: 262-928-4036
  website: https://prohealthcare.org
  sources:
  - samhsa/findtreatment
  verified:
    'on': '2026-07-19'
    method: api
- id: wi/waukesha-4250/prohealth-care-behavioral-health-services-2
  name: ProHealth Care Behavioral Health Services
  categories:
  - su-treatment
  - mh-treatment
  address:
    street: 2130 Big Bend Road
    city: Waukesha
    state: wi
    zip: '53189'
  place: '5584250'
  geo:
    lat: 42.97647
    lng: -88.22558
  phone: 262-928-4036
  website: https://prohealthcare.org
  sources:
  - samhsa/findtreatment
  verified:
    'on': '2026-07-19'
    method: api
- id: wi/waukesha-4250/prohealth-care-behavioral-health-services-3
  name: ProHealth Care Behavioral Health Services
  categories:
  - su-treatment
  - mh-treatment
  address:
    street: 717 West Moreland Boulevard
    city: Waukesha
    state: wi
    zip: '53188'
  place: '5584250'
  geo:
    lat: 43.02484
    lng: -88.23836
  phone: 262-928-4036
  website: https://prohealthcare.org
  sources:
  - samhsa/findtreatment
  verified:
    'on': '2026-07-19'
    method: api
- id: wi/waukesha-4250/sixteenth-street-community-health-centers-waukes
  name: Sixteenth Street Community Health Centers-Waukesha
  categories:
  - community-health-center
  address:
    street: 309 E North St
    city: Waukesha
    state: wi
    zip: '53188'
  place: '5584250'
  geo:
    lat: 43.01462
    lng: -88.23346
  phone: 262-408-2530
  external_ids:
    bphc: BPS-H80-012900
  sources:
  - hrsa/health-center-sites
  verified:
    'on': '2026-07-19'
    method: api
- id: wi/waukesha-4250/south-high-school
  name: South High School
  categories:
  - meal-program
  address:
    street: 401 E Roberta Ave
    city: Waukesha
    state: wi
    zip: '53186'
  description: Free summer meals for kids and teens (2026 season) — sponsored by Waukesha School District.
  place: '5584250'
  geo:
    lat: 42.99387
    lng: -88.2226
  phone: (262) 970-3705
  external_ids:
    usda_master: Cycle 01_WI_SFSP_0464
  sources:
  - usda/summer-meal-sites
  verified:
    'on': '2026-07-19'
    method: api
- id: wi/waukesha-4250/waukesha-comprehensive-treatment-ctr-quality-add
  name: Waukesha Comprehensive Treatment Ctr Quality Addiction Management Inc
  categories:
  - su-treatment
  address:
    street: 2422 North Grandview Boulevard
    city: Waukesha
    state: wi
    zip: '53188'
  place: '5584250'
  geo:
    lat: 43.03736
    lng: -88.25673
  phone: 262-549-6600
  website: https://www.ctcprograms.com/location/waukesha-comp
  sources:
  - samhsa/findtreatment
  verified:
    'on': '2026-07-19'
    method: api
- id: wi/waukesha-4250/waukesha-housing-authority
  name: Waukesha Housing Authority
  categories:
  - housing-assistance
  address:
    street: 600 Arcadian Ave
    city: Waukesha
    state: wi
    zip: '53186'
  description: Public housing and Housing Choice Voucher agency
  place: '5584250'
  geo:
    lat: 43.01224
    lng: -88.22056
  phone: 262-542-2262
  sources:
  - hud/resource-locator
  verified:
    'on': '2026-07-19'
    method: api
- id: wi/waukesha-4250/wishope-recovery-center
  name: WisHope Recovery Center
  categories:
  - su-treatment
  - mh-treatment
  address:
    street: 223 Wisconsin Avenue
    city: Waukesha
    state: wi
    zip: '53186'
  place: '5584250'
  geo:
    lat: 43.00942
    lng: -88.23011
  phone: 262-701-7257
  website: https://wishoperecovery.com
  sources:
  - samhsa/findtreatment
  verified:
    'on': '2026-07-19'
    method: api
