- id: wi/wausau/barrington-head-start-center-administrative-offi
  name: Barrington Head Start Center & Administrative Offices
  categories:
  - child-care
  address:
    street: 616 Grant St
    city: Wausau
    state: wi
    zip: '54403'
  place: '5584475'
  geo:
    lat: 44.96199
    lng: -89.62194
  phone: 715-845-2947
  sources:
  - acf/head-start-locations
  verified:
    'on': '2026-07-19'
    method: api
- id: wi/wausau/bridge-community-health-clinic
  name: Bridge Community Health Clinic
  categories:
  - su-treatment
  - mh-treatment
  address:
    street: 731 North 1st Street
    city: Wausau
    state: wi
    zip: '54403'
  place: '5584475'
  geo:
    lat: 44.96276
    lng: -89.62879
  phone: 715-675-3458
  website: https://www.bridgeclinic.org
  sources:
  - samhsa/findtreatment
  verified:
    'on': '2026-07-19'
    method: api
- id: wi/wausau/bridge-community-health-clinic-behavioral-health
  name: Bridge Community Health Clinic - Behavioral Health East
  categories:
  - community-health-center
  address:
    street: 731 N 1st St, Suite 5000
    city: Wausau
    state: wi
    zip: '54403'
  place: '5584475'
  geo:
    lat: 44.9628
    lng: -89.62841
  phone: 715-675-3458
  external_ids:
    bphc: BPS-H80-037112
  sources:
  - hrsa/health-center-sites
  verified:
    'on': '2026-07-19'
    method: api
- id: wi/wausau/bridge-community-health-clinic-gd-jones-es
  name: Bridge Community Health Clinic - GD Jones ES
  categories:
  - community-health-center
  address:
    street: 1018 S 12th Av
    city: Wausau
    state: wi
    zip: '54401'
  place: '5584475'
  geo:
    lat: 44.9494
    lng: -89.65038
  phone: 715-848-4884
  external_ids:
    bphc: BPS-H80-039152
  sources:
  - hrsa/health-center-sites
  verified:
    'on': '2026-07-19'
    method: api
- id: wi/wausau/bridge-community-health-clinic-john-muir-ms
  name: Bridge Community Health Clinic - John Muir MS
  categories:
  - community-health-center
  address:
    street: 1400 Stewart Av
    city: Wausau
    state: wi
    zip: '54401'
  place: '5584475'
  geo:
    lat: 44.95974
    lng: -89.65167
  phone: 715-848-4884
  external_ids:
    bphc: BPS-H80-039155
  sources:
  - hrsa/health-center-sites
  verified:
    'on': '2026-07-19'
    method: api
- id: wi/wausau/bridge-community-health-clinic-wausau
  name: Bridge Community Health Clinic Wausau
  categories:
  - community-health-center
  address:
    street: 1810 N 2nd St
    city: Wausau
    state: wi
    zip: '54403'
  place: '5584475'
  geo:
    lat: 44.97161
    lng: -89.62902
  phone: 715-848-4884
  website: https://www.bridgeclinic.org
  external_ids:
    bphc: BPS-H80-001502
  sources:
  - hrsa/health-center-sites
  verified:
    'on': '2026-07-19'
    method: api
- id: wi/wausau/bridge-community-health-clinic-wausau-east-hs
  name: Bridge Community Health Clinic - Wausau East HS
  categories:
  - community-health-center
  address:
    street: 2607 N 18th St
    city: Wausau
    state: wi
    zip: '54403'
  place: '5584475'
  geo:
    lat: 44.98154
    lng: -89.59732
  phone: 715-848-4884
  external_ids:
    bphc: BPS-H80-039154
  sources:
  - hrsa/health-center-sites
  verified:
    'on': '2026-07-19'
    method: api
- id: wi/wausau/bridge-community-health-clinic-wausau-west-hs
  name: Bridge Community Health Clinic - Wausau West HS
  categories:
  - community-health-center
  address:
    street: 1200 W Wausau Av
    city: Wausau
    state: wi
    zip: '54401'
  place: '5584475'
  geo:
    lat: 44.97367
    lng: -89.65111
  phone: 715-848-4884
  external_ids:
    bphc: BPS-H80-039159
  sources:
  - hrsa/health-center-sites
  verified:
    'on': '2026-07-19'
    method: api
- id: wi/wausau/childrens-wisconsin
  name: Childrens Wisconsin
  categories:
  - su-treatment
  - mh-treatment
  address:
    street: 705 South 24th Avenue
    city: Wausau
    state: wi
    zip: '54401'
  place: '5584475'
  geo:
    lat: 44.95497
    lng: -89.66465
  phone: 715-848-1457
  website: https://www.childrenswi.org
  sources:
  - samhsa/findtreatment
  verified:
    'on': '2026-07-19'
    method: api
- id: wi/wausau/little-free-pantry
  name: Little Free Pantry
  categories:
  - food-pantry
  place: '5584475'
  geo:
    lat: 44.96889
    lng: -89.62141
  external_ids:
    lfp: '4442'
  sources:
  - littlefreepantry/map
  verified:
    'on': '2026-07-19'
    method: scrape
- id: wi/wausau/northwest-csl-and-guidance-clinic-northwest-jour
  name: Northwest Csl and Guidance Clinic Northwest Journey/Wausau
  categories:
  - mh-treatment
  address:
    street: 5655 North 28th Avenue
    city: Wausau
    state: wi
    zip: '54401'
  place: '5584475'
  geo:
    lat: 45.02274
    lng: -89.67243
  phone: 715-675-5454
  website: https://www.nwcgc.com
  sources:
  - samhsa/findtreatment
  verified:
    'on': '2026-07-19'
    method: api
- id: wi/wausau/rogers-behavioral-health-wausau
  name: Rogers Behavioral Health Wausau
  categories:
  - su-treatment
  - mh-treatment
  address:
    street: 500 North 3rd Street
    city: Wausau
    state: wi
    zip: '54403'
  place: '5584475'
  geo:
    lat: 44.96113
    lng: -89.62847
  phone: 715-907-3200
  website: https://www.rogersbh.org
  sources:
  - samhsa/findtreatment
  verified:
    'on': '2026-07-19'
    method: api
- id: wi/wausau/st-stephen-s-little-free-pantry
  name: St.Stephen's Little Free Pantry
  categories:
  - food-pantry
  place: '5584475'
  geo:
    lat: 44.96162
    lng: -89.62507
  external_ids:
    lfp: '3657'
  sources:
  - littlefreepantry/map
  verified:
    'on': '2026-07-19'
    method: scrape
- id: wi/wausau/wausau-community-development-authority
  name: Wausau Community Development Authority
  categories:
  - housing-assistance
  address: {street: 550 E Thomas St, city: Wausau, state: wi, zip: '54403'}
  description: Public housing and Housing Choice Voucher agency
  place: '5584475'
  geo: {lat: 44.95114, lng: -89.62286}
  phone: 715-261-6676
  sources:
  - hud/resource-locator
  verified: {'on': '2026-07-19', method: api}
- id: wi/wausau/wausau-comprehensive-treatment-center-milwaukee
  name: Wausau Comprehensive Treatment Center Milwaukee Health Services System LLC
  categories:
  - su-treatment
  address:
    street: 210 Washington Street
    city: Wausau
    state: wi
    zip: '54403'
  place: '5584475'
  geo:
    lat: 44.95917
    lng: -89.62909
  phone: 715-845-3637 x200
  website: https://www.ctcprograms.com/location/wausau
  sources:
  - samhsa/findtreatment
  verified:
    'on': '2026-07-19'
    method: api
