- id: wi/wautoma/graces-little-free-pantry-wautoma
  name: Grace’s Little Free Pantry - Wautoma
  categories:
  - food-pantry
  place: '5584625'
  geo:
    lat: 44.07049
    lng: -89.27875
  external_ids:
    lfp: '4421'
  sources:
  - littlefreepantry/map
  verified:
    'on': '2026-07-19'
    method: scrape
- id: wi/wautoma/noble-community-clinics-mobile-health-services
  name: Noble Community Clinics - Mobile Health Services
  categories:
  - community-health-center
  address:
    street: 400 S Townline Rd
    city: Wautoma
    state: wi
    zip: '54982'
  place: '5584625'
  geo:
    lat: 44.06703
    lng: -89.27821
  phone: 800-942-5330
  website: https://nobleclinics.org/
  external_ids:
    bphc: BPS-H80-007426
  sources:
  - hrsa/health-center-sites
  verified:
    'on': '2026-07-19'
    method: api
- id: wi/wautoma/noble-community-clinics-wautoma
  name: Noble Community Clinics - Wautoma
  categories:
  - community-health-center
  address:
    street: 400 S Townline Rd
    city: Wautoma
    state: wi
    zip: '54982'
  place: '5584625'
  geo:
    lat: 44.06703
    lng: -89.27821
  phone: 800-942-5330
  website: https://nobleclinics.org/
  external_ids:
    bphc: BPS-H80-003648
  sources:
  - hrsa/health-center-sites
  verified:
    'on': '2026-07-19'
    method: api
- id: wi/wautoma/noble-community-clinics-wautoma-administrative-o
  name: Noble Community Clinics - Wautoma Administrative Office
  categories:
  - community-health-center
  address:
    street: 443 E Division St
    city: Wautoma
    state: wi
    zip: '54982'
  place: '5584625'
  geo:
    lat: 44.06888
    lng: -89.28027
  phone: 800-942-5330
  website: https://nobleclinics.org/
  external_ids:
    bphc: BPS-H80-032323
  sources:
  - hrsa/health-center-sites
  verified:
    'on': '2026-07-19'
    method: api
- id: wi/wautoma/riverview-elementary
  name: Riverview Elementary
  categories:
  - meal-program
  address:
    street: 525 S Water Street
    city: Wautoma
    state: wi
    zip: '53982'
  description: Free summer meals for kids and teens (2026 season) — sponsored by Wautoma Area School District.
  place: '5584625'
  geo:
    lat: 44.07019
    lng: -89.29191
  phone: (920) 787-4577
  external_ids:
    usda_master: Cycle 01_WI_SFSP_0469
  sources:
  - usda/summer-meal-sites
  verified:
    'on': '2026-07-19'
    method: api
- id: wi/wautoma/waushara-county-clinical-services
  name: Waushara County Clinical Services
  categories:
  - su-treatment
  - mh-treatment
  address:
    street: 380 South Townline Road
    city: Wautoma
    state: wi
    zip: '54982'
  place: '5584625'
  geo:
    lat: 44.06945
    lng: -89.27743
  phone: 920-787-6550
  website: https://www.co.waushara.wi.us
  sources:
  - samhsa/findtreatment
  verified:
    'on': '2026-07-19'
    method: api
- id: wi/wautoma/wautoma-early-learning-center
  name: Wautoma Early Learning Center
  categories:
  - child-care
  address:
    street: 205 E Main St
    street2: Ste 42
    city: Wautoma
    state: wi
    zip: '54982'
  place: '5584625'
  geo:
    lat: 44.07385
    lng: -89.28389
  phone: 920-787-7742
  sources:
  - acf/head-start-locations
  verified:
    'on': '2026-07-19'
    method: api
