- id: wi/wisconsin-dells/bowman-park
  name: Bowman Park
  categories:
  - meal-program
  address: {street: 700 Broadway, city: Wisconsin Dells, state: wi, zip: '53965'}
  description: Free summer meals for kids and teens (2026 season) — sponsored by Wisconsin Dells School
    District.
  place: '5588150'
  geo: {lat: 43.62754, lng: -89.76687}
  phone: (608) 253-1461
  external_ids: {usda_master: Cycle 05_WI_SFSP_0367}
  sources:
  - usda/summer-meal-sites
  verified: {'on': '2026-07-19', method: api}
- id: wi/wisconsin-dells/pirates-cove-playland
  name: Pirates Cove Playland
  categories:
  - meal-program
  address: {street: 193 Us State Hwy 13, city: Wisconsin Dells, state: wi, zip: '53965'}
  description: Free summer meals for kids and teens (2026 season) — sponsored by Wisconsin Dells School
    District.
  place: '5588150'
  geo: {lat: 43.62677, lng: -89.78459}
  phone: (608) 253-1461
  external_ids: {usda_master: Cycle 05_WI_SFSP_0376}
  sources:
  - usda/summer-meal-sites
  verified: {'on': '2026-07-19', method: api}
- id: wi/wisconsin-dells/ridgewood-apartments-non-congregate-mea
  name: Ridgewood Apartments- Non Congregate Mea
  categories:
  - meal-program
  address: {street: 1117 Clara Avenue, city: Wisconsin Dells, state: wi, zip: '53965'}
  description: Free summer meals for kids and teens (2026 season) — sponsored by Wisconsin Dells School
    District.
  place: '5588150'
  geo: {lat: 43.60248, lng: -89.79871}
  external_ids: {usda_master: Cycle 05_WI_SFSP_0006}
  sources:
  - usda/summer-meal-sites
  verified: {'on': '2026-07-19', method: api}
- id: wi/wisconsin-dells/rotary-park
  name: Rotary Park
  categories:
  - meal-program
  address: {street: 905 Indiana Ave, city: Wisconsin Dells, state: wi, zip: '53965'}
  description: Free summer meals for kids and teens (2026 season) — sponsored by Wisconsin Dells School
    District.
  place: '5588150'
  geo: {lat: 43.63281, lng: -89.76254}
  external_ids: {usda_master: Cycle 05_WI_SFSP_0383}
  sources:
  - usda/summer-meal-sites
  verified: {'on': '2026-07-19', method: api}
- id: wi/wisconsin-dells/trinity-lutheran-church
  name: Trinity Lutheran Church
  categories:
  - food-pantry
  place: '5588150'
  geo:
    lat: 43.62541
    lng: -89.76894
  website: https://mapping.littlefreepantry.org/pantry/2586
  external_ids:
    lfp: '2586'
  sources:
  - littlefreepantry/map
  verified:
    'on': '2026-07-19'
    method: scrape
- id: wi/wisconsin-dells/white-creek-lions-park
  name: White Creek Lions Park
  categories:
  - meal-program
  address: {street: 1301 Cty Rd H, city: Wisconsin Dells, state: wi, zip: '53965'}
  description: Free summer meals for kids and teens (2026 season) — sponsored by Adams-Friendship School
    District.
  place: '5588150'
  geo: {lat: 43.8255, lng: -89.82947}
  phone: (608) 339-3921
  external_ids: {usda_master: Cycle 01_WI_SFSP_0341}
  sources:
  - usda/summer-meal-sites
  verified: {'on': '2026-07-19', method: api}
