- id: nv/las-vegas/2-all-is-well-cdc
  name: 2 All Is Well CDC
  categories:
  - su-treatment
  - mh-treatment
  address:
    street: 1640 Alta Drive
    city: Las Vegas
    state: nv
    zip: '89106'
  place: '3240000'
  geo:
    lat: 36.1668
    lng: -115.16327
  phone: 702-803-9355
  website: https://
  sources:
  - samhsa/findtreatment
  verified:
    'on': '2026-07-19'
    method: api
- id: nv/las-vegas/abc-therapy-llc
  name: ABC Therapy LLC
  categories:
  - su-treatment
  - mh-treatment
  address:
    street: 730 North Eastern Avenue
    city: Las Vegas
    state: nv
    zip: '89101'
  place: '3240000'
  geo:
    lat: 36.17682
    lng: -115.11536
  phone: 702-598-2020
  website: https://www.abctherapy.net
  sources:
  - samhsa/findtreatment
  verified:
    'on': '2026-07-19'
    method: api
- id: nv/las-vegas/all-for-health-charleston
  name: All For Health - Charleston
  categories:
  - community-health-center
  address:
    street: 1219 E Charleston Blvd
    city: Las Vegas
    state: nv
    zip: '89104'
  place: '3240000'
  geo:
    lat: 36.15896
    lng: -115.13616
  phone: 702-384-1110
  website: http://all4health.org/
  external_ids:
    bphc: BPS-H80-037441
  sources:
  - hrsa/health-center-sites
  verified:
    'on': '2026-07-19'
    method: api
- id: nv/las-vegas/all-for-health-las-vegas
  name: All For Health, Las Vegas
  categories:
  - community-health-center
  address:
    street: 1735 N Nellis Blvd
    city: Las Vegas
    state: nv
    zip: '89115'
  place: '3240000'
  geo:
    lat: 36.19092
    lng: -115.06231
  phone: 818-409-3020
  website: https://www.allforhealth.org
  external_ids:
    bphc: BPS-H80-018966
  sources:
  - hrsa/health-center-sites
  verified:
    'on': '2026-07-19'
    method: api
- id: nv/las-vegas/all-for-health-nellis-blvd-ii
  name: All For Health - Nellis Blvd. II
  categories:
  - community-health-center
  address:
    street: 731 N Nellis Blvd STE 2
    city: Las Vegas
    state: nv
    zip: '89110'
  place: '3240000'
  geo:
    lat: 36.17602
    lng: -115.06232
  phone: 702-384-1110
  website: http://all4health.org
  external_ids:
    bphc: BPS-H80-037440
  sources:
  - hrsa/health-center-sites
  verified:
    'on': '2026-07-19'
    method: api
- id: nv/las-vegas/apple-grove-treatment-center-llc
  name: Apple Grove Treatment Center LLC
  categories:
  - su-treatment
  - mh-treatment
  address:
    street: 3155 East Patrick Lane
    city: Las Vegas
    state: nv
    zip: '89120'
  place: '3240000'
  phone: 702-992-0576
  website: https://www.applegrovefostercare.com
  sources:
  - samhsa/findtreatment
  verified:
    'on': '2026-07-19'
    method: api
- id: nv/las-vegas/better-choice-treatment-center
  name: Better Choice Treatment Center
  categories:
  - su-treatment
  address:
    street: 198 East Ebb Tide Circle
    city: Las Vegas
    state: nv
    zip: '89123'
  place: '3240000'
  geo:
    lat: 36.05475
    lng: -115.16367
  phone: 725-550-5655
  website: https://www.betterchoicenv.com/
  sources:
  - samhsa/findtreatment
  verified:
    'on': '2026-07-19'
    method: api
- id: nv/las-vegas/beyond-expectation-psychological-services
  name: Beyond Expectation Psychological Services
  categories:
  - su-treatment
  - mh-treatment
  address:
    street: 1820 East Warm Springs Road
    city: Las Vegas
    state: nv
    zip: '89119'
  place: '3240000'
  geo:
    lat: 36.05842
    lng: -115.12726
  phone: 702-779-3956
  website: https://www.BePsyc.com
  sources:
  - samhsa/findtreatment
  verified:
    'on': '2026-07-19'
    method: api
- id: nv/las-vegas/bhg-desert-inn-treatment-center
  name: BHG Desert Inn Treatment Center
  categories:
  - su-treatment
  - mh-treatment
  address:
    street: 3050 East Desert Inn Road
    city: Las Vegas
    state: nv
    zip: '89121'
  place: '3240000'
  geo:
    lat: 36.1305
    lng: -115.10818
  phone: 702-796-0660
  website: https://www.bhgrecovery.com/locations/desert-inn
  sources:
  - samhsa/findtreatment
  verified:
    'on': '2026-07-19'
    method: api
- id: nv/las-vegas/boys-town-nevada-behavioral-health-clinic
  name: Boys Town Nevada Behavioral Health Clinic
  categories:
  - mh-treatment
  address:
    street: 8390 West Windmill Lane
    city: Las Vegas
    state: nv
    zip: '89113'
  place: '3240000'
  geo:
    lat: 36.04185
    lng: -115.27387
  phone: 702-888-1340
  website: https://www.boystown.org/locations/nevada/
  sources:
  - samhsa/findtreatment
  verified:
    'on': '2026-07-19'
    method: api
- id: nv/las-vegas/bridge-counseling-associates
  name: Bridge Counseling Associates
  categories:
  - su-treatment
  - mh-treatment
  address:
    street: 4221 McLeod Drive
    city: Las Vegas
    state: nv
    zip: '89121'
  place: '3240000'
  geo:
    lat: 36.11276
    lng: -115.11045
  phone: 702-474-6450
  website: https://www.bridgecounseling.org
  sources:
  - samhsa/findtreatment
  verified:
    'on': '2026-07-19'
    method: api
- id: nv/las-vegas/bridge-counseling-associates-2
  name: Bridge Counseling Associates
  categories:
  - su-treatment
  - mh-treatment
  address:
    street: 415 South 6th Street
    city: Las Vegas
    state: nv
    zip: '89101'
  place: '3240000'
  geo:
    lat: 36.16454
    lng: -115.1419
  phone: 702-474-6450
  website: https://www.bridgecounseling.org
  sources:
  - samhsa/findtreatment
  verified:
    'on': '2026-07-19'
    method: api
- id: nv/las-vegas/cadence-clinic-counseling-and-supervision
  name: Cadence Clinic Counseling and Supervision
  categories:
  - su-treatment
  - mh-treatment
  address:
    street: 353 East Bonneville
    city: Las Vegas
    state: nv
    zip: '89101'
  place: '3240000'
  phone: 702-208-4983
  website: https://
  sources:
  - samhsa/findtreatment
  verified:
    'on': '2026-07-19'
    method: api
- id: nv/las-vegas/cambridge-family-health-center
  name: Cambridge Family Health Center
  categories:
  - community-health-center
  address:
    street: 3900 Cambridge St, Ste 102
    city: Las Vegas
    state: nv
    zip: '89119'
  place: '3240000'
  geo:
    lat: 36.11911
    lng: -115.14182
  phone: 702-307-5415
  website: https://www.nvhealthcenters.org
  external_ids:
    bphc: BPS-H80-002913
  sources:
  - hrsa/health-center-sites
  verified:
    'on': '2026-07-19'
    method: api
- id: nv/las-vegas/care-clinic
  name: Care Clinic
  categories:
  - su-treatment
  - mh-treatment
  address:
    street: 1050 East Flamingo Road
    city: Las Vegas
    state: nv
    zip: '89119'
  place: '3240000'
  geo:
    lat: 36.11663
    lng: -115.1405
  phone: 844-782-6963
  website: https://www.careclinicmd.com
  sources:
  - samhsa/findtreatment
  verified:
    'on': '2026-07-19'
    method: api
- id: nv/las-vegas/cecile-walnut
  name: Cecile Walnut
  categories:
  - child-care
  address:
    street: 3820 Cecile Ave
    city: Las Vegas
    state: nv
    zip: '89115'
  place: '3240000'
  geo:
    lat: 36.21471
    lng: -115.09111
  phone: 702-799-3910
  sources:
  - acf/head-start-locations
  verified:
    'on': '2026-07-19'
    method: api
- id: nv/las-vegas/charleston-residential-services-dba-crossroads
  name: Charleston Residential Services DBA CrossRoads
  categories:
  - su-treatment
  - mh-treatment
  address:
    street: 2121 West Charleston Boulevard
    city: Las Vegas
    state: nv
    zip: '89102'
  place: '3240000'
  geo:
    lat: 36.15825
    lng: -115.17077
  phone: 702-382-7746
  website: https://www.crossroadsofsonv.com
  sources:
  - samhsa/findtreatment
  verified:
    'on': '2026-07-19'
    method: api
- id: nv/las-vegas/dcfs-decatur-neighborhood-family-servs
  name: DCFS Decatur Neighborhood Family Servs
  categories:
  - mh-treatment
  address:
    street: 4530 South Decatur Boulevard
    city: Las Vegas
    state: nv
    zip: '89103'
  place: '3240000'
  geo:
    lat: 36.10762
    lng: -115.20734
  phone: 702-631-7500
  website: https://www.dcfs.nv.gov
  sources:
  - samhsa/findtreatment
  verified:
    'on': '2026-07-19'
    method: api
- id: nv/las-vegas/desert-hope-outpatient
  name: Desert Hope Outpatient
  categories:
  - su-treatment
  - mh-treatment
  address:
    street: 3441 South Eastern Avenue
    city: Las Vegas
    state: nv
    zip: '89169'
  place: '3240000'
  geo:
    lat: 36.12694
    lng: -115.11911
  phone: 702-545-6438
  website: https://www.deserthopetreatment.com/
  sources:
  - samhsa/findtreatment
  verified:
    'on': '2026-07-19'
    method: api
- id: nv/las-vegas/desert-hope-treatment-center-american-addiction
  name: Desert Hope Treatment Center American Addiction Centers
  categories:
  - su-treatment
  - mh-treatment
  address:
    street: 2465 East Twain Avenue
    city: Las Vegas
    state: nv
    zip: '89121'
  place: '3240000'
  geo:
    lat: 36.12126
    lng: -115.11721
  phone: 702-848-6223
  website: https://www.deserthopetreatment.com/
  sources:
  - samhsa/findtreatment
  verified:
    'on': '2026-07-19'
    method: api
- id: nv/las-vegas/desert-parkway-behav-healthcare-hosp
  name: Desert Parkway Behav Healthcare Hosp
  categories:
  - su-treatment
  - mh-treatment
  address:
    street: 3247 South Maryland Parkway
    city: Las Vegas
    state: nv
    zip: '89109'
  place: '3240000'
  geo:
    lat: 36.13066
    lng: -115.13811
  phone: 702-776-3500
  website: https://www.desertparkway.com
  sources:
  - samhsa/findtreatment
  verified:
    'on': '2026-07-19'
    method: api
- id: nv/las-vegas/desert-willow-treament-center-child-and-adol-inp
  name: Desert Willow Treament Center Child and Adol Inpt Psychiatric Servs
  categories:
  - mh-treatment
  address:
    street: 6171 West Charleston Boulevard
    city: Las Vegas
    state: nv
    zip: '89146'
  place: '3240000'
  geo:
    lat: 36.15676
    lng: -115.22878
  phone: 702-486-6100
  website: https://www.dcfs.nv.gov
  sources:
  - samhsa/findtreatment
  verified:
    'on': '2026-07-19'
    method: api
- id: nv/las-vegas/desert-winds-hospital
  name: Desert Winds Hospital
  categories:
  - su-treatment
  - mh-treatment
  address:
    street: 5900 West Rochelle Avenue
    city: Las Vegas
    state: nv
    zip: '89130'
  place: '3240000'
  geo:
    lat: 36.11179
    lng: -115.2216
  phone: 702-522-7922
  website: https://desertwindshospital.com
  sources:
  - samhsa/findtreatment
  verified:
    'on': '2026-07-19'
    method: api
- id: nv/las-vegas/division-of-child-and-family-services-dcfs-prtf
  name: Division of Child and Family Services DCFS PRTF North
  categories:
  - mh-treatment
  address:
    street: 500 West Warm Springs Road
    city: Las Vegas
    state: nv
    zip: '89119'
  place: '3240000'
  phone: 702-486-3182
  website: https://
  sources:
  - samhsa/findtreatment
  verified:
    'on': '2026-07-19'
    method: api
- id: nv/las-vegas/dr-miriam-sheldon-g-adelson-adelson-drug-abuse-t
  name: Dr Miriam/Sheldon G Adelson Adelson Drug Abuse Trt/Research Inc
  categories:
  - su-treatment
  address:
    street: 3661 South Maryland Parkway
    city: Las Vegas
    state: nv
    zip: '89169'
  place: '3240000'
  geo:
    lat: 36.12247
    lng: -115.13828
  phone: 702-735-7900
  website: https://www.adelsoncliniclasvegas.com
  sources:
  - samhsa/findtreatment
  verified:
    'on': '2026-07-19'
    method: api
- id: nv/las-vegas/eastern-family-medical-and-dental-center
  name: Eastern Family Medical and Dental Center
  categories:
  - community-health-center
  address:
    street: 2212 S Eastern Ave
    city: Las Vegas
    state: nv
    zip: '89104'
  place: '3240000'
  geo:
    lat: 36.14662
    lng: -115.1193
  phone: 702-735-9334
  website: https://www.nvhealthcenters.org
  external_ids:
    bphc: BPS-H80-002200
  sources:
  - hrsa/health-center-sites
  verified:
    'on': '2026-07-19'
    method: api
- id: nv/las-vegas/ehs-ccp-source-academy-east
  name: EHS CCP Source Academy - East
  categories:
  - child-care
  address:
    street: 4301 Stewart Ave
    city: Las Vegas
    state: nv
    zip: '89110'
  place: '3240000'
  geo:
    lat: 36.16674
    lng: -115.08261
  phone: 702-780-4066
  sources:
  - acf/head-start-locations
  verified:
    'on': '2026-07-19'
    method: api
- id: nv/las-vegas/ehs-ccp-the-hills-preschool
  name: EHS CCP The Hills Preschool
  categories:
  - child-care
  address:
    street: 6565 Smoke Ranch Rd
    city: Las Vegas
    state: nv
    zip: '89108'
  place: '3240000'
  geo:
    lat: 36.20301
    lng: -115.23816
  phone: 702-982-5439
  sources:
  - acf/head-start-locations
  verified:
    'on': '2026-07-19'
    method: api
- id: nv/las-vegas/ehs-ccp-the-hills-preschool-ii
  name: EHS CCP The Hills Preschool II
  categories:
  - child-care
  address:
    street: 6565 Smoke Ranch Rd
    city: Las Vegas
    state: nv
    zip: '89108'
  place: '3240000'
  geo:
    lat: 36.203
    lng: -115.23815
  sources:
  - acf/head-start-locations
  verified:
    'on': '2026-07-19'
    method: api
- id: nv/las-vegas/encounters-counseling-and-recovery
  name: Encounters Counseling and Recovery
  categories:
  - su-treatment
  - mh-treatment
  address:
    street: 2820 West Charleston Boulevard
    city: Las Vegas
    state: nv
    zip: '89102'
  place: '3240000'
  geo:
    lat: 36.15989
    lng: -115.18039
  phone: 702-742-1500
  website: https://www.encounterslv.com
  sources:
  - samhsa/findtreatment
  verified:
    'on': '2026-07-19'
    method: api
- id: nv/las-vegas/f-a-m-healing-center
  name: F.A.M Healing Center
  categories:
  - su-treatment
  - mh-treatment
  address:
    city: Las Vegas
    state: nv
    zip: '89130'
  place: '3240000'
  phone: 725-525-1024
  website: https://www.famhealingcenter.com
  sources:
  - samhsa/findtreatment
  verified:
    'on': '2026-07-19'
    method: api
- id: nv/las-vegas/fastt-inc-families-achieving-success-teamwork
  name: FASTT Inc Families Achieving Success Teamwork
  categories:
  - su-treatment
  - mh-treatment
  address:
    street: 6871 West Charleston Boulevard
    city: Las Vegas
    state: nv
    zip: '89117'
  place: '3240000'
  phone: 702-333-1988
  website: https://www.fasttnv.org
  sources:
  - samhsa/findtreatment
  verified:
    'on': '2026-07-19'
    method: api
- id: nv/las-vegas/first-person-care-clinic
  name: FIRST PERSON CARE CLINIC
  categories:
  - community-health-center
  address:
    street: 916 W Owens Ave
    city: Las Vegas
    state: nv
    zip: '89106'
  place: '3240000'
  geo:
    lat: 36.18848
    lng: -115.15343
  phone: 702-617-6313
  website: https://www.firstpersonclinic.org
  external_ids:
    bphc: BPS-H80-037178
  sources:
  - hrsa/health-center-sites
  verified:
    'on': '2026-07-19'
    method: api
- id: nv/las-vegas/first-person-care-clinic-2
  name: First Person Care Clinic
  categories:
  - community-health-center
  address:
    street: 1200 S 4th St
    city: Las Vegas
    state: nv
    zip: '89104'
  place: '3240000'
  geo:
    lat: 36.15733
    lng: -115.15041
  phone: 702-380-8118
  website: https://www.FirstPersonCC.org
  external_ids:
    bphc: BPS-H80-021415
  sources:
  - hrsa/health-center-sites
  verified:
    'on': '2026-07-19'
    method: api
- id: nv/las-vegas/firstmed-health-and-wellness-admin-office
  name: FirstMed Health and Wellness Admin Office
  categories:
  - community-health-center
  address:
    street: 4730 S Fort Apache Rd, Suite 180
    city: Las Vegas
    state: nv
    zip: '89147'
  place: '3240000'
  geo:
    lat: 36.10295
    lng: -115.29658
  phone: 702-731-0909
  external_ids:
    bphc: BPS-H80-041989
  sources:
  - hrsa/health-center-sites
  verified:
    'on': '2026-07-19'
    method: api
- id: nv/las-vegas/firstmed-health-and-wellness-center
  name: FirstMed Health and Wellness Center
  categories:
  - community-health-center
  address:
    street: 3343 S Eastern Ave
    city: Las Vegas
    state: nv
    zip: '89169'
  place: '3240000'
  geo:
    lat: 36.12904
    lng: -115.11906
  phone: 702-731-0909
  website: https://www.firstmednv.org
  external_ids:
    bphc: BPS-H80-012928
  sources:
  - hrsa/health-center-sites
  verified:
    'on': '2026-07-19'
    method: api
- id: nv/las-vegas/firstmed-pediatrics
  name: FirstMed Pediatrics
  categories:
  - community-health-center
  address:
    street: 701 N Pecos Rd
    city: Las Vegas
    state: nv
    zip: '89101'
  place: '3240000'
  geo:
    lat: 36.17546
    lng: -115.10077
  phone: 702-731-0909
  external_ids:
    bphc: BPS-H80-039261
  sources:
  - hrsa/health-center-sites
  verified:
    'on': '2026-07-19'
    method: api
- id: nv/las-vegas/firstmed-shadow-lane
  name: FirstMed Shadow Lane
  categories:
  - community-health-center
  address:
    street: 400 Shadow Ln
    city: Las Vegas
    state: nv
    zip: '89106'
  place: '3240000'
  geo:
    lat: 36.16658
    lng: -115.1658
  phone: 702-377-1000
  external_ids:
    bphc: BPS-H80-018193
  sources:
  - hrsa/health-center-sites
  verified:
    'on': '2026-07-19'
    method: api
- id: nv/las-vegas/fpcc-mobile-clinic-1
  name: FPCC Mobile Clinic 1
  categories:
  - community-health-center
  address:
    street: 916 W Owens Ave
    city: Las Vegas
    state: nv
    zip: '89106'
  place: '3240000'
  geo:
    lat: 36.18848
    lng: -115.15343
  phone: 702-380-8118
  external_ids:
    bphc: BPS-H80-040278
  sources:
  - hrsa/health-center-sites
  verified:
    'on': '2026-07-19'
    method: api
- id: nv/las-vegas/freedom-behavioral-health
  name: Freedom Behavioral Health
  categories:
  - su-treatment
  address:
    street: 3852 Palos Verdes Street
    city: Las Vegas
    state: nv
    zip: '89119'
  place: '3240000'
  geo:
    lat: 36.1192
    lng: -115.15047
  phone: 702-485-1300
  website: https://freedombh.org/
  sources:
  - samhsa/findtreatment
  verified:
    'on': '2026-07-19'
    method: api
- id: nv/las-vegas/fuente-de-vida-mental-health-services
  name: Fuente De Vida Mental Health Services
  categories:
  - su-treatment
  - mh-treatment
  address:
    street: 6402 McLeod Drive
    city: Las Vegas
    state: nv
    zip: '89120'
  place: '3240000'
  geo:
    lat: 36.07335
    lng: -115.11207
  phone: 725-204-8809
  website: https://www.fuentedevidanv.org/
  sources:
  - samhsa/findtreatment
  verified:
    'on': '2026-07-19'
    method: api
- id: nv/las-vegas/golden-touch-behavioral-care-center
  name: Golden Touch Behavioral Care Center
  categories:
  - su-treatment
  - mh-treatment
  address:
    street: 2225 East Flamingo Road
    city: Las Vegas
    state: nv
    zip: '89119'
  place: '3240000'
  geo:
    lat: 36.11396
    lng: -115.12233
  phone: 702-493-8733
  website: https://www.goldentouchbccpc.com/
  sources:
  - samhsa/findtreatment
  verified:
    'on': '2026-07-19'
    method: api
- id: nv/las-vegas/help-of-southern-nevada
  name: HELP of Southern Nevada
  categories:
  - su-treatment
  - mh-treatment
  address:
    street: 1640 East Flamingo Road
    city: Las Vegas
    state: nv
    zip: '89119'
  place: '3240000'
  geo:
    lat: 36.11591
    lng: -115.13168
  phone: 702-498-3377
  website: https://www.helpsonv.org
  sources:
  - samhsa/findtreatment
  verified:
    'on': '2026-07-19'
    method: api
- id: nv/las-vegas/help-of-southern-nevada-shannon-west-homeless-yo
  name: HELP of Southern Nevada Shannon West Homeless Youth Center
  categories:
  - su-treatment
  - mh-treatment
  address:
    street: 1650 East Flamingo Road
    city: Las Vegas
    state: nv
    zip: '89119'
  place: '3240000'
  geo:
    lat: 36.11615
    lng: -115.13109
  phone: 702-396-4357
  website: https://www.helpsonv.org
  sources:
  - samhsa/findtreatment
  verified:
    'on': '2026-07-19'
    method: api
- id: nv/las-vegas/herb-kaufman
  name: Herb Kaufman
  categories:
  - child-care
  address:
    street: 4020 Perry St
    city: Las Vegas
    state: nv
    zip: '89122'
  place: '3240000'
  geo:
    lat: 36.11663
    lng: -115.06257
  phone: 702-434-5329
  sources:
  - acf/head-start-locations
  verified:
    'on': '2026-07-19'
    method: api
- id: nv/las-vegas/hope-christian-health-center-decatur
  name: Hope Christian Health Center Decatur
  categories:
  - community-health-center
  address:
    street: 4800 Alpine Pl
    city: Las Vegas
    state: nv
    zip: '89107'
  place: '3240000'
  geo:
    lat: 36.1603
    lng: -115.20649
  phone: 702-644-4673
  external_ids:
    bphc: BPS-H80-040521
  sources:
  - hrsa/health-center-sites
  verified:
    'on': '2026-07-19'
    method: api
- id: nv/las-vegas/hope-recuperative-care
  name: Hope Recuperative Care
  categories:
  - community-health-center
  address:
    street: 1581 N Main St
    city: Las Vegas
    state: nv
    zip: '89101'
  place: '3240000'
  geo:
    lat: 36.18764
    lng: -115.13651
  phone: 702-229-6117
  external_ids:
    bphc: BPS-H80-033538
  sources:
  - hrsa/health-center-sites
  verified:
    'on': '2026-07-19'
    method: api
- id: nv/las-vegas/hope-recuperative-care-center
  name: Hope Recuperative Care Center
  categories:
  - community-health-center
  address:
    street: 1450 N Main St
    city: Las Vegas
    state: nv
    zip: '89101'
  place: '3240000'
  geo:
    lat: 36.18645
    lng: -115.13627
  phone: 702-229-5460
  external_ids:
    bphc: BPS-H80-041264
  sources:
  - hrsa/health-center-sites
  verified:
    'on': '2026-07-19'
    method: api
- id: nv/las-vegas/human-behavior-institute
  name: Human Behavior Institute
  categories:
  - su-treatment
  - mh-treatment
  address:
    street: 2740 South Jones Boulevard
    city: Las Vegas
    state: nv
    zip: '89146'
  place: '3240000'
  geo:
    lat: 36.13989
    lng: -115.22472
  phone: 702-248-8866 x202
  website: https://www.hbinetwork.com/
  sources:
  - samhsa/findtreatment
  verified:
    'on': '2026-07-19'
    method: api
- id: nv/las-vegas/human-behavior-institute-2
  name: Human Behavior Institute
  categories:
  - su-treatment
  - mh-treatment
  address:
    city: Las Vegas
    state: nv
    zip: '89146'
  place: '3240000'
  phone: 702-248-8866 x202
  website: https://www.hbinetwork.com
  sources:
  - samhsa/findtreatment
  verified:
    'on': '2026-07-19'
    method: api
- id: nv/las-vegas/icarus-behavioral-health-nv
  name: Icarus Behavioral Health NV
  categories:
  - su-treatment
  - mh-treatment
  address:
    city: Las Vegas
    state: nv
    zip: '89113'
  place: '3240000'
  phone: 602-367-9807
  website: https://www.icarusbehavioralhealthnevada.com
  sources:
  - samhsa/findtreatment
  verified:
    'on': '2026-07-19'
    method: api
- id: nv/las-vegas/jlk-home-care-inc-dba-jlk-health-systems
  name: JLK Home Care Inc DBA JLK Health Systems
  categories:
  - su-treatment
  - mh-treatment
  address:
    street: 3210 West Charleston Boulevard
    city: Las Vegas
    state: nv
    zip: '89102'
  place: '3240000'
  geo:
    lat: 36.15947
    lng: -115.18536
  phone: 702-893-2002
  website: https://www.jlkhealthsystems.com
  sources:
  - samhsa/findtreatment
  verified:
    'on': '2026-07-19'
    method: api
- id: nv/las-vegas/kee-essentials
  name: Kee Essentials
  categories:
  - su-treatment
  - mh-treatment
  address:
    street: 1505 South Eastern Avenue
    city: Las Vegas
    state: nv
    zip: '89104'
  place: '3240000'
  geo:
    lat: 36.15261
    lng: -115.1186
  phone: 702-885-0881
  website: https://www.KeeEssentials.net
  sources:
  - samhsa/findtreatment
  verified:
    'on': '2026-07-19'
    method: api
- id: nv/las-vegas/kee-essentials-2
  name: Kee Essentials
  categories:
  - su-treatment
  - mh-treatment
  address:
    street: 6210 North Jones Boulevard
    city: Las Vegas
    state: nv
    zip: '89136'
  place: '3240000'
  phone: 702-885-0881
  website: https://www.KeeEssentials.net
  sources:
  - samhsa/findtreatment
  verified:
    'on': '2026-07-19'
    method: api
- id: nv/las-vegas/las-vegas-administration-office
  name: Las Vegas Administration Office
  categories:
  - community-health-center
  address:
    street: 1799 Mount Mariah Dr
    city: Las Vegas
    state: nv
    zip: '89106'
  place: '3240000'
  geo:
    lat: 36.19318
    lng: -115.16395
  phone: 702-307-5414
  website: https://www.nvhealthcenters.org
  external_ids:
    bphc: BPS-H80-012540
  sources:
  - hrsa/health-center-sites
  verified:
    'on': '2026-07-19'
    method: api
- id: nv/las-vegas/las-vegas-comprehensive-treatment-ctr-mission-tr
  name: Las Vegas Comprehensive Treatment Ctr Mission Treatment Centers Inc
  categories:
  - su-treatment
  address:
    street: 2887 South Maryland Parkway
    city: Las Vegas
    state: nv
    zip: '89109'
  place: '3240000'
  geo:
    lat: 36.13735
    lng: -115.13738
  phone: 702-474-4104
  website: https://www.ctcprograms.com
  sources:
  - samhsa/findtreatment
  verified:
    'on': '2026-07-19'
    method: api
- id: nv/las-vegas/las-vegas-health-wellness-center
  name: Las Vegas Health & Wellness Center
  categories:
  - community-health-center
  address:
    street: 1450 N Main St
    city: Las Vegas
    state: nv
    zip: '89101'
  place: '3240000'
  geo:
    lat: 36.18645
    lng: -115.13627
  phone: 702-307-4635
  website: https://www.nvhealthcenters.org
  external_ids:
    bphc: BPS-H80-037105
  sources:
  - hrsa/health-center-sites
  verified:
    'on': '2026-07-19'
    method: api
- id: nv/las-vegas/las-vegas-town-fridge-1
  name: Las Vegas Town Fridge 1
  place: '3240000'
  geo:
    lat: 36.18223
    lng: -115.13918
  website: https://linktr.ee/lvtownfridge
  provisional: true
  sources:
  - mutualaidhub/firestore
  verified:
    'on': '2026-07-19'
    method: api
  categories:
  - community-fridge
- id: nv/las-vegas/las-vegas-town-fridge-2
  name: Las Vegas Town Fridge 2
  place: '3240000'
  geo:
    lat: 36.1539
    lng: -115.13956
  website: https://linktr.ee/lvtownfridge
  provisional: true
  sources:
  - mutualaidhub/firestore
  verified:
    'on': '2026-07-19'
    method: api
  categories:
  - community-fridge
- id: nv/las-vegas/legacy-csl-and-workforce-connections
  name: Legacy Csl and Workforce Connections
  categories:
  - su-treatment
  - mh-treatment
  address:
    street: 6600 West Charleston Boulevard
    city: Las Vegas
    state: nv
    zip: '89146'
  place: '3240000'
  geo:
    lat: 36.16072
    lng: -115.24039
  phone: 702-763-7443
  website: https://www.wearelcwc.org
  sources:
  - samhsa/findtreatment
  verified:
    'on': '2026-07-19'
    method: api
- id: nv/las-vegas/legacy-health-and-wellness-chemical-dependency-f
  name: Legacy Health and Wellness Chemical Dependency for Adolescents
  categories:
  - su-treatment
  - mh-treatment
  address:
    street: 2921 North Tenaya Way
    city: Las Vegas
    state: nv
    zip: '89128'
  place: '3240000'
  geo:
    lat: 36.21417
    lng: -115.25102
  phone: 702-942-1774
  website: https://www.legacynv.com
  sources:
  - samhsa/findtreatment
  verified:
    'on': '2026-07-19'
    method: api
- id: nv/las-vegas/lionheart-recovery-center
  name: Lionheart Recovery Center
  categories:
  - su-treatment
  - mh-treatment
  address:
    street: 6565 Tomiyasu Lane
    city: Las Vegas
    state: nv
    zip: '89120'
  place: '3240000'
  geo:
    lat: 36.07048
    lng: -115.10567
  phone: 702-886-1117
  website: https://www.lionheartrecoverycenter.com
  sources:
  - samhsa/findtreatment
  verified:
    'on': '2026-07-19'
    method: api
- id: nv/las-vegas/lionheart-recovery-center-outpatient
  name: Lionheart Recovery Center Outpatient
  categories:
  - su-treatment
  - mh-treatment
  address:
    street: 2700 Chandler Avenue
    city: Las Vegas
    state: nv
    zip: '89120'
  place: '3240000'
  geo:
    lat: 36.07446
    lng: -115.11303
  phone: 702-937-5969
  website: https://www.lionheartrecoverycenter.com
  sources:
  - samhsa/findtreatment
  verified:
    'on': '2026-07-19'
    method: api
- id: nv/las-vegas/lorenzi
  name: Lorenzi
  categories:
  - child-care
  address:
    street: 700 Twin Lakes Dr
    city: Las Vegas
    state: nv
    zip: '89107'
  place: '3240000'
  geo:
    lat: 36.17783
    lng: -115.1868
  phone: 702-538-8700
  sources:
  - acf/head-start-locations
  verified:
    'on': '2026-07-19'
    method: api
- id: nv/las-vegas/luxe-treatment-center-llc
  name: Luxe Treatment Center LLC
  categories:
  - su-treatment
  address:
    street: 4845 North Riley Street
    city: Las Vegas
    state: nv
    zip: '89149'
  place: '3240000'
  geo:
    lat: 36.24905
    lng: -115.28407
  phone: 619-647-8699
  website: https://luxetreatmentcenter.com
  sources:
  - samhsa/findtreatment
  verified:
    'on': '2026-07-19'
    method: api
- id: nv/las-vegas/marnell-house
  name: Marnell House
  categories:
  - su-treatment
  address:
    street: 7260 West Azure Drive
    city: Las Vegas
    state: nv
    zip: '89130'
  place: '3240000'
  phone: 818-447-9381
  website: https://www.hopefulseasons.com
  sources:
  - samhsa/findtreatment
  verified:
    'on': '2026-07-19'
    method: api
- id: nv/las-vegas/martin-luther-king-health-center
  name: Martin Luther King Health Center
  categories:
  - community-health-center
  address:
    street: 1799 Mount Mariah Dr
    city: Las Vegas
    state: nv
    zip: '89106'
  place: '3240000'
  geo:
    lat: 36.19318
    lng: -115.16395
  phone: 702-383-1961
  website: https://www.nvhealthcenters.org
  external_ids:
    bphc: BPS-H80-010585
  sources:
  - hrsa/health-center-sites
  verified:
    'on': '2026-07-19'
    method: api
- id: nv/las-vegas/meadows-outpatient-center-las-vegas
  name: Meadows Outpatient Center Las Vegas
  categories:
  - su-treatment
  - mh-treatment
  address:
    street: 6060 South Fort Apache Road
    city: Las Vegas
    state: nv
    zip: '89148'
  place: '3240000'
  geo:
    lat: 36.07881
    lng: -115.29596
  phone: 928-764-8719
  website: https://meadowsbh.com/treatment-locations/outpatient-treatment
  sources:
  - samhsa/findtreatment
  verified:
    'on': '2026-07-19'
    method: api
- id: nv/las-vegas/miles-for-smiles
  name: Miles- for Smiles
  categories:
  - community-health-center
  address:
    street: 2212 S Eastern Ave
    city: Las Vegas
    state: nv
    zip: '89104'
  place: '3240000'
  geo:
    lat: 36.14662
    lng: -115.1193
  phone: 702-241-9984
  website: https://www.nvhealthcenters.org
  external_ids:
    bphc: BPS-H80-003687
  sources:
  - hrsa/health-center-sites
  verified:
    'on': '2026-07-19'
    method: api
- id: nv/las-vegas/mind-body-solutions
  name: Mind Body Solutions
  categories:
  - su-treatment
  - mh-treatment
  address:
    street: 2725 South Jones Boulevard
    city: Las Vegas
    state: nv
    zip: '89146'
  place: '3240000'
  geo:
    lat: 36.1399
    lng: -115.22571
  phone: 702-384-2238
  website: https://mindbodysolutionslv.com/
  sources:
  - samhsa/findtreatment
  verified:
    'on': '2026-07-19'
    method: api
- id: nv/las-vegas/mindful-healing-counseling
  name: Mindful Healing Counseling
  categories:
  - su-treatment
  - mh-treatment
  address:
    street: 4880 West University Avenue
    city: Las Vegas
    state: nv
    zip: '89103'
  place: '3240000'
  geo:
    lat: 36.11052
    lng: -115.20686
  phone: 702-660-5943
  website: https://www.mhc.vegas/
  sources:
  - samhsa/findtreatment
  verified:
    'on': '2026-07-19'
    method: api
- id: nv/las-vegas/mindwell-psychiatric-services
  name: MindWell Psychiatric Services
  categories:
  - su-treatment
  - mh-treatment
  address:
    street: 800 North Rainbow Boulevard
    city: Las Vegas
    state: nv
    zip: '89107'
  place: '3240000'
  geo:
    lat: 36.1806
    lng: -115.24178
  phone: 702-530-2549
  website: https://www.mindwellpsychiatricservices.com/
  sources:
  - samhsa/findtreatment
  verified:
    'on': '2026-07-19'
    method: api
- id: nv/las-vegas/mingo-health-solutions
  name: Mingo Health Solutions
  categories:
  - su-treatment
  - mh-treatment
  address:
    street: 4000 South Eastern Avenue
    city: Las Vegas
    state: nv
    zip: '89119'
  place: '3240000'
  geo:
    lat: 36.11624
    lng: -115.11842
  phone: 702-848-1696
  website: https://www.mhsbehavioralservices.com
  sources:
  - samhsa/findtreatment
  verified:
    'on': '2026-07-19'
    method: api
- id: nv/las-vegas/mission-treatment-centers-inc-dba-southern-hills
  name: Mission Treatment Centers Inc DBA Southern Hills Comp Trt Center
  categories:
  - su-treatment
  address:
    street: 6080 South Fort Apache Road
    city: Las Vegas
    state: nv
    zip: '89148'
  place: '3240000'
  geo:
    lat: 36.07814
    lng: -115.2962
  phone: 760-710-0968
  website: https://www.ctcprograms.com
  sources:
  - samhsa/findtreatment
  verified:
    'on': '2026-07-19'
    method: api
- id: nv/las-vegas/multicultural-csl-collaborative-inc-multicultura
  name: Multicultural Csl Collaborative Inc Multicultural Wellness West
  categories:
  - su-treatment
  - mh-treatment
  address:
    street: 2920 South Jones Boulevard
    city: Las Vegas
    state: nv
    zip: '89146'
  place: '3240000'
  geo:
    lat: 36.1363
    lng: -115.22444
  phone: 702-476-6395
  website: https://www.mwwest.com
  sources:
  - samhsa/findtreatment
  verified:
    'on': '2026-07-19'
    method: api
- id: nv/las-vegas/nellis-family-medical-and-dental-center
  name: Nellis Family Medical and Dental Center
  categories:
  - community-health-center
  address:
    street: 691 N Nellis Blvd
    city: Las Vegas
    state: nv
    zip: '89110'
  place: '3240000'
  geo:
    lat: 36.17544
    lng: -115.06359
  phone: 702-563-4662
  website: https://www.nvhealthcenters.org
  external_ids:
    bphc: BPS-H80-039310
  sources:
  - hrsa/health-center-sites
  verified:
    'on': '2026-07-19'
    method: api
- id: nv/las-vegas/nevada-children-s-health-project
  name: Nevada Children's Health Project
  categories:
  - community-health-center
  address:
    street: 1799 Mount Mariah Dr
    city: Las Vegas
    state: nv
    zip: '89106'
  place: '3240000'
  geo:
    lat: 36.19318
    lng: -115.16395
  phone: 702-241-7627
  website: https://www.nvhealthcenters.org
  external_ids:
    bphc: BPS-H80-024497
  sources:
  - hrsa/health-center-sites
  verified:
    'on': '2026-07-19'
    method: api
- id: nv/las-vegas/nevada-health-centers-at-enterprise
  name: Nevada Health Centers at Enterprise
  categories:
  - community-health-center
  address:
    street: 1700 Wheeler Peak Dr
    city: Las Vegas
    state: nv
    zip: '89106'
  place: '3240000'
  geo:
    lat: 36.19097
    lng: -115.1631
  phone: 702-563-4625
  website: https://www.nvhealthcenters.org
  external_ids:
    bphc: BPS-H80-027612
  sources:
  - hrsa/health-center-sites
  verified:
    'on': '2026-07-19'
    method: api
- id: nv/las-vegas/nevada-health-centers-mammovan
  name: Nevada Health Centers Mammovan
  categories:
  - community-health-center
  address:
    street: 1799 Mount Mariah Dr
    city: Las Vegas
    state: nv
    zip: '89106'
  place: '3240000'
  geo:
    lat: 36.19318
    lng: -115.16395
  phone: 877-581-6266
  website: https://www.nvhealthcenters.org
  external_ids:
    bphc: BPS-H80-005302
  sources:
  - hrsa/health-center-sites
  verified:
    'on': '2026-07-19'
    method: api
- id: nv/las-vegas/new-beginnings-counseling-centers-inc
  name: New Beginnings Counseling Centers Inc.
  categories:
  - su-treatment
  - mh-treatment
  address:
    street: 3675 Pecos McLeod
    city: Las Vegas
    state: nv
    zip: '89121'
  place: '3240000'
  geo:
    lat: 36.12298
    lng: -115.10668
  phone: 702-538-7412
  website: https://www.newbeginningscounselingcenters.com
  sources:
  - samhsa/findtreatment
  verified:
    'on': '2026-07-19'
    method: api
- id: nv/las-vegas/noble-counseling-and-wellness
  name: Noble Counseling and Wellness
  categories:
  - su-treatment
  - mh-treatment
  address:
    street: 2801 South Valley View Boulevard
    city: Las Vegas
    state: nv
    zip: '89102'
  place: '3240000'
  geo:
    lat: 36.14048
    lng: -115.19132
  phone: 725-600-2708
  website: https://www.noblecounselingandwellnessllc.godaddysites.com
  sources:
  - samhsa/findtreatment
  verified:
    'on': '2026-07-19'
    method: api
- id: nv/las-vegas/north-east-medical-services-las-vegas
  name: North East Medical Services - Las Vegas
  categories:
  - community-health-center
  address:
    street: 5580 W Flamingo Rd, Suite 105
    city: Las Vegas
    state: nv
    zip: '89103'
  place: '3240000'
  geo:
    lat: 36.11617
    lng: -115.21806
  phone: 888-500-1886
  website: https://www.nems.org/
  external_ids:
    bphc: BPS-H80-039814
  sources:
  - hrsa/health-center-sites
  verified:
    'on': '2026-07-19'
    method: api
- id: nv/las-vegas/northeast-primary-care-clinic
  name: Northeast Primary Care Clinic
  categories:
  - su-treatment
  - mh-treatment
  address:
    street: 4461 East Charleston Boulevard
    city: Las Vegas
    state: nv
    zip: '89104'
  place: '3240000'
  geo:
    lat: 36.15784
    lng: -115.07671
  phone: 702-791-9050
  website: https://www.va.gov/southern-nevada-health-care/locations/northeast-las-vegas-va-clinic/
  sources:
  - samhsa/findtreatment
  verified:
    'on': '2026-07-19'
    method: api
- id: nv/las-vegas/partida-corona-medical-center
  name: Partida Corona Medical Center
  categories:
  - su-treatment
  address:
    street: 2950 East Flamingo Road
    city: Las Vegas
    state: nv
    zip: '89121'
  place: '3240000'
  geo:
    lat: 36.11538
    lng: -115.11051
  phone: 702-565-6004
  website: https://www.partidacorona.com
  sources:
  - samhsa/findtreatment
  verified:
    'on': '2026-07-19'
    method: api
- id: nv/las-vegas/professional-development-center
  name: Professional Development Center
  categories:
  - child-care
  address:
    street: 701 N Rancho Dr
    city: Las Vegas
    state: nv
    zip: '89106'
  place: '3240000'
  geo:
    lat: 36.17753
    lng: -115.17709
  phone: 702-486-1460
  sources:
  - acf/head-start-locations
  verified:
    'on': '2026-07-19'
    method: api
- id: nv/las-vegas/progressive-psychiatric-services-llc
  name: Progressive Psychiatric Services LLC
  categories:
  - su-treatment
  - mh-treatment
  address:
    street: 2830 South Jones Boulevard
    city: Las Vegas
    state: nv
    zip: '89146'
  place: '3240000'
  geo:
    lat: 36.13779
    lng: -115.2248
  phone: 702-899-1208
  website: https://www.progressivepsychlv.com
  sources:
  - samhsa/findtreatment
  verified:
    'on': '2026-07-19'
    method: api
- id: nv/las-vegas/prohealth-therapeutic-and-empowerment-services
  name: ProHealth Therapeutic and Empowerment Services
  categories:
  - su-treatment
  - mh-treatment
  address:
    street: 2620 South Maryland Parkway
    city: Las Vegas
    state: nv
    zip: '89109'
  place: '3240000'
  phone: 702-490-9009 x2
  website: https://www.phtes.com
  sources:
  - samhsa/findtreatment
  verified:
    'on': '2026-07-19'
    method: api
- id: nv/las-vegas/reach-out
  name: Reach Out
  categories:
  - child-care
  address:
    street: 1522 Pinto Ln
    city: Las Vegas
    state: nv
    zip: '89106'
  place: '3240000'
  geo:
    lat: 36.16462
    lng: -115.16254
  phone: 702-382-7337
  sources:
  - acf/head-start-locations
  verified:
    'on': '2026-07-19'
    method: api
- id: nv/las-vegas/rejuven-health
  name: Rejuven Health
  categories:
  - su-treatment
  - mh-treatment
  address:
    city: Las Vegas
    state: nv
    zip: '89128'
  place: '3240000'
  phone: 725-264-8686
  website: https://www.rejuvenhealthlv.org/
  sources:
  - samhsa/findtreatment
  verified:
    'on': '2026-07-19'
    method: api
- id: nv/las-vegas/renew-u-llc
  name: Renew U LLC
  categories:
  - su-treatment
  - mh-treatment
  address:
    street: 333 North Rancho Drive
    city: Las Vegas
    state: nv
    zip: '89106'
  place: '3240000'
  geo:
    lat: 36.1763
    lng: -115.17565
  phone: 725-214-3903
  website: https://
  sources:
  - samhsa/findtreatment
  verified:
    'on': '2026-07-19'
    method: api
- id: nv/las-vegas/reynaldo-martinez
  name: Reynaldo Martinez
  categories:
  - child-care
  address:
    street: 2901 Harris Ave
    city: Las Vegas
    state: nv
    zip: '89101'
  place: '3240000'
  geo:
    lat: 36.17806
    lng: -115.10917
  phone: 702-799-7048
  sources:
  - acf/head-start-locations
  verified:
    'on': '2026-07-19'
    method: api
- id: nv/las-vegas/safe-harbor-medical
  name: SAFE HARBOR MEDICAL
  categories:
  - community-health-center
  address:
    street: '2901 N Tenaya Way, #100'
    city: Las Vegas
    state: nv
    zip: '89128'
  place: '3240000'
  geo:
    lat: 36.21368
    lng: -115.25079
  phone: 702-870-8852
  website: https://WWW.SAFEHARBORMEDLV.ORG
  external_ids:
    bphc: BPS-LAL-038977
  sources:
  - hrsa/health-center-sites
  verified:
    'on': '2026-07-19'
    method: api
- id: nv/las-vegas/safe-harbor-medical-bho
  name: SAFE HARBOR MEDICAL-BHO
  categories:
  - community-health-center
  address:
    street: 2931 N Tenaya Way, Suite 206
    city: Las Vegas
    state: nv
    zip: '89128'
  place: '3240000'
  geo:
    lat: 36.21465
    lng: -115.25102
  phone: 702-870-8852
  website: https://WWW.SAFEHARBORMEDLV.ORG
  external_ids:
    bphc: BPS-LAL-040789
  sources:
  - hrsa/health-center-sites
  verified:
    'on': '2026-07-19'
    method: api
- id: nv/las-vegas/safe-harbor-medical-trac-b
  name: SAFE HARBOR MEDICAL-TRAC B
  categories:
  - community-health-center
  address:
    street: 6108 W Charleston Blvd
    city: Las Vegas
    state: nv
    zip: '89146'
  place: '3240000'
  geo:
    lat: 36.16004
    lng: -115.2244
  phone: 702-870-8852
  website: https://WWW.SAFEHARBORMEDLV.ORG
  external_ids:
    bphc: BPS-LAL-041166
  sources:
  - hrsa/health-center-sites
  verified:
    'on': '2026-07-19'
    method: api
- id: nv/las-vegas/scf-education-center-family-services-office
  name: SCF Education Center- Family Services Office
  categories:
  - child-care
  address:
    street: 2795 E Desert Inn Rd
    street2: Ste 100
    city: Las Vegas
    state: nv
    zip: '89121'
  place: '3240000'
  geo:
    lat: 36.12921
    lng: -115.11179
  phone: 702-631-7130
  sources:
  - acf/head-start-locations
  verified:
    'on': '2026-07-19'
    method: api
- id: nv/las-vegas/scf-ehs-city-impact-campus
  name: SCF EHS City Impact Campus
  categories:
  - child-care
  address:
    street: 950 E Saint Louis Ave
    city: Las Vegas
    state: nv
    zip: '89104'
  place: '3240000'
  geo:
    lat: 36.14773
    lng: -115.14248
  phone: 702-724-0557
  sources:
  - acf/head-start-locations
  verified:
    'on': '2026-07-19'
    method: api
- id: nv/las-vegas/scf-ehs-desert-rose-at-west-campus
  name: SCF EHS Desert Rose at West Campus
  categories:
  - child-care
  address:
    street: 614 Jefferson Ave
    city: Las Vegas
    state: nv
    zip: '89106'
  place: '3240000'
  geo:
    lat: 36.18309
    lng: -115.15017
  sources:
  - acf/head-start-locations
  verified:
    'on': '2026-07-19'
    method: api
- id: nv/las-vegas/scf-ehs-east-campus-campus
  name: SCF EHS East Campus Campus
  categories:
  - child-care
  address:
    street: 549 N Lamb Blvd
    city: Las Vegas
    state: nv
    zip: '89110'
  place: '3240000'
  geo:
    lat: 36.17269
    lng: -115.0813
  phone: 702-531-1067
  sources:
  - acf/head-start-locations
  verified:
    'on': '2026-07-19'
    method: api
- id: nv/las-vegas/scf-ehs-northwest-campus-laughlin
  name: SCF EHS Northwest Campus (Laughlin)
  categories:
  - child-care
  address:
    street: 3220 N Rainbow Blvd
    city: Las Vegas
    state: nv
    zip: '89108'
  place: '3240000'
  geo:
    lat: 36.21912
    lng: -115.24205
  phone: 702-731-0183
  sources:
  - acf/head-start-locations
  verified:
    'on': '2026-07-19'
    method: api
- id: nv/las-vegas/scf-ehs-northwest-campus-mesquite
  name: SCF EHS Northwest Campus (Mesquite)
  categories:
  - child-care
  address:
    street: 3220 N Rainbow Blvd
    city: Las Vegas
    state: nv
    zip: '89108'
  place: '3240000'
  geo:
    lat: 36.21926
    lng: -115.24194
  sources:
  - acf/head-start-locations
  verified:
    'on': '2026-07-19'
    method: api
- id: nv/las-vegas/scf-ehs-spring-valley-campus
  name: SCF EHS Spring Valley Campus
  categories:
  - child-care
  address:
    street: 2845 Mohawk St
    city: Las Vegas
    state: nv
    zip: '89146'
  place: '3240000'
  geo:
    lat: 36.13853
    lng: -115.21502
  phone: 702-362-2311
  sources:
  - acf/head-start-locations
  verified:
    'on': '2026-07-19'
    method: api
- id: nv/las-vegas/scf-ehs-west-campus
  name: SCF EHS West Campus
  categories:
  - child-care
  address:
    street: 614 Jefferson Ave
    city: Las Vegas
    state: nv
    zip: '89106'
  place: '3240000'
  geo:
    lat: 36.18314
    lng: -115.15007
  phone: 702-636-2001
  sources:
  - acf/head-start-locations
  verified:
    'on': '2026-07-19'
    method: api
- id: nv/las-vegas/solutions-of-change
  name: Solutions of Change
  categories:
  - su-treatment
  - mh-treatment
  address:
    street: 2310 Paseo Del Prado
    city: Las Vegas
    state: nv
    zip: '89102'
  place: '3240000'
  geo:
    lat: 36.14638
    lng: -115.17825
  phone: 702-445-6937
  website: https://www.solutionsofchange.org
  sources:
  - samhsa/findtreatment
  verified:
    'on': '2026-07-19'
    method: api
- id: nv/las-vegas/southern-nevada-adult-mental-health
  name: Southern Nevada Adult Mental Health
  categories:
  - su-treatment
  - mh-treatment
  address:
    street: 1909 South Jones Boulevard
    city: Las Vegas
    state: nv
    zip: '89146'
  place: '3240000'
  geo:
    lat: 36.14971
    lng: -115.22595
  phone: 702-486-6000
  website: https://www.dpbh.nv.gov
  sources:
  - samhsa/findtreatment
  verified:
    'on': '2026-07-19'
    method: api
- id: nv/las-vegas/southern-nevada-adult-mh-services-east-las-vegas
  name: Southern Nevada Adult MH Services East Las Vegas Clinic
  categories:
  - su-treatment
  - mh-treatment
  address:
    street: 4045 Spencer Street
    city: Las Vegas
    state: nv
    zip: '89119'
  place: '3240000'
  geo:
    lat: 36.11632
    lng: -115.12929
  phone: 702-486-6400
  website: https://www.dpbh.nv.gov
  sources:
  - samhsa/findtreatment
  verified:
    'on': '2026-07-19'
    method: api
- id: nv/las-vegas/southern-nevada-community-health-center-decatur
  name: Southern Nevada Community Health Center - Decatur
  categories:
  - community-health-center
  address:
    street: 280 S Decatur Blvd
    city: Las Vegas
    state: nv
    zip: '89107'
  place: '3240000'
  geo:
    lat: 36.17092
    lng: -115.20952
  phone: 702-759-1000
  website: https://snhd.org
  external_ids:
    bphc: BPS-H80-029621
  sources:
  - hrsa/health-center-sites
  verified:
    'on': '2026-07-19'
    method: api
- id: nv/las-vegas/southern-nevada-health-district-fremont
  name: Southern Nevada Health District - Fremont
  categories:
  - community-health-center
  address:
    street: 2830 Fremont St
    city: Las Vegas
    state: nv
    zip: '89104'
  place: '3240000'
  geo:
    lat: 36.15364
    lng: -115.11155
  phone: 702-759-1100
  external_ids:
    bphc: BPS-H80-034762
  sources:
  - hrsa/health-center-sites
  verified:
    'on': '2026-07-19'
    method: api
- id: nv/las-vegas/southern-nevada-health-district-mobile-unit
  name: Southern Nevada Health District, Mobile Unit
  categories:
  - community-health-center
  address:
    street: 700 S Martin L King Blvd
    city: Las Vegas
    state: nv
    zip: '89106'
  place: '3240000'
  geo:
    lat: 36.16222
    lng: -115.16193
  phone: 702-759-1700
  external_ids:
    bphc: BPS-H80-036786
  sources:
  - hrsa/health-center-sites
  verified:
    'on': '2026-07-19'
    method: api
- id: nv/las-vegas/southern-nevada-regional-housing-authority
  name: Southern Nevada Regional Housing Authority
  categories:
  - housing-assistance
  address: {street: 340 N 11th St, city: Las Vegas, state: nv, zip: '89101'}
  description: Public housing and Housing Choice Voucher agency
  place: '3240000'
  geo: {lat: 36.16909, lng: -115.13174}
  phone: 702-477-3100
  sources:
  - hud/resource-locator
  verified: {'on': '2026-07-19', method: api}
- id: nv/las-vegas/southwest-vegas-comprehensive-trt-ctr
  name: Southwest Vegas Comprehensive Trt Ctr
  categories:
  - su-treatment
  address:
    street: 6080 South Fort Apache Road
    city: Las Vegas
    state: nv
    zip: '89148'
  place: '3240000'
  geo:
    lat: 36.07815
    lng: -115.29622
  phone: 702-703-5848
  website: https://www.ctcprograms.com
  sources:
  - samhsa/findtreatment
  verified:
    'on': '2026-07-19'
    method: api
- id: nv/las-vegas/spencer-street-administration
  name: Spencer Street Administration
  categories:
  - community-health-center
  address:
    street: 4045 Spencer St, Suite 105
    city: Las Vegas
    state: nv
    zip: '89119'
  place: '3240000'
  geo:
    lat: 36.11566
    lng: -115.12907
  phone: 800-787-2568
  website: https://www.nvhealthcenters.org
  external_ids:
    bphc: BPS-H80-036873
  sources:
  - hrsa/health-center-sites
  verified:
    'on': '2026-07-19'
    method: api
- id: nv/las-vegas/spring-valley
  name: Spring Valley
  categories:
  - child-care
  address:
    street: 2845 Mohawk St
    city: Las Vegas
    state: nv
    zip: '89146'
  place: '3240000'
  geo:
    lat: 36.13856
    lng: -115.21508
  phone: 702-362-2311
  sources:
  - acf/head-start-locations
  verified:
    'on': '2026-07-19'
    method: api
- id: nv/las-vegas/strong-start-academy
  name: Strong Start Academy
  categories:
  - child-care
  address:
    street: 1617 Alta Dr
    city: Las Vegas
    state: nv
    zip: '89106'
  place: '3240000'
  geo:
    lat: 36.16593
    lng: -115.16284
  phone: 702-954-4777
  sources:
  - acf/head-start-locations
  verified:
    'on': '2026-07-19'
    method: api
- id: nv/las-vegas/strong-start-mirabelli
  name: Strong Start Mirabelli
  categories:
  - child-care
  address:
    street: 6200 Hargrove Ave
    city: Las Vegas
    state: nv
    zip: '89107'
  place: '3240000'
  geo:
    lat: 36.17347
    lng: -115.22743
  phone: 725-204-6668
  sources:
  - acf/head-start-locations
  verified:
    'on': '2026-07-19'
    method: api
- id: nv/las-vegas/stupak
  name: Stupak
  categories:
  - child-care
  address:
    street: 251 W Boston Ave
    city: Las Vegas
    state: nv
    zip: '89102'
  place: '3240000'
  geo:
    lat: 36.14702
    lng: -115.16011
  phone: 702-685-6565
  sources:
  - acf/head-start-locations
  verified:
    'on': '2026-07-19'
    method: api
- id: nv/las-vegas/sunarch-academy
  name: Sunarch Academy
  categories:
  - su-treatment
  - mh-treatment
  address:
    street: 5900 West Rochelle Avenue
    city: Las Vegas
    state: nv
    zip: '89103'
  place: '3240000'
  geo:
    lat: 36.11179
    lng: -115.2216
  phone: 702-982-7600
  website: https://www.sunarchacademy.com/
  sources:
  - samhsa/findtreatment
  verified:
    'on': '2026-07-19'
    method: api
- id: nv/las-vegas/thrive-behavioral-hospital
  name: Thrive Behavioral Hospital
  categories:
  - su-treatment
  - mh-treatment
  address:
    street: 5900 West Rochelle Avenue
    city: Las Vegas
    state: nv
    zip: '89103'
  place: '3240000'
  geo:
    lat: 36.11179
    lng: -115.2216
  phone: 702-522-7922
  website: https://www.thrivehospital.com
  sources:
  - samhsa/findtreatment
  verified:
    'on': '2026-07-19'
    method: api
- id: nv/las-vegas/thrive-solutions
  name: THRIVE  Solutions
  categories:
  - su-treatment
  - mh-treatment
  address:
    street: 5584 South Fort Apache Road
    city: Las Vegas
    state: nv
    zip: '89148'
  place: '3240000'
  geo:
    lat: 36.0875
    lng: -115.29481
  phone: 702-296-1222
  website: https://www.Thrivetreatsyouwell.com
  sources:
  - samhsa/findtreatment
  verified:
    'on': '2026-07-19'
    method: api
- id: nv/las-vegas/tinhih-there-is-no-hero-in-heroin
  name: TINHIH There Is No Hero In Heroin
  categories:
  - su-treatment
  - mh-treatment
  address:
    street: 2545 South Torrey Pines Drive
    city: Las Vegas
    state: nv
    zip: '89146'
  place: '3240000'
  geo:
    lat: 36.14302
    lng: -115.23426
  phone: 702-445-7318
  website: https://www.tinhih.org
  sources:
  - samhsa/findtreatment
  verified:
    'on': '2026-07-19'
    method: api
- id: nv/las-vegas/tinhih-there-is-no-hero-in-heroin-2
  name: TiNHiH There is No Hero in Heroin
  categories:
  - su-treatment
  address:
    street: 3441 West Sahara
    city: Las Vegas
    state: nv
    zip: '89102'
  place: '3240000'
  geo:
    lat: 36.14349
    lng: -115.18774
  phone: 702-445-7318
  website: https://www.tinhih.org
  sources:
  - samhsa/findtreatment
  verified:
    'on': '2026-07-19'
    method: api
- id: nv/las-vegas/trz-nv-llc-dba-one-mind-wellness
  name: TRZ NV LLC DBA - One Mind Wellness
  categories:
  - su-treatment
  - mh-treatment
  address:
    street: 3430 East Flamingo Road
    city: Las Vegas
    state: nv
    zip: '89121'
  place: '3240000'
  geo:
    lat: 36.11574
    lng: -115.1005
  phone: 702-389-7937
  website: https://www.onemindwellness.org
  sources:
  - samhsa/findtreatment
  verified:
    'on': '2026-07-19'
    method: api
- id: nv/las-vegas/valetudo-pllc-cheerfeel
  name: Valetudo PLLC CheerFeel
  categories:
  - su-treatment
  - mh-treatment
  address:
    street: 3061 South Maryland Parkway
    city: Las Vegas
    state: nv
    zip: '89109'
  place: '3240000'
  geo:
    lat: 36.1341
    lng: -115.13755
  phone: 702-910-6857
  website: https://www.valetudo.health
  sources:
  - samhsa/findtreatment
  verified:
    'on': '2026-07-19'
    method: api
- id: nv/las-vegas/vegas-stronger
  name: Vegas Stronger
  categories:
  - su-treatment
  address:
    street: 916 North Main Street
    city: Las Vegas
    state: nv
    zip: '89101'
  place: '3240000'
  geo:
    lat: 36.18035
    lng: -115.14024
  phone: 702-202-6647
  website: https://www.vegasstronger.org
  sources:
  - samhsa/findtreatment
  verified:
    'on': '2026-07-19'
    method: api
- id: nv/las-vegas/vegas-stronger-2
  name: Vegas Stronger
  categories:
  - su-treatment
  address:
    street: 737 North Main Street
    city: Las Vegas
    state: nv
    zip: '89101'
  place: '3240000'
  geo:
    lat: 36.17998
    lng: -115.14208
  phone: 702-202-6647
  website: https://www.vegasstronger.org
  sources:
  - samhsa/findtreatment
  verified:
    'on': '2026-07-19'
    method: api
- id: nv/las-vegas/vegas-treatment-center
  name: Vegas Treatment Center
  categories:
  - su-treatment
  address:
    street: 2121 East Flamingo Road
    city: Las Vegas
    state: nv
    zip: '89121'
  place: '3240000'
  geo:
    lat: 36.11406
    lng: -115.123
  phone: 702-463-7719
  website: https://www.vegastreatmentcenter.com
  sources:
  - samhsa/findtreatment
  verified:
    'on': '2026-07-19'
    method: api
- id: nv/las-vegas/virtue-recovery-las-vegas-llc
  name: Virtue Recovery Las Vegas LLC
  categories:
  - su-treatment
  - mh-treatment
  address:
    street: 9230 Corbett Street
    city: Las Vegas
    state: nv
    zip: '89149'
  place: '3240000'
  geo:
    lat: 36.26923
    lng: -115.29783
  phone: 866-779-9924
  website: https://www.virtuerecoverylasvegas.com/?utm_campaign=gmb
  sources:
  - samhsa/findtreatment
  verified:
    'on': '2026-07-19'
    method: api
- id: nv/las-vegas/virtue-recovery-las-vegas-llc-outpatient
  name: Virtue Recovery Las Vegas LLC Outpatient
  categories:
  - su-treatment
  - mh-treatment
  address:
    street: 2585 Montessouri Street
    city: Las Vegas
    state: nv
    zip: '89117'
  place: '3240000'
  geo:
    lat: 36.1426
    lng: -115.24796
  phone: 866-779-9576
  website: https://www.virtuerecoverycenter.com
  sources:
  - samhsa/findtreatment
  verified:
    'on': '2026-07-19'
    method: api
- id: nv/las-vegas/vogue-recovery-center
  name: Vogue Recovery Center
  categories:
  - su-treatment
  - mh-treatment
  address:
    street: 4011 McLeod Drive
    city: Las Vegas
    state: nv
    zip: '89121'
  place: '3240000'
  geo:
    lat: 36.11605
    lng: -115.11049
  phone: 702-473-1970
  website: https://voguerecoverycenter.com
  sources:
  - samhsa/findtreatment
  verified:
    'on': '2026-07-19'
    method: api
- id: nv/las-vegas/w-holistic-recovery-center-llc
  name: W Holistic Recovery Center LLC
  categories:
  - su-treatment
  - mh-treatment
  address:
    street: 4530 South Eastern Avenue
    city: Las Vegas
    state: nv
    zip: '89119'
  place: '3240000'
  geo:
    lat: 36.10674
    lng: -115.11807
  phone: 702-954-4550
  website: https://
  sources:
  - samhsa/findtreatment
  verified:
    'on': '2026-07-19'
    method: api
- id: nv/las-vegas/wardelle
  name: Wardelle
  categories:
  - child-care
  address:
    street: 2950 E Bonanza Rd
    city: Las Vegas
    state: nv
    zip: '89101'
  place: '3240000'
  geo:
    lat: 36.17439
    lng: -115.10864
  phone: 702-438-0044
  sources:
  - acf/head-start-locations
  verified:
    'on': '2026-07-19'
    method: api
- id: nv/las-vegas/wc-health-medtrans-behavioral-nevada-casal-pllc
  name: WC Health Medtrans Behavioral Nevada Casal PLLC
  categories:
  - su-treatment
  - mh-treatment
  address:
    street: 3312 West Charleston Boulevard
    city: Las Vegas
    state: nv
    zip: '89102'
  place: '3240000'
  geo:
    lat: 36.1593
    lng: -115.18645
  phone: 702-410-7825
  website: https://www.wc-health.com
  sources:
  - samhsa/findtreatment
  verified:
    'on': '2026-07-19'
    method: api
- id: nv/las-vegas/wc-health-medtrans-behavioral-nevada-casal-pllc-2
  name: WC Health Medtrans Behavioral Nevada Casal, PLLC
  categories:
  - su-treatment
  - mh-treatment
  address:
    street: 5412 Boulder Highway
    city: Las Vegas
    state: nv
    zip: '89122'
  place: '3240000'
  geo:
    lat: 36.10313
    lng: -115.05442
  phone: 702-548-0157
  website: https://www.wc-health.com
  sources:
  - samhsa/findtreatment
  verified:
    'on': '2026-07-19'
    method: api
- id: nv/las-vegas/we-care-foundation
  name: We Care Foundation
  categories:
  - su-treatment
  address:
    street: 2216 South 6th Street
    city: Las Vegas
    state: nv
    zip: '89104'
  place: '3240000'
  geo:
    lat: 36.14535
    lng: -115.14687
  phone: 702-369-0613
  website: https://wecarehouse1961.wixsite.com/wecare
  sources:
  - samhsa/findtreatment
  verified:
    'on': '2026-07-19'
    method: api
- id: nv/las-vegas/west-neighborhood-family-servs-ctr
  name: West Neighborhood Family Servs Ctr
  categories:
  - mh-treatment
  address:
    street: 1901 Jones Boulevard
    city: Las Vegas
    state: nv
    zip: '89146'
  place: '3240000'
  geo:
    lat: 36.15006
    lng: -115.2262
  phone: 702-486-6100
  website: https://www.dcfs.nv.gov
  sources:
  - samhsa/findtreatment
  verified:
    'on': '2026-07-19'
    method: api
- id: nv/las-vegas/westcare-nevada-inc-community-involvement-center
  name: WestCare Nevada Inc Community Involvement Center/Las Vegas
  categories:
  - su-treatment
  - mh-treatment
  address:
    street: 323 North Maryland Parkway
    city: Las Vegas
    state: nv
    zip: '89101'
  place: '3240000'
  geo:
    lat: 36.16869
    lng: -115.13048
  phone: 702-385-2090 x61710
  website: https://www.westcarenevada.com
  sources:
  - samhsa/findtreatment
  verified:
    'on': '2026-07-19'
    method: api
- id: nv/las-vegas/westcare-nevada-inc-harris-springs-ranch
  name: WestCare Nevada Inc Harris Springs Ranch
  categories:
  - su-treatment
  address:
    street: 1200 Harris Springs Road
    city: Las Vegas
    state: nv
    zip: '89124'
  place: '3240000'
  geo:
    lat: 36.23946
    lng: -115.54182
  phone: 702-385-2090 x61501
  website: https://www.westcarenevada.com
  sources:
  - samhsa/findtreatment
  verified:
    'on': '2026-07-19'
    method: api
- id: nv/las-vegas/westcare-nevada-inc-women-and-childrens-campus
  name: WestCare Nevada Inc Women and Childrens Campus
  categories:
  - su-treatment
  address:
    street: 5659 Duncan Drive
    city: Las Vegas
    state: nv
    zip: '89130'
  place: '3240000'
  geo:
    lat: 36.22756
    lng: -115.22005
  phone: 702-385-2090
  website: https://www.westcarenevada.com
  sources:
  - samhsa/findtreatment
  verified:
    'on': '2026-07-19'
    method: api
- id: nv/las-vegas/yvonne-atkinson-gates
  name: Yvonne Atkinson Gates
  categories:
  - child-care
  address:
    street: 951 N Tonopah Dr
    city: Las Vegas
    state: nv
    zip: '89106'
  place: '3240000'
  geo:
    lat: 36.18243
    lng: -115.17043
  phone: 702-799-1844
  sources:
  - acf/head-start-locations
  verified:
    'on': '2026-07-19'
    method: api
