- id: nv/yerington/boys-girls-club-of-mason-valley
  name: Boys & Girls Club Of Mason Valley
  categories:
  - meal-program
  address:
    street: 124 North Main St
    city: Yerington
    state: nv
    zip: '89447'
  description: Free summer meals for kids and teens (2026 season) — sponsored by BOYS & GIRLS CLUB OF
    MASON VALLEY.
  place: '3285400'
  geo:
    lat: 38.98975
    lng: -119.16312
  phone: (775) 463-2334
  external_ids:
    usda_master: Cycle 00_NV_SFSP_0001
  sources:
  - usda/summer-meal-sites
  verified:
    'on': '2026-07-19'
    method: api
- id: nv/yerington/yerington-center
  name: Yerington Center
  categories:
  - child-care
  address:
    street: 311 Virginia St
    city: Yerington
    state: nv
    zip: '89447'
  place: '3285400'
  geo:
    lat: 38.98873
    lng: -119.16718
  phone: 801-521-4473
  sources:
  - acf/head-start-locations
  verified:
    'on': '2026-07-19'
    method: api
- id: nv/yerington/yerington-es
  name: Yerington Es
  categories:
  - meal-program
  address:
    street: 112 N California Street
    city: Yerington
    state: nv
    zip: '89447'
  description: Free summer meals for kids and teens (2026 season) — sponsored by Lyon County School District.
  place: '3285400'
  geo:
    lat: 38.98876
    lng: -119.16016
  phone: (775) 463-6822
  external_ids:
    usda_master: Cycle 09_NV_SFSP_0083
  sources:
  - usda/summer-meal-sites
  verified:
    'on': '2026-07-19'
    method: api
- id: nv/yerington/yerington-head-start
  name: Yerington Head Start
  categories:
  - child-care
  address:
    street: 171 Campbell Ln
    city: Yerington
    state: nv
    zip: '89447'
  place: '3285400'
  geo:
    lat: 39.07047
    lng: -119.18617
  phone: 775-463-1690
  sources:
  - acf/head-start-locations
  verified:
    'on': '2026-07-19'
    method: api
- id: nv/yerington/yerington-hs
  name: Yerington Hs
  categories:
  - meal-program
  address:
    street: 114 Pearl Street
    city: Yerington
    state: nv
    zip: '89447'
  description: Free summer meals for kids and teens (2026 season) — sponsored by Lyon County School District.
  place: '3285400'
  geo:
    lat: 38.99029
    lng: -119.1606
  phone: (775) 463-6822
  external_ids:
    usda_master: Cycle 09_NV_SFSP_0085
  sources:
  - usda/summer-meal-sites
  verified:
    'on': '2026-07-19'
    method: api
- id: nv/yerington/yerington-paiute-tribe-education-center
  name: Yerington Paiute Tribe Education Center
  categories:
  - meal-program
  address:
    street: 171 Campbell Lane
    city: Yerington
    state: nv
    zip: '89447'
  description: Free summer meals for kids and teens (2026 season) — sponsored by Yerington Paiute Tribe.
  place: '3285400'
  geo:
    lat: 39.07293
    lng: -119.22917
  phone: (775) 783-0200
  external_ids:
    usda_master: Cycle 08_NV_SFSP_0147
  sources:
  - usda/summer-meal-sites
  verified:
    'on': '2026-07-19'
    method: api
