- id: il/addison/access-a-z-family-health-center
  name: ACCESS A-Z Family Health Center
  categories:
  - community-health-center
  address:
    street: 721 W Lake St, Suite 202
    city: Addison
    state: il
    zip: '60101'
  place: '1700243'
  geo:
    lat: 41.94019
    lng: -88.00873
  phone: 866-267-2353
  website: https://www.achn.net/
  external_ids:
    bphc: BPS-H80-040353
  sources:
  - hrsa/health-center-sites
  verified:
    'on': '2026-07-19'
    method: api
- id: il/addison/access-addison-family-health-center
  name: ACCESS Addison Family Health Center
  categories:
  - community-health-center
  address:
    street: 1111 W Lake St
    city: Addison
    state: il
    zip: '60101'
  place: '1700243'
  geo:
    lat: 41.94358
    lng: -88.01665
  phone: 630-628-1811
  website: https://www.accesscommunityhealth.net
  external_ids:
    bphc: BPS-H80-005384
  sources:
  - hrsa/health-center-sites
  verified:
    'on': '2026-07-19'
    method: api
- id: il/addison/addison-children-s-center
  name: Addison Children's Center
  categories:
  - child-care
  address:
    street: 121 E Fullerton Ave
    city: Addison
    state: il
    zip: '60101'
  place: '1700243'
  geo:
    lat: 41.91962
    lng: -87.98621
  phone: 630-784-4950
  sources:
  - acf/head-start-locations
  verified:
    'on': '2026-07-19'
    method: api
- id: il/addison/army-trail-dupage-head-start
  name: Army Trail DuPage Head Start
  categories:
  - child-care
  address:
    street: 346 W Army Trail Blvd
    city: Addison
    state: il
    zip: '60101'
  place: '1700243'
  geo:
    lat: 41.93238
    lng: -87.99754
  phone: 630-784-4849
  sources:
  - acf/head-start-locations
  verified:
    'on': '2026-07-19'
    method: api
- id: il/addison/dupage-county-health-department-north-public-hea
  name: DuPage County Health Department North Public Health Center
  categories:
  - su-treatment
  - mh-treatment
  address:
    street: 1111 West Lake Street
    city: Addison
    state: il
    zip: '60101'
  place: '1700243'
  geo:
    lat: 41.94361
    lng: -88.0168
  phone: 630-682-7400
  website: https://www.dupagehealth.org
  sources:
  - samhsa/findtreatment
  verified:
    'on': '2026-07-19'
    method: api
- id: il/addison/hamdard-health-addison
  name: Hamdard Health Addison
  categories:
  - community-health-center
  address:
    street: 228 E Lake St
    city: Addison
    state: il
    zip: '60101'
  place: '1700243'
  geo:
    lat: 41.93074
    lng: -87.9828
  phone: 630-835-1430
  website: https://www.hamdardhealth.org/
  external_ids:
    bphc: BPS-H80-013351
  sources:
  - hrsa/health-center-sites
  verified:
    'on': '2026-07-19'
    method: api
- id: il/addison/legacy-medical-care-addison
  name: Legacy Medical Care - Addison
  categories:
  - community-health-center
  address:
    street: 2055 W Army Trail Rd, Ste 104
    city: Addison
    state: il
    zip: '60101'
  place: '1700243'
  geo:
    lat: 41.9324
    lng: -88.03984
  phone: 630-599-5400
  website: https://www.legacymedicalcare.org
  external_ids:
    bphc: BPS-LAL-018712
  sources:
  - hrsa/health-center-sites
  verified:
    'on': '2026-07-19'
    method: api
- id: il/addison/little-prince-daycare
  name: Little Prince Daycare
  categories:
  - child-care
  address:
    street: 233 N Mill Rd
    city: Addison
    state: il
    zip: '60101'
  place: '1700243'
  geo:
    lat: 41.9319
    lng: -88.00279
  phone: 630-903-6609
  sources:
  - acf/head-start-locations
  verified:
    'on': '2026-07-19'
    method: api
