- id: il/bensenville/bensenville-early-learning-center
  name: Bensenville Early Learning Center
  categories:
  - child-care
  address: {street: 212 W Memorial Rd, city: Bensenville, state: il, zip: '60106'}
  description: Head Start early childhood program — 16 funded slots; operated by Metropolitan Family Services
    DuPage Head Start.
  place: '1705248'
  geo: {lat: 41.9493, lng: -87.94179}
  phone: 630-766-2602
  sources:
  - acf/head-start-locations
  verified: {'on': '2026-07-19', method: api}
- id: il/bensenville/bensenville-public-library
  name: Bensenville Public Library
  categories:
  - meal-program
  address: {street: 200 S Church Rd, city: Bensenville, state: il, zip: '60106'}
  description: Free summer meals for kids and teens (2026 season) — sponsored by Northern Illinois Food
    Bank.
  place: '1705248'
  geo: {lat: 41.95335, lng: -87.95041}
  phone: (630) 766-4642
  external_ids: {usda_master: Cycle 01_IL_SFSP_0427}
  sources:
  - usda/summer-meal-sites
  verified: {'on': '2026-07-19', method: api}
- id: il/bensenville/fenton-high-school
  name: Fenton High School
  categories:
  - meal-program
  address: {street: 1000 W Green St, city: Bensenville, state: il, zip: '60106'}
  description: Free summer meals for kids and teens (2026 season) — sponsored by Fenton CHSD 100.
  place: '1705248'
  geo: {lat: 41.94721, lng: -87.97951}
  phone: (630) 860-6259
  external_ids: {usda_master: Cycle 01_IL_SSO_0045}
  sources:
  - usda/summer-meal-sites
  verified: {'on': '2026-07-19', method: api}
- id: il/bensenville/vna-health-center-bensenville
  name: VNA Health Center - Bensenville
  categories:
  - community-health-center
  cost: sliding-scale
  address: {street: 213 W Main St, city: Bensenville, state: il, zip: '60106'}
  place: '1705248'
  geo: {lat: 41.9575, lng: -87.94325}
  phone: 630-892-4355
  external_ids: {bphc: BPS-H80-035305}
  sources:
  - hrsa/health-center-sites
  verified: {'on': '2026-07-19', method: api}
- id: il/bensenville/w-a-johnson-sch
  name: W A Johnson Sch
  categories:
  - meal-program
  address: {street: 252 Ridgewood Ave, city: Bensenville, state: il, zip: '60106'}
  description: Free summer meals for kids and teens (2026 season) — sponsored by Bensenville SD 2.
  place: '1705248'
  geo: {lat: 41.94888, lng: -87.95652}
  phone: (630) 766-2605
  external_ids: {usda_master: Cycle 07_IL_SSO_0529}
  sources:
  - usda/summer-meal-sites
  verified: {'on': '2026-07-19', method: api}
