- id: il/bourbonnais/alan-b-shepard-elem-school
  name: Alan B Shepard Elem School
  categories:
  - meal-program
  address: {street: 325 N Convent St, city: Bourbonnais, state: il, zip: '60914'}
  description: Free summer meals for kids and teens (2026 season) — sponsored by Bourbonnais SD 53.
  place: '1707471'
  geo: {lat: 41.16147, lng: -87.87541}
  phone: (815) 929-5150
  external_ids: {usda_master: Cycle 01_IL_SSO_0006}
  sources:
  - usda/summer-meal-sites
  verified: {'on': '2026-07-19', method: api}
- id: il/bourbonnais/alan-b-shepard-elem-school-2
  name: Alan B Shepard Elem School
  categories:
  - meal-program
  address: {street: 813 W Burns Rd, city: Bourbonnais, state: il, zip: '60914'}
  description: Free summer meals for kids and teens (2026 season) — sponsored by Bourbonnais SD 53.
  place: '1707471'
  geo: {lat: 41.16668, lng: -87.86944}
  phone: (815) 929-5150
  external_ids: {usda_master: Cycle 01_IL_SSO_0007}
  sources:
  - usda/summer-meal-sites
  verified: {'on': '2026-07-19', method: api}
- id: il/bourbonnais/kankakee-county-va-clinic
  name: Kankakee County VA Clinic
  categories:
  - va-facility
  - health
  description: Primary Care CBOC
  address:
    street: 581 William Latham Drive
    city: Bourbonnais
    state: il
    zip: '60914'
  place: '1707471'
  geo:
    lat: 41.16267
    lng: -87.87961
  phone: 815-932-3823
  website: https://www.va.gov/hines-health-care/locations/kankakee-county-va-clinic/
  hours:
  - days:
    - mon
    - wed
    - fri
    open: 07:30
    close: '16:30'
  - days:
    - tue
    - thu
    open: 07:30
    close: '18:00'
  services:
  - Audiology and speech
  - Dermatology
  - Laboratory and pathology
  - Mental health care
  - My HealtheVet coordinator
  - Pharmacy
  - Primary care
  external_ids:
    va: vha_578GC
  sources:
  - va/facilities-api
  verified:
    'on': '2026-07-19'
    method: api
- id: il/bourbonnais/lasting-impressions
  name: Lasting Impressions
  categories:
  - child-care
  address:
    street: 735 Main St NW
    city: Bourbonnais
    state: il
    zip: '60914'
  place: '1707471'
  geo:
    lat: 41.16121
    lng: -87.88846
  phone: 815-937-3553
  sources:
  - acf/head-start-locations
  verified:
    'on': '2026-07-19'
    method: api
- id: il/bourbonnais/noel-levasseur-elem-school
  name: Noel Levasseur Elem School
  categories:
  - meal-program
  address: {street: 601 W Bethel Dr, city: Bourbonnais, state: il, zip: '60914'}
  description: Free summer meals for kids and teens (2026 season) — sponsored by Bourbonnais SD 53.
  place: '1707471'
  geo: {lat: 41.16997, lng: -87.88627}
  phone: (815) 929-5150
  external_ids: {usda_master: Cycle 01_IL_SSO_0103}
  sources:
  - usda/summer-meal-sites
  verified: {'on': '2026-07-19', method: api}
- id: il/bourbonnais/noel-levasseur-elem-school-2
  name: Noel Levasseur Elem School
  categories:
  - meal-program
  address: {street: 813 W Burns Rd, city: Bourbonnais, state: il, zip: '60914'}
  description: Free summer meals for kids and teens (2026 season) — sponsored by Bourbonnais SD 53.
  place: '1707471'
  geo: {lat: 41.16668, lng: -87.86944}
  phone: (815) 929-5150
  external_ids: {usda_master: Cycle 01_IL_SSO_0104}
  sources:
  - usda/summer-meal-sites
  verified: {'on': '2026-07-19', method: api}
- id: il/bourbonnais/play-palz-101
  name: Play Palz 101
  categories:
  - child-care
  address:
    street: 115 Mooney Dr
    street2: Ste 4
    city: Bourbonnais
    state: il
    zip: '60914'
  place: '1707471'
  geo:
    lat: 41.15855
    lng: -87.86198
  phone: 815-929-0101
  sources:
  - acf/head-start-locations
  verified:
    'on': '2026-07-19'
    method: api
- id: il/bourbonnais/shabbona-elementary
  name: Shabbona Elementary
  categories:
  - child-care
  address:
    street: 321 N Convent St
    city: Bourbonnais
    state: il
    zip: '60914'
  place: '1707471'
  geo:
    lat: 41.16068
    lng: -87.87649
  phone: 815-802-4954
  sources:
  - acf/head-start-locations
  verified:
    'on': '2026-07-19'
    method: api
- id: il/bourbonnais/shepard
  name: Shepard
  categories:
  - child-care
  address:
    street: 325 N Convent St
    city: Bourbonnais
    state: il
    zip: '60914'
  place: '1707471'
  geo:
    lat: 41.16145
    lng: -87.87776
  phone: 815-802-4951
  sources:
  - acf/head-start-locations
  verified:
    'on': '2026-07-19'
    method: api
