- id: il/dixon/adult-education-associates
  name: Adult Education Associates
  categories:
  - su-treatment
  address:
    street: 748 Timbercreek Road
    city: Dixon
    state: il
    zip: '61021'
  place: '1720162'
  geo:
    lat: 41.87357
    lng: -89.48938
  phone: 815-284-3940
  website: https://www.adulteducationassociates.com
  sources:
  - samhsa/findtreatment
  verified:
    'on': '2026-07-19'
    method: api
- id: il/dixon/dixon
  name: DIXON
  categories:
  - child-care
  address:
    street: 501 S Lincoln Ave
    city: Dixon
    state: il
    zip: '61021'
  place: '1720162'
  geo:
    lat: 41.83678
    lng: -89.49707
  phone: 815-669-5760
  sources:
  - acf/head-start-locations
  verified:
    'on': '2026-07-19'
    method: api
- id: il/dixon/lee-county-housing-authority
  name: Lee County Housing Authority
  categories:
  - housing-assistance
  address: {street: 1000 Washington Ave, city: Dixon, state: il, zip: '61021'}
  description: Public housing and Housing Choice Voucher agency
  place: '1720162'
  geo: {lat: 41.86039, lng: -89.47928}
  phone: 815-284-2759
  sources:
  - hud/resource-locator
  verified: {'on': '2026-07-19', method: api}
- id: il/dixon/osf-saint-katharine-medical-center-behavioral-he
  name: OSF Saint Katharine Medical Center Behavioral Healthcare
  categories:
  - su-treatment
  - mh-treatment
  address:
    street: 403 East 1st Street
    city: Dixon
    state: il
    zip: '61021'
  place: '1720162'
  geo:
    lat: 41.84459
    lng: -89.47923
  phone: 815-285-5631 x1023
  website: https://OSFhealthcare.org
  sources:
  - samhsa/findtreatment
  verified:
    'on': '2026-07-19'
    method: api
- id: il/dixon/sinnissippi-centers-inc
  name: Sinnissippi Centers Inc
  categories:
  - su-treatment
  - mh-treatment
  address:
    street: 325 Illinois Route 2
    city: Dixon
    state: il
    zip: '61021'
  place: '1720162'
  geo:
    lat: 41.8225
    lng: -89.56821
  phone: 815-284-6611 x8240
  website: https://www.sinnissippi.org
  sources:
  - samhsa/findtreatment
  verified:
    'on': '2026-07-19'
    method: api
- id: il/dixon/sinnissippi-centers-inc-mens-recovery-home
  name: Sinnissippi Centers Inc Mens Recovery Home
  categories:
  - su-treatment
  - mh-treatment
  address:
    street: 922 Washington Avenue
    city: Dixon
    state: il
    zip: '61021'
  place: '1720162'
  geo:
    lat: 41.85902
    lng: -89.47882
  phone: 815-284-6611
  website: https://www.sinnissippi.org
  sources:
  - samhsa/findtreatment
  verified:
    'on': '2026-07-19'
    method: api
