- id: il/harvard/crosby-elem-sch
  name: Crosby Elem Sch
  categories:
  - meal-program
  address:
    street: 401 Hereley Dr
    city: Harvard
    state: il
    zip: '60033'
  description: Free summer meals for kids and teens (2026 season) — sponsored by Harvard CUSD 50.
  place: '1733331'
  geo:
    lat: 42.40178
    lng: -88.61969
  phone: (815) 943-4022
  external_ids:
    usda_master: Cycle 02_IL_SFSP_0072
  sources:
  - usda/summer-meal-sites
  verified:
    'on': '2026-07-19'
    method: api
- id: il/harvard/harvard-center
  name: Harvard Center
  categories:
  - child-care
  address:
    street: 1100 N Division St
    city: Harvard
    state: il
    zip: '60033'
  place: '1733331'
  geo:
    lat: 42.42767
    lng: -88.61453
  phone: 815-943-5535
  sources:
  - acf/head-start-locations
  verified:
    'on': '2026-07-19'
    method: api
- id: il/harvard/harvard-high-school
  name: Harvard High School
  categories:
  - meal-program
  address:
    street: 1103 N Jefferson St
    city: Harvard
    state: il
    zip: '60033'
  description: Free summer meals for kids and teens (2026 season) — sponsored by Harvard CUSD 50.
  place: '1733331'
  geo:
    lat: 42.42785
    lng: -88.61108
  phone: (815) 943-6461
  external_ids:
    usda_master: Cycle 06_IL_SFSP_0460
  sources:
  - usda/summer-meal-sites
  verified:
    'on': '2026-07-19'
    method: api
- id: il/harvard/susana-p-castro-health-center
  name: Susana P. Castro Health Center
  categories:
  - community-health-center
  address:
    street: '62 N Ayer St, #A'
    city: Harvard
    state: il
    zip: '60033'
  place: '1733331'
  geo:
    lat: 42.42166
    lng: -88.61457
  phone: 815-943-4339
  external_ids:
    bphc: BPS-H80-013978
  sources:
  - hrsa/health-center-sites
  verified:
    'on': '2026-07-19'
    method: api
- id: il/harvard/susana-p-castro-health-center-dental-clinic
  name: Susana P. Castro Health Center - Dental Clinic
  categories:
  - community-health-center
  address:
    street: 62 N Ayer St
    city: Harvard
    state: il
    zip: '60033'
  place: '1733331'
  geo:
    lat: 42.42151
    lng: -88.6145
  phone: 815-943-4339
  website: https://www.chpofil.org
  external_ids:
    bphc: BPS-H80-018882
  sources:
  - hrsa/health-center-sites
  verified:
    'on': '2026-07-19'
    method: api
- id: il/harvard/trinity-lutheran-church-little-free-pantry
  name: Trinity Lutheran Church Little Free Pantry
  categories:
  - food-pantry
  place: '1733331'
  geo:
    lat: 42.42251
    lng: -88.60777
  external_ids:
    lfp: '881'
  sources:
  - littlefreepantry/map
  verified:
    'on': '2026-07-19'
    method: scrape
