- id: il/kankakee/aries-consultant-services-inc
  name: Aries Consultant Services Inc
  categories:
  - su-treatment
  address:
    street: 256 South Washington Avenue
    city: Kankakee
    state: il
    zip: '60901'
  place: '1738934'
  geo:
    lat: 41.11877
    lng: -87.8677
  phone: 815-386-1308
  website: https://
  sources:
  - samhsa/findtreatment
  verified:
    'on': '2026-07-19'
    method: api
- id: il/kankakee/community-health-partnership-of-illinois
  name: COMMUNITY HEALTH PARTNERSHIP OF ILLINOIS
  categories:
  - community-health-center
  address:
    street: 202 N Schuyler Ave, Suite 206
    city: Kankakee
    state: il
    zip: '60901'
  place: '1738934'
  geo:
    lat: 41.12211
    lng: -87.86245
  phone: 815-932-6045
  website: https://www.chpofil.org
  external_ids:
    bphc: BPS-H80-003572
  sources:
  - hrsa/health-center-sites
  verified:
    'on': '2026-07-19'
    method: api
- id: il/kankakee/duane-dean-behavioral-health-center
  name: Duane Dean Behavioral Health Center
  categories:
  - su-treatment
  address:
    street: 700 East Court Street
    city: Kankakee
    state: il
    zip: '60901'
  place: '1738934'
  geo:
    lat: 41.11921
    lng: -87.85663
  phone: 815-939-0125
  website: https://www.duanedean.org
  sources:
  - samhsa/findtreatment
  verified:
    'on': '2026-07-19'
    method: api
- id: il/kankakee/iroquois-mental-health-center
  name: Iroquois Mental Health Center
  categories:
  - su-treatment
  - mh-treatment
  address:
    street: 70 Meadowview Center
    city: Kankakee
    state: il
    zip: '60901'
  place: '1738934'
  geo:
    lat: 41.13444
    lng: -87.87089
  phone: 815-269-4769
  website: https://www.iroquoismhc.com
  sources:
  - samhsa/findtreatment
  verified:
    'on': '2026-07-19'
    method: api
- id: il/kankakee/kankakee-community-health-center
  name: Kankakee Community Health Center
  categories:
  - community-health-center
  address:
    street: 1777 E Court St
    city: Kankakee
    state: il
    zip: '60901'
  place: '1738934'
  geo:
    lat: 41.11926
    lng: -87.84137
  phone: 877-692-8686
  website: https://www.auntmarthas.org
  external_ids:
    bphc: BPS-H80-007716
  sources:
  - hrsa/health-center-sites
  verified:
    'on': '2026-07-19'
    method: api
- id: il/kankakee/kankakee-county-housing-authority
  name: Kankakee County Housing Authority
  categories:
  - housing-assistance
  address: {street: 185 N Saint Joseph Ave, city: Kankakee, state: il, zip: '60901'}
  description: Public housing and Housing Choice Voucher agency
  place: '1738934'
  geo: {lat: 41.11945, lng: -87.83968}
  phone: 815-939-7125
  sources:
  - hud/resource-locator
  verified: {'on': '2026-07-19', method: api}
- id: il/kankakee/lasting-impressions
  name: Lasting Impressions
  categories:
  - child-care
  address:
    street: 1237 W Station St
    city: Kankakee
    state: il
    zip: '60901'
  place: '1738934'
  geo:
    lat: 41.11896
    lng: -87.8824
  phone: 815-936-1242
  sources:
  - acf/head-start-locations
  verified:
    'on': '2026-07-19'
    method: api
- id: il/kankakee/mary-s-little-lamb-early-learning-center-llc
  name: Mary's Little Lamb Early Learning Center, LLC
  categories:
  - child-care
  address:
    street: 525 E Fair St
    city: Kankakee
    state: il
    zip: '60901'
  place: '1738934'
  geo:
    lat: 41.13099
    lng: -87.85728
  phone: 815-802-0553
  sources:
  - acf/head-start-locations
  verified:
    'on': '2026-07-19'
    method: api
- id: il/kankakee/mobile-medical-and-dental-van-02
  name: Mobile Medical and Dental Van 02
  categories:
  - community-health-center
  address:
    street: 202 N Schuyler Ave
    city: Kankakee
    state: il
    zip: '60901'
  place: '1738934'
  geo:
    lat: 41.12211
    lng: -87.86245
  phone: 815-932-6045
  website: https://www.chpofil.org
  external_ids:
    bphc: BPS-H80-037253
  sources:
  - hrsa/health-center-sites
  verified:
    'on': '2026-07-19'
    method: api
- id: il/kankakee/one-direction-forward-inc
  name: One Direction Forward Inc
  categories:
  - su-treatment
  - mh-treatment
  address:
    street: 1 Dearborn Square
    city: Kankakee
    state: il
    zip: '60901'
  place: '1738934'
  geo:
    lat: 41.11985
    lng: -87.86268
  phone: 815-304-4111
  website: https://www.onedirectionforwardinc.com
  sources:
  - samhsa/findtreatment
  verified:
    'on': '2026-07-19'
    method: api
- id: il/kankakee/play-palz-101
  name: Play Palz 101
  categories:
  - child-care
  address:
    street: 201 N Wall St
    city: Kankakee
    state: il
    zip: '60901'
  place: '1738934'
  geo:
    lat: 41.12254
    lng: -87.88207
  phone: 815-939-0101
  sources:
  - acf/head-start-locations
  verified:
    'on': '2026-07-19'
    method: api
- id: il/kankakee/play-palz-101-2
  name: Play Palz 101
  categories:
  - child-care
  address:
    street: 270 N Schuyler Ave
    city: Kankakee
    state: il
    zip: '60901'
  place: '1738934'
  geo:
    lat: 41.12237
    lng: -87.86316
  phone: 815-936-0101
  sources:
  - acf/head-start-locations
  verified:
    'on': '2026-07-19'
    method: api
- id: il/kankakee/proegler
  name: Proegler
  categories:
  - child-care
  address:
    street: 710 N Chicago Ave
    city: Kankakee
    state: il
    zip: '60901'
  place: '1738934'
  geo:
    lat: 41.12852
    lng: -87.85633
  phone: 815-802-4951
  sources:
  - acf/head-start-locations
  verified:
    'on': '2026-07-19'
    method: api
- id: il/kankakee/river-valley-migrant-seasonal-head-start
  name: River Valley Migrant & Seasonal Head Start
  categories:
  - child-care
  address:
    street: 202 N Schuyler Ave
    street2: Ste 107
    city: Kankakee
    state: il
    zip: '60901'
  place: '1738934'
  geo:
    lat: 41.12181
    lng: -87.86345
  phone: 815-932-0569
  sources:
  - acf/head-start-locations
  verified:
    'on': '2026-07-19'
    method: api
- id: il/kankakee/rosecrance-inc-kankakee
  name: Rosecrance Inc Kankakee
  categories:
  - su-treatment
  - mh-treatment
  address:
    street: 505 South Schuyler Avenue
    city: Kankakee
    state: il
    zip: '60901'
  place: '1738934'
  geo:
    lat: 41.11488
    lng: -87.86595
  phone: 217-560-4465
  website: https://www.rosecrance.org
  sources:
  - samhsa/findtreatment
  verified:
    'on': '2026-07-19'
    method: api
- id: il/kankakee/ywca
  name: YWCA
  categories:
  - child-care
  address:
    street: 1086 E Court St
    city: Kankakee
    state: il
    zip: '60901'
  place: '1738934'
  geo:
    lat: 41.11895
    lng: -87.85149
  phone: 815-933-4516
  sources:
  - acf/head-start-locations
  verified:
    'on': '2026-07-19'
    method: api
