- id: il/libertyville/addictions-associates-therapy-inc
  name: Addictions Associates Therapy Inc
  categories:
  - su-treatment
  address:
    street: 1117 South Milwaukee Avenue
    city: Libertyville
    state: il
    zip: '60048'
  place: '1743250'
  geo:
    lat: 42.26782
    lng: -87.95202
  phone: 847-549-0083
  website: https://www.addictiontreatmentlibertyvilleil.com
  sources:
  - samhsa/findtreatment
  verified:
    'on': '2026-07-19'
    method: api
- id: il/libertyville/geode-health
  name: Geode Health
  categories:
  - su-treatment
  - mh-treatment
  address:
    street: 1512 Artaius Parkway
    city: Libertyville
    state: il
    zip: '60048'
  place: '1743250'
  geo:
    lat: 42.25943
    lng: -87.94644
  phone: 847-306-6089
  website: https://www.geodehealth.com
  sources:
  - samhsa/findtreatment
  verified:
    'on': '2026-07-19'
    method: api
- id: il/libertyville/lake-county-health-dept-libertyville-health-cent
  name: Lake County Health Dept Libertyville Health Center
  categories:
  - su-treatment
  - mh-treatment
  address:
    street: 18698 West Peterson Road
    city: Libertyville
    state: il
    zip: '60048'
  place: '1743250'
  geo:
    lat: 42.30664
    lng: -87.99736
  phone: 847-377-8855
  website: https://www.lakecountyil.gov/684/Behavioral-Health
  sources:
  - samhsa/findtreatment
  verified:
    'on': '2026-07-19'
    method: api
- id: il/libertyville/libertyville-behavioral-health-home
  name: Libertyville Behavioral Health Home
  categories:
  - community-health-center
  address:
    street: 18698 W Peterson Rd
    city: Libertyville
    state: il
    zip: '60048'
  place: '1743250'
  geo:
    lat: 42.30722
    lng: -87.99781
  phone: 847-377-8180
  external_ids:
    bphc: BPS-H80-014336
  sources:
  - hrsa/health-center-sites
  verified:
    'on': '2026-07-19'
    method: api
- id: il/libertyville/omni-youth-services-inc-libertyville
  name: OMNI Youth Services Inc Libertyville
  categories:
  - su-treatment
  - mh-treatment
  address:
    street: 1880 West Winchester Road
    city: Libertyville
    state: il
    zip: '60048'
  place: '1743250'
  geo:
    lat: 42.29822
    lng: -87.99522
  phone: 847-353-1500
  website: https://www.omni4all.org
  sources:
  - samhsa/findtreatment
  verified:
    'on': '2026-07-19'
    method: api
- id: il/libertyville/youth-and-family-counseling-libertyville-locatio
  name: Youth and Family Counseling Libertyville Location
  categories:
  - su-treatment
  - mh-treatment
  address:
    street: 1113 South Milwaukee Avenue
    city: Libertyville
    state: il
    zip: '60048'
  place: '1743250'
  geo:
    lat: 42.26815
    lng: -87.95117
  phone: 847-367-5991
  website: https://www.counselingforall.org
  sources:
  - samhsa/findtreatment
  verified:
    'on': '2026-07-19'
    method: api
