- id: il/loves-park/changes-place
  name: Changes Place
  categories:
  - su-treatment
  address:
    street: 7155 Winsdor Lake Parkway
    city: Loves Park
    state: il
    zip: '61111'
  place: '1745031'
  geo:
    lat: 42.32881
    lng: -89.03336
  phone: 815-262-4843
  website: https://www.changesplace.com
  sources:
  - samhsa/findtreatment
  verified:
    'on': '2026-07-19'
    method: api
- id: il/loves-park/crusader-community-health
  name: Crusader Community Health
  categories:
  - su-treatment
  address:
    street: 6115 North 2nd Street
    city: Loves Park
    state: il
    zip: '61111'
  place: '1745031'
  geo:
    lat: 42.31854
    lng: -89.05698
  phone: 815-490-1600
  website: https://crusaderhealth.org
  sources:
  - samhsa/findtreatment
  verified:
    'on': '2026-07-19'
    method: api
- id: il/loves-park/crusader-community-health-loves-park
  name: Crusader Community Health Loves Park
  categories:
  - community-health-center
  address:
    street: 6115 N 2nd St
    city: Loves Park
    state: il
    zip: '61111'
  place: '1745031'
  geo:
    lat: 42.31845
    lng: -89.05711
  phone: 815-490-1600
  website: https://www.crusaderhealth.org
  external_ids:
    bphc: BPS-H80-010923
  sources:
  - hrsa/health-center-sites
  verified:
    'on': '2026-07-19'
    method: api
- id: il/loves-park/foundations-center-renee-luthe
  name: Foundations Center Renee Luthe
  categories:
  - su-treatment
  address:
    street: 7115 Windsor Lake Parkway
    city: Loves Park
    state: il
    zip: '61111'
  place: '1745031'
  geo:
    lat: 42.32651
    lng: -89.03443
  phone: 815-398-9999
  website: https://www.foundationscentertreatment.com
  sources:
  - samhsa/findtreatment
  verified:
    'on': '2026-07-19'
    method: api
- id: il/loves-park/hand-n-hand-child-care-center
  name: Hand n Hand Child Care Center
  categories:
  - child-care
  address:
    street: 9350 Forest Hills Rd
    city: Loves Park
    state: il
    zip: '61111'
  place: '1745031'
  geo:
    lat: 42.35885
    lng: -89.01532
  phone: 815-633-7440
  sources:
  - acf/head-start-locations
  verified:
    'on': '2026-07-19'
    method: api
- id: il/loves-park/harlem-middle-school
  name: Harlem Middle School
  categories:
  - meal-program
  address: {street: 735 Windsor Rd, city: Loves Park, state: il, zip: '61111'}
  description: Free summer meals for kids and teens (2026 season) — sponsored by Harlem UD 122.
  place: '1745031'
  geo: {lat: 42.32503, lng: -89.05235}
  phone: (815) 654-4510
  external_ids: {usda_master: Cycle 01_IL_SSO_0062}
  sources:
  - usda/summer-meal-sites
  verified: {'on': '2026-07-19', method: api}
- id: il/loves-park/harmony-ctr-for-holistic-psychotherapy-spectrum
  name: Harmony Ctr for Holistic Psychotherapy Spectrum of Rockford LGBTQIA Csl Prog
  categories:
  - su-treatment
  - mh-treatment
  address:
    street: 6625 North 2nd Street
    city: Loves Park
    state: il
    zip: '61111'
  place: '1745031'
  geo:
    lat: 42.32564
    lng: -89.05714
  phone: 815-639-0300
  website: https://www.harmonycenterforholisticpsychotherapy.com
  sources:
  - samhsa/findtreatment
  verified:
    'on': '2026-07-19'
    method: api
- id: il/loves-park/loves-park-elem-school
  name: Loves Park Elem School
  categories:
  - meal-program
  address: {street: 344 Grand Ave, city: Loves Park, state: il, zip: '61111'}
  description: Free summer meals for kids and teens (2026 season) — sponsored by Harlem UD 122.
  place: '1745031'
  geo: {lat: 42.31234, lng: -89.06054}
  phone: (815) 654-4501
  external_ids: {usda_master: Cycle 06_IL_SSO_0226}
  sources:
  - usda/summer-meal-sites
  verified: {'on': '2026-07-19', method: api}
- id: il/loves-park/wantz-park
  name: Wantz Park
  categories:
  - meal-program
  address: {street: 602 E Riverside Blvd, city: Loves Park, state: il, zip: '61111'}
  description: Free summer meals for kids and teens (2026 season) — sponsored by Northern Illinois Food
    Bank.
  place: '1745031'
  geo: {lat: 42.31617, lng: -89.05467}
  phone: (779) 500-9513
  external_ids: {usda_master: Cycle 01_IL_SFSP_0227}
  sources:
  - usda/summer-meal-sites
  verified: {'on': '2026-07-19', method: api}
