- id: il/marion/ahuja-bariatric-and-beyond
  name: Ahuja Bariatric and Beyond
  categories:
  - su-treatment
  - mh-treatment
  address:
    city: Marion
    state: il
    zip: '62959'
  place: '1746916'
  phone: 618-315-6466
  website: https://www.abariatric.com
  sources:
  - samhsa/findtreatment
  verified:
    'on': '2026-07-19'
    method: api
- id: il/marion/boys-and-grils-clubs-of-southern-illinois-marion
  name: Boys And Grils Clubs Of Southern Illinois-Marion Unit
  categories:
  - meal-program
  address: {street: 2706 W Main St, city: Marion, state: il, zip: '62959'}
  description: Free summer meals for kids and teens (2026 season) — sponsored by City of Marion.
  place: '1746916'
  geo: {lat: 37.72997, lng: -88.96766}
  phone: (618) 457-8877
  external_ids: {usda_master: Cycle 01_IL_SFSP_0228}
  sources:
  - usda/summer-meal-sites
  verified: {'on': '2026-07-19', method: api}
- id: il/marion/boyton-street-comm-ctr
  name: Boyton Street Comm Ctr
  categories:
  - meal-program
  address: {street: 501 W Boyton St, city: Marion, state: il, zip: '62959'}
  description: Free summer meals for kids and teens (2026 season) — sponsored by City of Marion.
  place: '1746916'
  geo: {lat: 37.72232, lng: -88.92981}
  phone: (618) 997-1113
  external_ids: {usda_master: Cycle 01_IL_SFSP_0217}
  sources:
  - usda/summer-meal-sites
  verified: {'on': '2026-07-19', method: api}
- id: il/marion/centerstone-of-illinois-bentley
  name: Centerstone of Illinois Bentley
  categories:
  - su-treatment
  - mh-treatment
  address:
    street: 202 South Bentley Street
    city: Marion
    state: il
    zip: '62959'
  place: '1746916'
  geo:
    lat: 37.72955
    lng: -88.93896
  phone: 855-608-3560
  website: https://www.centerstone.org
  sources:
  - samhsa/findtreatment
  verified:
    'on': '2026-07-19'
    method: api
- id: il/marion/centerstone-of-illinois-marion-main-street
  name: Centerstone of Illinois Marion Main Street
  categories:
  - su-treatment
  address:
    street: 1307 West Main Street
    city: Marion
    state: il
    zip: '62959'
  place: '1746916'
  geo:
    lat: 37.73052
    lng: -88.93993
  phone: 855-608-3560
  website: https://www.centerstone.org
  sources:
  - samhsa/findtreatment
  verified:
    'on': '2026-07-19'
    method: api
- id: il/marion/crab-orchard-elementary-school
  name: Crab Orchard Elementary School
  categories:
  - meal-program
  address: {street: 19189 Bailey St, city: Marion, state: il, zip: '62959'}
  description: Free summer meals for kids and teens (2026 season) — sponsored by Crab Orchard CUSD 3.
  place: '1746916'
  geo: {lat: 37.74176, lng: -81.22855}
  phone: (618) 982-2181
  external_ids: {usda_master: Cycle 01_IL_SSO_0031}
  sources:
  - usda/summer-meal-sites
  verified: {'on': '2026-07-19', method: api}
- id: il/marion/housing-authority-of-the-city-of-marion-illinois
  name: Housing Authority Of The City Of Marion, Illinois
  categories:
  - housing-assistance
  address:
    street: 501 N Market St
    city: Marion
    state: il
    zip: '62959'
  description: Public housing and Housing Choice Voucher agency
  place: '1746916'
  geo:
    lat: 37.73338
    lng: -88.92695
  phone: 618-997-1258
  sources:
  - hud/resource-locator
  verified:
    'on': '2026-07-19'
    method: api
- id: il/marion/jefferson-elementary-school
  name: Jefferson Elementary School
  categories:
  - community-health-center
  address:
    street: 700 E Boulevard St
    city: Marion
    state: il
    zip: '62959'
  place: '1746916'
  geo:
    lat: 37.7374
    lng: -88.91815
  phone: 618-519-9200
  website: https://www.shawneehealth.com
  external_ids:
    bphc: BPS-H80-037022
  sources:
  - hrsa/health-center-sites
  verified:
    'on': '2026-07-19'
    method: api
- id: il/marion/lincoln-elementary-school
  name: Lincoln Elementary School
  categories:
  - community-health-center
  address:
    street: 400 Morningside Dr RM A12
    city: Marion
    state: il
    zip: '62959'
  place: '1746916'
  geo:
    lat: 37.74644
    lng: -88.92163
  phone: 618-519-9200
  website: https://www.shawneehealth.com
  external_ids:
    bphc: BPS-H80-037033
  sources:
  - hrsa/health-center-sites
  verified:
    'on': '2026-07-19'
    method: api
- id: il/marion/longfellow-elementary-school
  name: Longfellow Elementary School
  categories:
  - community-health-center
  address:
    street: 1400 W Hendrickson St
    city: Marion
    state: il
    zip: '62959'
  place: '1746916'
  geo:
    lat: 37.72247
    lng: -88.94253
  phone: 618-519-9200
  website: https://www.shawneehealth.com
  external_ids:
    bphc: BPS-H80-037032
  sources:
  - hrsa/health-center-sites
  verified:
    'on': '2026-07-19'
    method: api
- id: il/marion/marion-center
  name: Marion Center
  categories:
  - child-care
  address:
    street: 907 N Vicksburg St
    city: Marion
    state: il
    zip: '62959'
  place: '1746916'
  geo:
    lat: 37.73711
    lng: -88.93612
  phone: 618-997-4255
  sources:
  - acf/head-start-locations
  verified:
    'on': '2026-07-19'
    method: api
- id: il/marion/marion-ehs
  name: Marion EHS
  categories:
  - child-care
  address:
    street: 1205 W Main St
    city: Marion
    state: il
    zip: '62959'
  place: '1746916'
  geo:
    lat: 37.7305
    lng: -88.93931
  sources:
  - acf/head-start-locations
  verified:
    'on': '2026-07-19'
    method: api
- id: il/marion/marion-high-school
  name: Marion High School
  categories:
  - meal-program
  address: {street: 1700 Wildcat Dr, city: Marion, state: il, zip: '62959'}
  description: Free summer meals for kids and teens (2026 season) — sponsored by Marion CUSD 2.
  place: '1746916'
  geo: {lat: 37.71487, lng: -88.94449}
  phone: (618) 993-8196
  external_ids: {usda_master: Cycle 05_IL_SSO_0190}
  sources:
  - usda/summer-meal-sites
  verified: {'on': '2026-07-19', method: api}
- id: il/marion/marion-jr-high-school
  name: Marion Jr. High School
  categories:
  - community-health-center
  address:
    street: 1609 W Main St
    city: Marion
    state: il
    zip: '62959'
  place: '1746916'
  geo:
    lat: 37.73022
    lng: -88.94373
  phone: 618-519-9200
  website: https://www.shawneehealth.com
  external_ids:
    bphc: BPS-H80-036899
  sources:
  - hrsa/health-center-sites
  verified:
    'on': '2026-07-19'
    method: api
- id: il/marion/marion-jr-high-school-2
  name: Marion Jr High School
  categories:
  - meal-program
  address: {street: 1609 W Main St, city: Marion, state: il, zip: '62959'}
  description: Free summer meals for kids and teens (2026 season) — sponsored by Marion CUSD 2.
  place: '1746916'
  geo: {lat: 37.73075, lng: -88.94373}
  phone: (618) 997-1317
  external_ids: {usda_master: Cycle 05_IL_SSO_0191}
  sources:
  - usda/summer-meal-sites
  verified: {'on': '2026-07-19', method: api}
- id: il/marion/marion-wellness
  name: Marion Wellness
  categories:
  - community-health-center
  address:
    street: 1700 Wildcat Dr, Suite A
    city: Marion
    state: il
    zip: '62959'
  place: '1746916'
  geo:
    lat: 37.71487
    lng: -88.94449
  phone: 618-969-8228
  website: https://www.shawneehealth.com
  external_ids:
    bphc: BPS-H80-001638
  sources:
  - hrsa/health-center-sites
  verified:
    'on': '2026-07-19'
    method: api
- id: il/marion/shawnee-health-care-marion
  name: Shawnee Health Care, Marion
  categories:
  - community-health-center
  address:
    street: 3111 Williamson County Pkwy
    city: Marion
    state: il
    zip: '62959'
  place: '1746916'
  geo:
    lat: 37.75096
    lng: -88.97998
  phone: 618-519-9200
  website: https://www.shawneehealth.com
  external_ids:
    bphc: BPS-H80-030277
  sources:
  - hrsa/health-center-sites
  verified:
    'on': '2026-07-19'
    method: api
- id: il/marion/shawnee-health-marion-ob-gyn
  name: Shawnee Health, Marion OB/GYN
  categories:
  - community-health-center
  address:
    street: 1506 Sioux Dr
    city: Marion
    state: il
    zip: '62959'
  place: '1746916'
  geo:
    lat: 37.75105
    lng: -88.9747
  phone: 618-519-9200
  website: https://www.shawneehealth.com
  external_ids:
    bphc: BPS-H80-031023
  sources:
  - hrsa/health-center-sites
  verified:
    'on': '2026-07-19'
    method: api
- id: il/marion/shawnee-healthcare-marion
  name: Shawnee Healthcare Marion
  categories:
  - su-treatment
  - mh-treatment
  address:
    street: 3111 Williamson County Parkway
    city: Marion
    state: il
    zip: '62959'
  place: '1746916'
  geo:
    lat: 37.75094
    lng: -88.97988
  phone: 618-519-9200
  website: https://shawneehealth.com
  sources:
  - samhsa/findtreatment
  verified:
    'on': '2026-07-19'
    method: api
- id: il/marion/washington-elementary-school
  name: Washington Elementary School
  categories:
  - community-health-center
  address:
    street: 420 E Main St
    city: Marion
    state: il
    zip: '62959'
  place: '1746916'
  geo:
    lat: 37.73111
    lng: -88.92361
  phone: 618-519-9200
  website: https://www.shawneehealth.com
  external_ids:
    bphc: BPS-H80-036904
  sources:
  - hrsa/health-center-sites
  verified:
    'on': '2026-07-19'
    method: api
