- id: il/west-peoria/franklin-primary-school
  name: Franklin Primary School
  categories:
  - food-pantry
  place: '1780736'
  geo: {lat: 40.70354, lng: -89.60552}
  website: https://mapping.littlefreepantry.org/pantry/775
  external_ids: {lfp: '775'}
  sources:
  - littlefreepantry/map
  verified: {'on': '2026-07-19', method: scrape}
- id: il/west-peoria/harrison-community-learning-center
  name: Harrison Community Learning Center
  categories:
  - food-pantry
  place: '1780736'
  geo: {lat: 40.6679, lng: -89.63737}
  website: https://mapping.littlefreepantry.org/pantry/770
  external_ids: {lfp: '770'}
  sources:
  - littlefreepantry/map
  verified: {'on': '2026-07-19', method: scrape}
- id: il/west-peoria/manual-academy
  name: Manual Academy
  categories:
  - food-pantry
  place: '1780736'
  geo: {lat: 40.68018, lng: -89.6343}
  website: https://mapping.littlefreepantry.org/pantry/602
  external_ids: {lfp: '602'}
  sources:
  - littlefreepantry/map
  verified: {'on': '2026-07-19', method: scrape}
- id: il/west-peoria/roosevelt-magnet-school
  name: Roosevelt Magnet School
  categories:
  - food-pantry
  place: '1780736'
  geo: {lat: 40.68793, lng: -89.61937}
  website: https://mapping.littlefreepantry.org/pantry/772
  external_ids: {lfp: '772'}
  sources:
  - littlefreepantry/map
  verified: {'on': '2026-07-19', method: scrape}
- id: il/west-peoria/trewyn-school
  name: Trewyn School
  categories:
  - food-pantry
  place: '1780736'
  geo: {lat: 40.67227, lng: -89.63936}
  website: https://mapping.littlefreepantry.org/pantry/773
  external_ids: {lfp: '773'}
  sources:
  - littlefreepantry/map
  verified: {'on': '2026-07-19', method: scrape}
- id: il/west-peoria/whittier-primary-school
  name: Whittier Primary School
  categories:
  - food-pantry
  place: '1780736'
  geo: {lat: 40.69575, lng: -89.61939}
  website: https://mapping.littlefreepantry.org/pantry/783
  external_ids: {lfp: '783'}
  sources:
  - littlefreepantry/map
  verified: {'on': '2026-07-19', method: scrape}
