- id: il/west-chicago/access-west-chicago-family-health-center
  name: ACCESS West Chicago Family Health Center
  categories:
  - community-health-center
  cost: sliding-scale
  address: {street: 245 W Roosevelt Rd, city: West Chicago, state: il, zip: '60185'}
  place: '1780060'
  geo: {lat: 41.86715, lng: -88.20668}
  phone: 630-293-4124
  website: https://www.accesscommunityhealth.net
  external_ids: {bphc: BPS-H80-003653}
  sources:
  - hrsa/health-center-sites
  verified: {'on': '2026-07-19', method: api}
- id: il/west-chicago/chsd-94
  name: Chsd 94
  categories:
  - meal-program
  address:
    street: 326 Joliet St
    city: West Chicago
    state: il
    zip: '60185'
  description: Free summer meals for kids and teens (2026 season) — sponsored by CHSD 94.
  place: '1780060'
  geo:
    lat: 41.87944
    lng: -88.20453
  phone: (630) 876-6228
  external_ids:
    usda_master: Cycle 05_IL_SFSP_0408
  sources:
  - usda/summer-meal-sites
  verified:
    'on': '2026-07-19'
    method: api
- id: il/west-chicago/educare-of-west-dupage
  name: Educare of West DuPage
  categories:
  - child-care
  address:
    street: 851 Pearl Rd
    city: West Chicago
    state: il
    zip: '60185'
  place: '1780060'
  geo:
    lat: 41.87026
    lng: -88.21221
  phone: 630-957-5500
  sources:
  - acf/head-start-locations
  verified:
    'on': '2026-07-19'
    method: api
- id: il/west-chicago/educare-west-dupage
  name: Educare West DuPage
  categories:
  - child-care
  address:
    street: 851 Pearl Rd
    city: West Chicago
    state: il
    zip: '60185'
  place: '1780060'
  geo:
    lat: 41.87064
    lng: -88.21165
  phone: 630-957-5500
  sources:
  - acf/head-start-locations
  verified:
    'on': '2026-07-19'
    method: api
- id: il/west-chicago/educare-west-dupage-at-glen-arbor
  name: Educare West DuPage at Glen Arbor
  categories:
  - child-care
  address:
    street: 204 Church St
    city: West Chicago
    state: il
    zip: '60185'
  place: '1780060'
  geo:
    lat: 41.88188
    lng: -88.20741
  phone: 630-601-2320
  sources:
  - acf/head-start-locations
  verified:
    'on': '2026-07-19'
    method: api
- id: il/west-chicago/gary-elementary-school
  name: Gary Elementary School
  categories:
  - meal-program
  address:
    street: 130 E Forest Ave
    city: West Chicago
    state: il
    zip: '60185'
  description: Free summer meals for kids and teens (2026 season) — sponsored by West Chicago ESD 33.
  place: '1780060'
  geo:
    lat: 41.87102
    lng: -88.20329
  phone: (630) 293-6010
  external_ids:
    usda_master: Cycle 09_IL_SSO_0601
  sources:
  - usda/summer-meal-sites
  verified:
    'on': '2026-07-19'
    method: api
- id: il/west-chicago/leman-middle-school
  name: Leman Middle School
  categories:
  - meal-program
  address:
    street: 238 E Hazel St
    city: West Chicago
    state: il
    zip: '60185'
  description: Free summer meals for kids and teens (2026 season) — sponsored by West Chicago ESD 33.
  place: '1780060'
  geo:
    lat: 41.87383
    lng: -88.20165
  phone: (630) 293-6060
  external_ids:
    usda_master: Cycle 09_IL_SSO_0647
  sources:
  - usda/summer-meal-sites
  verified:
    'on': '2026-07-19'
    method: api
- id: il/west-chicago/reed-keppler-park-west-chicago-park-district
  name: Reed-Keppler Park - West Chicago Park District
  categories:
  - meal-program
  address:
    street: 129 W National St
    city: West Chicago
    state: il
    zip: '60185'
  description: Free summer meals for kids and teens (2026 season) — sponsored by CHSD 94.
  place: '1780060'
  geo:
    lat: 41.89285
    lng: -88.20704
  phone: (630) 876-6220
  external_ids:
    usda_master: Cycle 05_IL_SFSP_0656
  sources:
  - usda/summer-meal-sites
  verified:
    'on': '2026-07-19'
    method: api
- id: il/west-chicago/timber-lake-apartment-buildings
  name: Timber Lake Apartment Buildings
  categories:
  - meal-program
  address:
    street: 1200 Kings Cir
    city: West Chicago
    state: il
    zip: '60185'
  description: Free summer meals for kids and teens (2026 season) — sponsored by CHSD 94.
  place: '1780060'
  geo:
    lat: 41.90407
    lng: -88.2045
  phone: (630) 876-6220
  external_ids:
    usda_master: Cycle 05_IL_SFSP_0671
  sources:
  - usda/summer-meal-sites
  verified:
    'on': '2026-07-19'
    method: api
