- id: il/westmont/advent-health-adventist-med-center
  name: Advent Health Adventist Med Center
  categories:
  - mh-treatment
  address:
    street: 740 Pasquinelli Drive
    city: Westmont
    state: il
    zip: '60559'
  place: '1780645'
  geo:
    lat: 41.81371
    lng: -87.95224
  phone: 630-856-7701
  website: https://
  sources:
  - samhsa/findtreatment
  verified:
    'on': '2026-07-19'
    method: api
- id: il/westmont/advent-health-options
  name: Advent Health Options
  categories:
  - mh-treatment
  address:
    street: 740 Pasquinelli Drive
    city: Westmont
    state: il
    zip: '60559'
  place: '1780645'
  geo:
    lat: 41.81357
    lng: -87.95241
  phone: 630-856-7717
  website: https://www.adventhealth.com
  sources:
  - samhsa/findtreatment
  verified:
    'on': '2026-07-19'
    method: api
- id: il/westmont/adventist-hinsdale-hospital-new-day-center
  name: Adventist Hinsdale Hospital New Day Center
  categories:
  - su-treatment
  - mh-treatment
  address:
    street: 740 Pasquinelli Drive
    city: Westmont
    state: il
    zip: '60559'
  place: '1780645'
  geo:
    lat: 41.81371
    lng: -87.95225
  phone: 630-856-7701
  website: https://adventhealth.com
  sources:
  - samhsa/findtreatment
  verified:
    'on': '2026-07-19'
    method: api
- id: il/westmont/compass-health-center-oakbrook
  name: Compass Health Center Oakbrook
  categories:
  - su-treatment
  - mh-treatment
  address:
    street: 750 Oakmont Lane
    city: Westmont
    state: il
    zip: '60559'
  place: '1780645'
  geo:
    lat: 41.82168
    lng: -87.95737
  phone: 877-552-6672
  website: https://www.compasshealthcenter.net
  sources:
  - samhsa/findtreatment
  verified:
    'on': '2026-07-19'
    method: api
- id: il/westmont/du-page-county-health-department-southeast-publi
  name: Du Page County Health Department Southeast Public Health Center
  categories:
  - su-treatment
  - mh-treatment
  address:
    street: 422 North Cass Avenue
    city: Westmont
    state: il
    zip: '60559'
  place: '1780645'
  geo:
    lat: 41.80579
    lng: -87.97624
  phone: 630-682-7400
  website: https://www.dupagehealth.org
  sources:
  - samhsa/findtreatment
  verified:
    'on': '2026-07-19'
    method: api
- id: il/westmont/geode-health-westmont
  name: Geode Health Westmont
  categories:
  - su-treatment
  - mh-treatment
  address:
    street: 6319 South Fairview Avenue
    city: Westmont
    state: il
    zip: '60559'
  place: '1780645'
  geo:
    lat: 41.77198
    lng: -87.99266
  phone: 630-566-2096
  website: https://geodehealth.com
  sources:
  - samhsa/findtreatment
  verified:
    'on': '2026-07-19'
    method: api
- id: il/westmont/love-box
  name: Love Box
  categories:
  - food-pantry
  place: '1780645'
  geo:
    lat: 41.7795
    lng: -87.9739
  external_ids:
    lfp: '6040'
  sources:
  - littlefreepantry/map
  verified:
    'on': '2026-07-19'
    method: scrape
- id: il/westmont/ollier-s-house-of-hope
  name: Ollier's House of Hope
  categories:
  - food-pantry
  place: '1780645'
  geo:
    lat: 41.79647
    lng: -87.97982
  external_ids:
    lfp: '867'
  sources:
  - littlefreepantry/map
  verified:
    'on': '2026-07-19'
    method: scrape
