- id: al/bay-minette/baldwin-county-high
  name: Baldwin County High
  categories:
  - meal-program
  address: {street: 1 Tiger Drive, city: Bay Minette, state: al, zip: '36507'}
  description: Free summer meals for kids and teens (2026 season) — sponsored by Feeding the Gulf Coast.
  place: '0104660'
  geo: {lat: 30.89388, lng: -87.79371}
  phone: (251) 504-9185
  external_ids: {usda_master: Cycle 06_AL_SFSP_0148}
  sources:
  - usda/summer-meal-sites
  verified: {'on': '2026-07-19', method: api}
- id: al/bay-minette/bounds-ymca-bay-minette
  name: Bounds Ymca Bay Minette
  categories:
  - meal-program
  address: {street: 211 Mcmillian Ave, city: Bay Minette, state: al, zip: '36507'}
  description: Free summer meals for kids and teens (2026 season) — sponsored by Feeding the Gulf Coast.
  place: '0104660'
  geo: {lat: 30.88294, lng: -87.77755}
  phone: (251) 401-4893
  external_ids: {usda_master: Cycle 06_AL_SFSP_0254}
  sources:
  - usda/summer-meal-sites
  verified: {'on': '2026-07-19', method: api}
- id: al/bay-minette/ha-bay-minette
  name: Ha Bay Minette
  categories:
  - housing-assistance
  address:
    street: 400 South St
    city: Bay Minette
    state: al
    zip: '36507'
  description: Public housing (Low-Rent) agency
  place: '0104660'
  geo:
    lat: 30.87924
    lng: -87.77328
  phone: 251-937-2211
  sources:
  - hud/resource-locator
  verified:
    'on': '2026-07-19'
    method: api
- id: al/bay-minette/north-baldwin-family-health-center
  name: North Baldwin Family Health Center
  categories:
  - community-health-center
  address:
    street: 201 Dolive St
    city: Bay Minette
    state: al
    zip: '36507'
  place: '0104660'
  geo:
    lat: 30.88179
    lng: -87.77597
  phone: 251-706-8700
  external_ids:
    bphc: BPS-H80-012342
  sources:
  - hrsa/health-center-sites
  verified:
    'on': '2026-07-19'
    method: api
- id: al/bay-minette/north-baldwin-rural-health-center
  name: North Baldwin Rural Health Center
  categories:
  - community-health-center
  address:
    street: 312 Courthouse Sq
    city: Bay Minette
    state: al
    zip: '36507'
  place: '0104660'
  geo:
    lat: 30.88376
    lng: -87.77516
  phone: 251-690-8889
  website: https://mchd.org/family-health/
  external_ids:
    bphc: BPS-H80-010287
  sources:
  - hrsa/health-center-sites
  verified:
    'on': '2026-07-19'
    method: api
- id: al/bay-minette/yes-formerly-light-of-the-city
  name: Yes Formerly Light Of The City
  categories:
  - meal-program
  address: {street: 1000 Shedrick Hardy Parkway, city: Bay Minette, state: al, zip: '36507'}
  description: Free summer meals for kids and teens (2026 season) — sponsored by Feeding the Gulf Coast.
  place: '0104660'
  geo: {lat: 30.86256, lng: -87.78405}
  phone: (251) 349-9585
  external_ids: {usda_master: Cycle 06_AL_SFSP_0222}
  sources:
  - usda/summer-meal-sites
  verified: {'on': '2026-07-19', method: api}
