- id: al/camden/cahaba-medical-care-camden
  name: Cahaba Medical Care - Camden
  categories:
  - community-health-center
  cost: sliding-scale
  address:
    street: 321 Whiskey Run Rd
    city: Camden
    state: al
    zip: '36726'
  place: '0111512'
  geo:
    lat: 31.99854
    lng: -87.30262
  phone: 334-682-4128
  external_ids:
    bphc: BPS-H80-034081
  sources:
  - hrsa/health-center-sites
  verified:
    'on': '2026-07-19'
    method: api
- id: al/camden/cahaba-medical-care-camden-mobile-unit
  name: Cahaba Medical Care - Camden Mobile Unit
  categories:
  - community-health-center
  cost: sliding-scale
  address:
    street: 321 Whiskey Run Rd
    city: Camden
    state: al
    zip: '36726'
  place: '0111512'
  geo:
    lat: 31.99854
    lng: -87.30262
  phone: 334-682-4128
  external_ids:
    bphc: BPS-H80-040858
  sources:
  - hrsa/health-center-sites
  verified:
    'on': '2026-07-19'
    method: api
- id: al/camden/camden-school-of-arts-technology
  name: Camden School Of Arts & Technology
  categories:
  - meal-program
  address: {street: 303 Broad Street, city: Camden, state: al, zip: '36726'}
  description: Free summer meals for kids and teens (2026 season) — sponsored by Wilcox County Board of
    Education.
  place: '0111512'
  geo: {lat: 31.99537, lng: -87.29523}
  phone: (334) 682-4716
  external_ids: {usda_master: Cycle 06_AL_SSO_0057}
  sources:
  - usda/summer-meal-sites
  verified: {'on': '2026-07-19', method: api}
- id: al/camden/free-will-head-start-center
  name: Free Will Head Start Center
  categories:
  - child-care
  address:
    street: 68 Hawthorne
    city: Camden
    state: al
    zip: '36726'
  place: '0111512'
  geo:
    lat: 31.99098
    lng: -87.29055
  phone: 334-874-1126
  sources:
  - acf/head-start-locations
  verified:
    'on': '2026-07-19'
    method: api
- id: al/camden/je-hobbs-elementary-school
  name: Je Hobbs Elementary School
  categories:
  - meal-program
  address: {street: 30 Claiborne Street, city: Camden, state: al, zip: '36726'}
  description: Free summer meals for kids and teens (2026 season) — sponsored by Wilcox County Board of
    Education.
  place: '0111512'
  geo: {lat: 31.99275, lng: -87.28535}
  phone: (334) 682-4716
  external_ids: {usda_master: Cycle 06_AL_SSO_0055}
  sources:
  - usda/summer-meal-sites
  verified: {'on': '2026-07-19', method: api}
- id: al/camden/physicians-care-of-camden
  name: Physicians Care of Camden
  categories:
  - community-health-center
  cost: sliding-scale
  address:
    street: 24 Camden Byp
    city: Camden
    state: al
    zip: '36726'
  place: '0111512'
  geo:
    lat: 31.99518
    lng: -87.27777
  phone: 334-882-1919
  external_ids:
    bphc: BPS-LAL-032799
  sources:
  - hrsa/health-center-sites
  verified:
    'on': '2026-07-19'
    method: api
- id: al/camden/rural-health-medical-program-inc-yellow-bluff-ca
  name: Rural Health Medical Program, Inc. - Yellow Bluff - Camden Health Center
  categories:
  - community-health-center
  cost: sliding-scale
  address:
    street: 2210 Highway 221
    city: Camden
    state: al
    zip: '36726'
  place: '0111512'
  geo:
    lat: 32.00118
    lng: -87.33597
  phone: 334-682-5772
  website: https://www.rhmpi.com
  external_ids:
    bphc: BPS-H80-013667
  sources:
  - hrsa/health-center-sites
  verified:
    'on': '2026-07-19'
    method: api
