- id: al/cullman/bhg-cullman-treatment-center
  name: BHG Cullman Treatment Center
  categories:
  - su-treatment
  address:
    street: 1912 Commerce Avenue NW
    city: Cullman
    state: al
    zip: '35055'
  place: 0118976
  geo:
    lat: 34.20491
    lng: -86.87522
  phone: 256-739-5595
  website: https://www.bhgrecovery.com/locations/cullman
  sources:
  - samhsa/findtreatment
  verified:
    'on': '2026-07-19'
    method: api
- id: al/cullman/bridge-inc-recovery-center-for-teens-cullman
  name: Bridge Inc Recovery Center for Teens/Cullman
  categories:
  - su-treatment
  address:
    street: 402 Arnold Street NE
    city: Cullman
    state: al
    zip: '35055'
  place: 0118976
  geo:
    lat: 34.18084
    lng: -86.84043
  phone: 256-775-8301
  website: https://www.bridgeinc.org
  sources:
  - samhsa/findtreatment
  verified:
    'on': '2026-07-19'
    method: api
- id: al/cullman/cullman-city-head-start
  name: CULLMAN CITY HEAD START
  categories:
  - child-care
  address:
    street: 900 Hoehn Dr
    city: Cullman
    state: al
    zip: '35055'
  place: 0118976
  geo:
    lat: 34.18802
    lng: -86.8372
  phone: 256-775-0234
  sources:
  - acf/head-start-locations
  verified:
    'on': '2026-07-19'
    method: api
- id: al/cullman/cullman-quality-health-care
  name: CULLMAN QUALITY HEALTH CARE
  categories:
  - community-health-center
  address:
    street: 2016 Main Ave SW
    city: Cullman
    state: al
    zip: '35055'
  place: 0118976
  geo:
    lat: 34.14699
    lng: -86.84788
  phone: 256-775-0230
  website: https://www.qolhs.org
  external_ids:
    bphc: BPS-H80-001134
  sources:
  - hrsa/health-center-sites
  verified:
    'on': '2026-07-19'
    method: api
- id: al/cullman/cullmans-little-pantry
  name: Cullman’s Little Pantry
  categories:
  - food-pantry
  place: 0118976
  geo:
    lat: 34.17453
    lng: -86.84081
  external_ids:
    lfp: '442'
  sources:
  - littlefreepantry/map
  verified:
    'on': '2026-07-19'
    method: scrape
- id: al/cullman/ha-cullman
  name: Ha Cullman
  categories:
  - housing-assistance
  address: {street: 408 Cleveland Ave SW, city: Cullman, state: al, zip: '35055'}
  description: Public housing and Housing Choice Voucher agency
  place: 0118976
  geo: {lat: 34.17173, lng: -86.85268}
  phone: 256-734-6171
  sources:
  - hud/resource-locator
  verified: {'on': '2026-07-19', method: api}
- id: al/cullman/lighthouse-of-cullman-inc
  name: Lighthouse of Cullman, Inc
  categories:
  - su-treatment
  address:
    street: 445 County Road 773
    city: Cullman
    state: al
    zip: '35055'
  place: 0118976
  geo:
    lat: 34.1655
    lng: -86.68717
  phone: 256-796-0013
  website: https://www.lighthousecullman.org
  sources:
  - samhsa/findtreatment
  verified:
    'on': '2026-07-19'
    method: api
