- id: al/eutaw/eutaw-primary
  name: Eutaw Primary
  categories:
  - meal-program
  address:
    street: 212 Eutaw Avenue
    city: Eutaw
    state: al
    zip: '35462'
  description: Free summer meals for kids and teens (2026 season) — sponsored by Greene County Board of
    Education.
  place: '0124664'
  geo:
    lat: 32.83805
    lng: -87.8943
  phone: (205) 372-3109
  external_ids:
    usda_master: Cycle 03_AL_SSO_0055
  sources:
  - usda/summer-meal-sites
  verified:
    'on': '2026-07-19'
    method: api
- id: al/eutaw/greene-county-head-start-early-head-start
  name: Greene County Head Start/Early Head Start
  categories:
  - child-care
  address:
    street: 1227 US Highway 43 South
    city: Eutaw
    state: al
    zip: '35462'
  place: '0124664'
  geo:
    lat: 32.84046
    lng: -87.88021
  phone: 205-372-2810
  sources:
  - acf/head-start-locations
  verified:
    'on': '2026-07-19'
    method: api
- id: al/eutaw/greene-county-high-school
  name: Greene County High School
  categories:
  - meal-program
  address:
    street: 14221 U.S. Hwy 11, South
    city: Eutaw
    state: al
    zip: '35462'
  description: Free summer meals for kids and teens (2026 season) — sponsored by Greene County Board of
    Education.
  place: '0124664'
  geo:
    lat: 32.823
    lng: -87.93077
  phone: (205) 372-3109
  external_ids:
    usda_master: Cycle 03_AL_SSO_0056
  sources:
  - usda/summer-meal-sites
  verified:
    'on': '2026-07-19'
    method: api
- id: al/eutaw/housing-authority-of-the-city-of-eutaw
  name: Housing Authority Of The City Of Eutaw
  categories:
  - housing-assistance
  address:
    street: 301 Carver Cir
    city: Eutaw
    state: al
    zip: '35462'
  description: Public housing (Low-Rent) agency
  place: '0124664'
  geo:
    lat: 32.83466
    lng: -87.87943
  phone: 205-372-3926
  sources:
  - hud/resource-locator
  verified:
    'on': '2026-07-19'
    method: api
- id: al/eutaw/robert-brown-middle-school
  name: Robert Brown Middle School
  categories:
  - meal-program
  address:
    street: 623 Mesoopotamia Street
    city: Eutaw
    state: al
    zip: '35462'
  description: Free summer meals for kids and teens (2026 season) — sponsored by Greene County Board of
    Education.
  place: '0124664'
  geo:
    lat: 32.84859
    lng: -87.89944
  phone: (205) 372-3109
  external_ids:
    usda_master: Cycle 03_AL_SSO_0057
  sources:
  - usda/summer-meal-sites
  verified:
    'on': '2026-07-19'
    method: api
- id: al/eutaw/west-alabama-mental-health-center-greene-county
  name: West Alabama Mental Health Center Greene County
  categories:
  - su-treatment
  - mh-treatment
  address:
    street: 301 Prairie Avenue
    city: Eutaw
    state: al
    zip: '35462'
  place: '0124664'
  geo:
    lat: 32.84037
    lng: -87.88807
  phone: 205-372-3106
  website: https://www.wamhc.org
  sources:
  - samhsa/findtreatment
  verified:
    'on': '2026-07-19'
    method: api
- id: al/eutaw/whatley-health-services-eutaw
  name: WHATLEY HEALTH SERVICES @ EUTAW
  categories:
  - community-health-center
  address:
    street: 200 Morrow Ave
    city: Eutaw
    state: al
    zip: '35462'
  place: '0124664'
  geo:
    lat: 32.83991
    lng: -87.88681
  phone: 205-372-0011
  website: https://www.whatleyhealth.org
  external_ids:
    bphc: BPS-H80-001729
  sources:
  - hrsa/health-center-sites
  verified:
    'on': '2026-07-19'
    method: api
