- id: al/gulf-shores/alabama-free-clinic-gulf-shores
  name: Alabama Free Clinic – Gulf Shores
  categories:
  - free-clinic
  - health
  address: {street: 156 East 15th Avenue, city: Gulf Shores, state: al, zip: '36542'}
  geo: {lat: 30.26867, lng: -87.68589}
  place: '0132272'
  phone: 251-937-8096
  website: https://www.alabamafreeclinic.org/
  cost: free
  external_ids: {nafc: alabama-free-clinic-gulf-shores}
  sources:
  - nafc/find-a-clinic
  verified: {'on': '2026-07-21', method: scrape}
- id: al/gulf-shores/christian-service-center
  name: Christian Service Center
  org: al/feeding-the-gulf-coast
  categories:
  - food-pantry
  address: {street: 317 Dolphin Avenue, city: Gulf Shores, state: al, zip: '36547'}
  place: '0132272'
  phone: 251-968-5256
  sources:
  - foodbank/al-feeding-the-gulf-coast
  verified: {'on': '2026-07-21', method: scrape}
  geo: {lat: 30.27342, lng: -87.68138}
- id: al/gulf-shores/gulf-shores-elementary
  name: Gulf Shores Elementary
  categories:
  - meal-program
  address: {street: 1600 E 3Rd St, city: Gulf Shores, state: al, zip: '36542'}
  description: Free summer meals for kids and teens (2026 season) — sponsored by Gulf Shores City Schools
    Board of Education.
  place: '0132272'
  geo: {lat: 30.26935, lng: -87.68116}
  phone: (251) 968-7375
  external_ids: {usda_master: Cycle 06_AL_SFSP_0128}
  sources:
  - usda/summer-meal-sites
  verified: {'on': '2026-07-19', method: api}
- id: al/gulf-shores/gulf-shores-high-school
  name: Gulf Shores High School
  categories:
  - meal-program
  address: {street: 600 E 16Th Ave, city: Gulf Shores, state: al, zip: '36542'}
  description: Free summer meals for kids and teens (2026 season) — sponsored by Gulf Shores City Schools
    Board of Education.
  place: '0132272'
  geo: {lat: 30.26942, lng: -87.68429}
  phone: (251) 968-4747
  external_ids: {usda_master: Cycle 06_AL_SFSP_0127}
  sources:
  - usda/summer-meal-sites
  verified: {'on': '2026-07-19', method: api}
- id: al/gulf-shores/sand-castle-university
  name: Sand Castle University
  categories:
  - food-pantry
  place: '0132272'
  geo: {lat: 30.26122, lng: -87.69092}
  website: https://mapping.littlefreepantry.org/pantry/4323
  external_ids: {lfp: '4323'}
  sources:
  - littlefreepantry/map
  verified: {'on': '2026-07-19', method: scrape}
