- id: al/hartselle/good-samaritan-food-pantry-hartselle
  name: Good Samaritan Food Pantry (Hartselle)
  org: al/food-bank-of-north-alabama
  categories:
  - food-pantry
  address: {street: 209 Hickory Street SE, city: Hartselle, state: al, zip: '35640'}
  place: 0133448
  geo: {lat: 34.44387, lng: -86.93115}
  external_ids: {al-food-bank-of-north-alabama: '200'}
  sources:
  - foodbank/al-food-bank-of-north-alabama
  verified: {'on': '2026-07-21', method: api}
- id: al/hartselle/hartselle-2103
  name: Hartselle- 2103
  categories:
  - child-care
  address: {street: 801 Bethel St NE, city: Hartselle, state: al, zip: '35640'}
  description: Head Start early childhood program — 33 funded slots; operated by Community Action Partnership
    of North Alabama, Inc..
  place: 0133448
  geo: {lat: 34.45634, lng: -86.92689}
  phone: 256-773-1006
  sources:
  - acf/head-start-locations
  verified: {'on': '2026-07-19', method: api}
- id: al/hartselle/hartselle-church-of-the-nazarene
  name: Hartselle Church Of The Nazarene
  org: al/food-bank-of-north-alabama
  categories:
  - food-pantry
  address: {street: 739 W Main St., city: Hartselle, state: al, zip: '35640'}
  place: 0133448
  geo: {lat: 34.44261, lng: -86.94392}
  phone: 256-631-5717
  external_ids: {al-food-bank-of-north-alabama: '204'}
  sources:
  - foodbank/al-food-bank-of-north-alabama
  verified: {'on': '2026-07-21', method: api}
- id: al/hartselle/hartselle-decatur-sda-hispanic-church
  name: Hartselle-Decatur SDA Hispanic Church
  org: al/food-bank-of-north-alabama
  categories:
  - food-pantry
  address: {street: 1708 Vest Rd., city: Hartselle, state: al, zip: '35640'}
  place: 0133448
  geo: {lat: 34.46188, lng: -86.95863}
  phone: 601-286-0221
  external_ids: {al-food-bank-of-north-alabama: '206'}
  sources:
  - foodbank/al-food-bank-of-north-alabama
  verified: {'on': '2026-07-21', method: api}
- id: al/hartselle/hartselle-decatur-sda-hispanic-church-2
  name: Hartselle-Decatur SDA Hispanic Church
  org: al/food-bank-of-north-alabama
  categories:
  - food-pantry
  address: {street: 1708 Vest Road, city: Hartselle, state: al, zip: '35640'}
  place: 0133448
  geo: {lat: 34.46188, lng: -86.95863}
  external_ids: {al-food-bank-of-north-alabama: '205'}
  sources:
  - foodbank/al-food-bank-of-north-alabama
  verified: {'on': '2026-07-21', method: api}
- id: al/hartselle/housing-authority-of-the-city-of-hartselle
  name: Housing Authority Of The City Of Hartselle
  categories:
  - housing-assistance
  address: {street: 616 Adelle St SW, city: Hartselle, state: al, zip: '35640'}
  description: Public housing (Low-Rent) agency
  place: 0133448
  geo: {lat: 34.44036, lng: -86.93815}
  phone: 256-773-5481
  sources:
  - hud/resource-locator
  verified: {'on': '2026-07-19', method: api}
- id: al/hartselle/life-source
  name: Life Source
  org: al/food-bank-of-north-alabama
  categories:
  - food-pantry
  address: {street: 1577 Highway 36 East, city: Hartselle, state: al, zip: '35640'}
  place: 0133448
  geo: {lat: 34.44687, lng: -86.80012}
  phone: 256-476-2975
  external_ids: {al-food-bank-of-north-alabama: '226'}
  sources:
  - foodbank/al-food-bank-of-north-alabama
  verified: {'on': '2026-07-21', method: api}
- id: al/hartselle/regional-ha-of-lawrence-cullman-morgan-counties
  name: Regional Ha Of Lawrence, Cullman & Morgan Counties
  categories:
  - housing-assistance
  address: {street: 206 Puckett Rd SW, city: Hartselle, state: al, zip: '35640'}
  description: Public housing (Low-Rent) agency
  place: 0133448
  geo: {lat: 34.43869, lng: -86.95904}
  phone: 256-773-4835
  sources:
  - hud/resource-locator
  verified: {'on': '2026-07-19', method: api}
