- id: al/harvest/capna-arlean-s-little-treasures
  name: CAPNA- Arlean's Little Treasures
  categories:
  - child-care
  address: {street: 110 Stetson Dr, city: Harvest, state: al, zip: '35749'}
  description: Head Start early childhood program — 8 funded slots; operated by Alabama Department of
    Human Resources.
  place: '0133472'
  geo: {lat: 34.8174, lng: -86.68239}
  phone: 256-323-4025
  sources:
  - acf/head-start-locations
  verified: {'on': '2026-07-19', method: api}
- id: al/harvest/ford-s-chapel-little-free-pantry
  name: Ford's Chapel Little Free Pantry
  categories:
  - food-pantry
  place: '0133472'
  geo: {lat: 34.84084, lng: -86.73043}
  website: https://mapping.littlefreepantry.org/pantry/5121
  external_ids: {lfp: '5121'}
  sources:
  - littlefreepantry/map
  verified: {'on': '2026-07-19', method: scrape}
- id: al/harvest/harvest-3602
  name: Harvest- 3602
  categories:
  - child-care
  address: {street: 9784 Wall Triana Hwy, city: Harvest, state: al, zip: '35749'}
  description: Head Start early childhood program — 31 funded slots; operated by Community Action Partnership
    of North Alabama, Inc..
  place: '0133472'
  geo: {lat: 34.8783, lng: -86.74881}
  phone: 256-713-0284
  sources:
  - acf/head-start-locations
  verified: {'on': '2026-07-19', method: api}
- id: al/harvest/harvest-school
  name: Harvest School
  categories:
  - meal-program
  address: {street: Harvest School, city: Harvest, state: al, zip: '35749'}
  description: Free summer meals for kids and teens (2026 season) — sponsored by Madison County Board
    of Education.
  place: '0133472'
  geo: {lat: 34.84839, lng: -86.74784}
  phone: (256) 852-2557
  external_ids: {usda_master: Cycle 06_AL_SSO_0038}
  sources:
  - usda/summer-meal-sites
  verified: {'on': '2026-07-19', method: api}
- id: al/harvest/harvest-youth-center-3615
  name: Harvest Youth Center- 3615
  categories:
  - child-care
  address: {street: 230 Lockhart Rd, city: Harvest, state: al, zip: '35749'}
  description: Head Start early childhood program — 14 funded slots; operated by Community Action Partnership
    of North Alabama, Inc..
  place: '0133472'
  geo: {lat: 34.81918, lng: -86.77145}
  phone: 256-489-3111
  sources:
  - acf/head-start-locations
  verified: {'on': '2026-07-19', method: api}
- id: al/harvest/toney-post-office
  name: Toney Post Office
  categories:
  - food-pantry
  place: '0133472'
  geo: {lat: 34.90158, lng: -86.71464}
  website: https://mapping.littlefreepantry.org/pantry/4403
  external_ids: {lfp: '4403'}
  sources:
  - littlefreepantry/map
  verified: {'on': '2026-07-19', method: scrape}
