- id: al/lanett/bowen-east
  name: Bowen East
  categories:
  - child-care
  address:
    street: 1319 Magnolia Rd
    city: Lanett
    state: al
    zip: '36863'
  place: 0141296
  geo:
    lat: 32.84562
    lng: -85.2024
  phone: 334-576-7254
  sources:
  - acf/head-start-locations
  verified:
    'on': '2026-07-19'
    method: api
- id: al/lanett/chambers-quality-health-care
  name: Chambers Quality Health Care
  categories:
  - community-health-center
  cost: sliding-scale
  address: {street: 34 Veterans Memorial Pkwy, city: Lanett, state: al, zip: '36863'}
  place: 0141296
  geo: {lat: 32.85466, lng: -85.19376}
  phone: 334-864-8659
  website: https://www.qolhs.org
  external_ids: {bphc: BPS-H80-029839}
  sources:
  - hrsa/health-center-sites
  verified: {'on': '2026-07-19', method: api}
- id: al/lanett/housing-authority-of-the-city-of-lanett-al
  name: Housing Authority Of The City Of Lanett, Al
  categories:
  - housing-assistance
  address:
    street: 506 1st St
    city: Lanett
    state: al
    zip: '36863'
  description: Public housing (Low-Rent) agency
  place: 0141296
  geo:
    lat: 32.86816
    lng: -85.21834
  phone: 334-644-5334
  sources:
  - hud/resource-locator
  verified:
    'on': '2026-07-19'
    method: api
- id: al/lanett/huguley-elementary-school
  name: Huguley Elementary School
  categories:
  - meal-program
  address:
    street: 3011 S Phillips Rd
    city: Lanett
    state: al
    zip: '36863'
  description: Free summer meals for kids and teens (2026 season) — sponsored by Chambers County Board
    of Education.
  place: 0141296
  geo:
    lat: 32.83408
    lng: -85.22934
  phone: (334) 864-9343
  external_ids:
    usda_master: Cycle 03_AL_SSO_0011
  sources:
  - usda/summer-meal-sites
  verified:
    'on': '2026-07-19'
    method: api
- id: al/lanett/lanett-high-school
  name: Lanett High School
  categories:
  - meal-program
  address:
    street: 1301 South 8Th Ave.
    city: Lanett
    state: al
    zip: '36863'
  description: Free summer meals for kids and teens (2026 season) — sponsored by Lanett City Board of
    Education.
  place: 0141296
  geo:
    lat: 32.85707
    lng: -85.19915
  phone: (334) 644-5908
  external_ids:
    usda_master: Cycle 03_AL_SSO_0201
  sources:
  - usda/summer-meal-sites
  verified:
    'on': '2026-07-19'
    method: api
- id: al/lanett/w-o-lance-elem-lanett-central-elem
  name: W. O. Lance Elem. (Lanett Central Elem.)
  categories:
  - meal-program
  address:
    street: 200 S. 8Th Ave.
    city: Lanett
    state: al
    zip: '36863'
  description: Free summer meals for kids and teens (2026 season) — sponsored by Lanett City Board of
    Education.
  place: 0141296
  geo:
    lat: 32.86725
    lng: -85.19516
  phone: (334) 644-5908
  external_ids:
    usda_master: Cycle 03_AL_SSO_0200
  sources:
  - usda/summer-meal-sites
  verified:
    'on': '2026-07-19'
    method: api
