- id: al/marion/berean-baptist-head-start-5301
  name: BEREAN BAPTIST HEAD START (5301)
  categories:
  - child-care
  address:
    street: 315 Centreville St
    city: Marion
    state: al
    zip: '36756'
  place: 0146768
  geo:
    lat: 32.63885
    lng: -87.3213
  phone: 334-683-4811
  sources:
  - acf/head-start-locations
  verified:
    'on': '2026-07-19'
    method: api
- id: al/marion/berean-baptist-head-start-5303
  name: Berean Baptist Head Start (5303)
  categories:
  - child-care
  address:
    street: 200 W Monroe St
    city: Marion
    state: al
    zip: '36756'
  place: 0146768
  geo:
    lat: 32.63421
    lng: -87.32133
  phone: 334-683-4443
  sources:
  - acf/head-start-locations
  verified:
    'on': '2026-07-19'
    method: api
- id: al/marion/cahaba-medical-care-marion-office
  name: Cahaba Medical Care - Marion Office
  categories:
  - community-health-center
  address:
    street: 1303 Washington St
    city: Marion
    state: al
    zip: '36756'
  place: 0146768
  geo:
    lat: 32.61951
    lng: -87.31767
  phone: 334-247-1006
  website: https://www.cahabamedicalcare.com
  external_ids:
    bphc: BPS-H80-023379
  sources:
  - hrsa/health-center-sites
  verified:
    'on': '2026-07-19'
    method: api
- id: al/marion/housing-authority-of-the-city-of-marion-al
  name: Housing Authority Of The City Of Marion, Al
  categories:
  - housing-assistance
  address: {street: 102 Cahaba Hts, city: Marion, state: al, zip: '36756'}
  description: Public housing (Low-Rent) agency
  place: 0146768
  geo: {lat: 32.63053, lng: -87.29941}
  phone: 334-683-6658
  sources:
  - hud/resource-locator
  verified: {'on': '2026-07-19', method: api}
- id: al/marion/rural-health-medical-program-inc-marion-health-c
  name: Rural Health Medical Program, Inc. - Marion Health Center
  categories:
  - community-health-center
  address:
    street: 1310 Washington St
    city: Marion
    state: al
    zip: '36756'
  place: 0146768
  geo:
    lat: 32.61946
    lng: -87.31752
  phone: 334-683-2073
  website: https://www.rhmpi.com
  external_ids:
    bphc: BPS-H80-003479
  sources:
  - hrsa/health-center-sites
  verified:
    'on': '2026-07-19'
    method: api
