- id: al/prichard/aiello-buskey-medical-center
  name: AIELLO/BUSKEY MEDICAL CENTER
  categories:
  - community-health-center
  address:
    street: 424 S Wilson Ave
    city: Prichard
    state: al
    zip: '36610'
  place: 0162496
  geo:
    lat: 30.73078
    lng: -88.0829
  phone: 251-452-1442
  website: https://www.franklinprimary.org
  external_ids:
    bphc: BPS-H80-002890
  sources:
  - hrsa/health-center-sites
  verified:
    'on': '2026-07-19'
    method: api
- id: al/prichard/dr-albert-thomas-medical-center
  name: DR. ALBERT THOMAS MEDICAL CENTER
  categories:
  - community-health-center
  address:
    street: 510 S Wilson Ave
    city: Prichard
    state: al
    zip: '36610'
  place: 0162496
  geo:
    lat: 30.73001
    lng: -88.08306
  phone: 251-301-7011
  website: https://www.franklinprimary.org
  external_ids:
    bphc: BPS-H80-002124
  sources:
  - hrsa/health-center-sites
  verified:
    'on': '2026-07-19'
    method: api
- id: al/prichard/ella-grant-head-start
  name: ELLA GRANT HEAD START
  categories:
  - child-care
  address:
    street: 535 Easterling St
    city: Prichard
    state: al
    zip: '36610'
  place: 0162496
  geo:
    lat: 30.73209
    lng: -88.09024
  phone: 251-222-3221
  sources:
  - acf/head-start-locations
  verified:
    'on': '2026-07-19'
    method: api
- id: al/prichard/lighthouse-academy-of-excellence-prichard
  name: Lighthouse Academy of Excellence; Prichard
  categories:
  - child-care
  address:
    street: 218 S Wilson Ave
    city: Prichard
    state: al
    zip: '36610'
  place: 0162496
  geo:
    lat: 30.73404
    lng: -88.08241
  phone: 251-725-0246
  sources:
  - acf/head-start-locations
  verified:
    'on': '2026-07-19'
    method: api
- id: al/prichard/the-housing-authority-of-the-city-of-prichard
  name: The Housing Authority Of The City Of  Prichard
  categories:
  - housing-assistance
  address: {city: Prichard, state: al, zip: '36610'}
  description: Public housing and Housing Choice Voucher agency
  place: 0162496
  geo: {lat: 30.73033, lng: -88.08366}
  phone: 251-283-0111
  sources:
  - hud/resource-locator
  verified: {'on': '2026-07-19', method: api}
- id: al/prichard/thomas-center
  name: THOMAS CENTER
  categories:
  - child-care
  address:
    street: 521 W Clark Ave
    city: Prichard
    state: al
    zip: '36610'
  place: 0162496
  geo:
    lat: 30.73229
    lng: -88.08841
  phone: 251-510-4032
  sources:
  - acf/head-start-locations
  verified:
    'on': '2026-07-19'
    method: api
