- id: al/scottsboro/family-life-center-inc
  name: Family Life Center Inc
  categories:
  - su-treatment
  address:
    street: 211 South Market Street
    city: Scottsboro
    state: al
    zip: '35768'
  place: 0168736
  geo:
    lat: 34.67224
    lng: -86.033
  phone: 256-574-3448
  website: https://www.familylifecenter.com
  sources:
  - samhsa/findtreatment
  verified:
    'on': '2026-07-19'
    method: api
- id: al/scottsboro/ha-scottsboro
  name: Ha Scottsboro
  categories:
  - housing-assistance
  address: {street: 399 Woods Cove Rd, city: Scottsboro, state: al, zip: '35768'}
  description: Public housing and Housing Choice Voucher agency
  place: 0168736
  geo: {lat: 34.66273, lng: -86.04556}
  phone: 256-259-5600
  sources:
  - hud/resource-locator
  verified: {'on': '2026-07-19', method: api}
- id: al/scottsboro/mountain-lakes-behavioral-healthcare-jackson-cou
  name: Mountain Lakes Behavioral Healthcare Jackson County Office
  categories:
  - su-treatment
  - mh-treatment
  address:
    street: 16003 U.S. Highway 35
    city: Scottsboro
    state: al
    zip: '35768'
  place: 0168736
  geo:
    lat: 34.67401
    lng: -86.0526
  phone: 256-259-1774
  website: https://mlbhcwebpage.com
  sources:
  - samhsa/findtreatment
  verified:
    'on': '2026-07-19'
    method: api
- id: al/scottsboro/northeast-alabama-health-services-inc
  name: NORTHEAST ALABAMA HEALTH SERVICES, INC.
  categories:
  - community-health-center
  address:
    street: 309 Taylor St
    city: Scottsboro
    state: al
    zip: '35768'
  place: 0168736
  geo:
    lat: 34.66369
    lng: -86.04054
  phone: 256-259-5313
  external_ids:
    bphc: BPS-H80-000887
  sources:
  - hrsa/health-center-sites
  verified:
    'on': '2026-07-19'
    method: api
- id: al/scottsboro/northeast-alabama-health-services-inc-scottsboro
  name: NORTHEAST ALABAMA HEALTH SERVICES, INC. - SCOTTSBORO
  categories:
  - community-health-center
  address:
    street: 70 Freedom Ln
    city: Scottsboro
    state: al
    zip: '35769'
  place: 0168736
  geo:
    lat: 34.65934
    lng: -86.0147
  phone: 256-574-5508
  external_ids:
    bphc: BPS-H80-003220
  sources:
  - hrsa/health-center-sites
  verified:
    'on': '2026-07-19'
    method: api
- id: al/scottsboro/northeast-alabama-health-services-inc-skyline
  name: NORTHEAST ALABAMA HEALTH SERVICES, INC. - SKYLINE
  categories:
  - community-health-center
  address:
    street: 21680 AL Highway 79
    city: Scottsboro
    state: al
    zip: '35768'
  place: 0168736
  geo:
    lat: 34.80148
    lng: -86.1204
  phone: 256-587-3050
  external_ids:
    bphc: BPS-H80-000436
  sources:
  - hrsa/health-center-sites
  verified:
    'on': '2026-07-19'
    method: api
- id: al/scottsboro/scottsboro-3302
  name: Scottsboro - 3302
  categories:
  - child-care
  address:
    street: 3517 S Broad St
    city: Scottsboro
    state: al
    zip: '35769'
  place: 0168736
  geo:
    lat: 34.60973
    lng: -86.06955
  phone: 256-259-4181
  sources:
  - acf/head-start-locations
  verified:
    'on': '2026-07-19'
    method: api
