- id: al/town-creek/family-health-care-clinic-inc-mobile-unit2
  name: Family Health Care Clinic, Inc. Mobile unit2
  categories:
  - community-health-center
  cost: sliding-scale
  address: {street: 1841 State Highway 20, city: Town Creek, state: al, zip: '35672'}
  place: 0176584
  geo: {lat: 34.68278, lng: -87.41878}
  phone: 601-936-3833
  website: https://www.familyhealthcareclinic.com
  external_ids: {bphc: BPS-H80-032744}
  sources:
  - hrsa/health-center-sites
  verified: {'on': '2026-07-19', method: api}
- id: al/town-creek/family-health-care-clinic-inc-town-creek
  name: Family Health Care Clinic, Inc. --Town Creek
  categories:
  - community-health-center
  cost: sliding-scale
  address: {street: 1841 State Highway 20, city: Town Creek, state: al, zip: '35672'}
  place: 0176584
  geo: {lat: 34.68278, lng: -87.41878}
  phone: 800-508-7481
  website: https://www.familyhealthcareclinic.com
  external_ids: {bphc: BPS-H80-009046}
  sources:
  - hrsa/health-center-sites
  verified: {'on': '2026-07-19', method: api}
- id: al/town-creek/hazlewood-2203
  name: Hazlewood-2203
  categories:
  - child-care
  address: {street: 334 Hazelwood St, city: Town Creek, state: al, zip: '35672'}
  description: Head Start early childhood program — 32 funded slots; operated by Community Action Partnership
    of North Alabama, Inc..
  place: 0176584
  geo: {lat: 34.68267, lng: -87.40882}
  phone: 256-573-5023
  sources:
  - acf/head-start-locations
  verified: {'on': '2026-07-19', method: api}
- id: al/town-creek/lawrence-county-dream-center
  name: Lawrence County Dream Center
  org: al/food-bank-of-north-alabama
  categories:
  - food-pantry
  address: {street: 1167 County Road 265, city: Town Creek, state: al, zip: '35672'}
  place: 0176584
  geo: {lat: 34.66195, lng: -87.3827}
  phone: 256-476-9821
  external_ids: {al-food-bank-of-north-alabama: '222'}
  sources:
  - foodbank/al-food-bank-of-north-alabama
  verified: {'on': '2026-07-21', method: api}
- id: al/town-creek/living-way-apostolic-church
  name: Living Way Apostolic Church
  org: al/food-bank-of-north-alabama
  categories:
  - food-pantry
  address: {street: 4430 Alabama Hwy 20, city: Town Creek, state: al, zip: '35672'}
  place: 0176584
  geo: {lat: 34.68022, lng: -87.37291}
  external_ids: {al-food-bank-of-north-alabama: '232'}
  sources:
  - foodbank/al-food-bank-of-north-alabama
  verified: {'on': '2026-07-21', method: api}
- id: al/town-creek/the-helping-hand
  name: The Helping Hand
  org: al/food-bank-of-north-alabama
  categories:
  - food-pantry
  address: {street: 23271 Ala. Hwy. 157, city: Town Creek, state: al, zip: '35672'}
  place: 0176584
  geo: {lat: 34.58533, lng: -87.41819}
  phone: 256-685-2793
  external_ids: {al-food-bank-of-north-alabama: '299'}
  sources:
  - foodbank/al-food-bank-of-north-alabama
  verified: {'on': '2026-07-21', method: api}
