- id: ky/morehead/clean-on-purpose
  name: Clean On Purpose
  program: na
  categories:
  - recovery-meeting
  schedule:
  - {day: sat, time: '18:30', duration_min: 60}
  format: in-person
  types:
  - o
  - d
  venue_name: Morehead Farmers Christian Church
  venue: {street: 100 Ky 801, city: Morehead, state: ky, zip: '40351'}
  place: '2153418'
  geo: {lat: 38.14088, lng: -83.54816}
  external_ids: {bmlt: '25:2572'}
  sources:
  - bmlt/aggregator
  verified: {'on': '2026-07-19', method: api}
- id: ky/morehead/dose-of-hope
  name: Dose of Hope
  program: na
  categories:
  - recovery-meeting
  schedule:
  - {day: tue, time: '12:00', duration_min: 60}
  format: in-person
  venue_name: Morehead City Park Complex
  venue: {street: 100 C B Cornette DR, city: Morehead, state: ky, zip: '40351'}
  place: '2153418'
  geo: {lat: 38.18598, lng: -83.4268}
  external_ids: {bmlt: '25:1906'}
  sources:
  - bmlt/aggregator
  verified: {'on': '2026-07-19', method: api}
- id: ky/morehead/dose-of-hope-2
  name: Dose of Hope
  program: na
  categories:
  - recovery-meeting
  schedule:
  - {day: fri, time: '12:00', duration_min: 60}
  format: in-person
  venue_name: Morehead City Park Complex
  venue: {street: 100 C B Cornette DR, city: Morehead, state: ky, zip: '40351'}
  place: '2153418'
  geo: {lat: 38.18598, lng: -83.4268}
  external_ids: {bmlt: '25:1763'}
  sources:
  - bmlt/aggregator
  verified: {'on': '2026-07-19', method: api}
- id: ky/morehead/fire-house
  name: Fire House
  program: na
  categories:
  - recovery-meeting
  schedule:
  - {day: wed, time: '18:00', duration_min: 90}
  format: in-person
  venue_name: Morehead Confrence Room
  venue: {street: 4399 Open, city: Morehead, state: ky, zip: '40351'}
  place: '2153418'
  geo: {lat: 38.17686, lng: -83.43572}
  external_ids: {bmlt: '25:2554'}
  sources:
  - bmlt/aggregator
  verified: {'on': '2026-07-19', method: api}
- id: ky/morehead/heart-of-na
  name: Heart Of NA
  program: na
  categories:
  - recovery-meeting
  schedule:
  - {day: wed, time: '19:00', duration_min: 90}
  format: in-person
  types:
  - o
  - d
  venue_name: Morehead City Park Complex
  venue: {street: 100 C B Cornette DR, city: Morehead, state: ky, zip: '40351'}
  place: '2153418'
  geo: {lat: 38.18598, lng: -83.4268}
  external_ids: {bmlt: '25:2576'}
  sources:
  - bmlt/aggregator
  verified: {'on': '2026-07-19', method: api}
- id: ky/morehead/inside-job
  name: Inside Job
  program: na
  categories:
  - recovery-meeting
  schedule:
  - {day: thu, time: '18:30', duration_min: 60}
  format: in-person
  types:
  - o
  - d
  venue_name: Charity Freewill Baptist Church
  venue: {street: 7075 KY-519, city: Morehead, state: ky, zip: '40351'}
  place: '2153418'
  geo: {lat: 38.07826, lng: -83.40961}
  external_ids: {bmlt: '25:1293'}
  sources:
  - bmlt/aggregator
  verified: {'on': '2026-07-19', method: api}
- id: ky/morehead/no-matter-what
  name: No Matter What
  program: na
  categories:
  - recovery-meeting
  schedule:
  - {day: sat, time: '18:30', duration_min: 60}
  format: in-person
  types:
  - o
  - d
  - wc
  venue_name: Cher Building - St. Claire Family Medical
  venue: {street: 316 W 2nd Street, city: Morehead, state: ky, zip: '40351'}
  place: '2153418'
  geo: {lat: 38.17948, lng: -83.43939}
  external_ids: {bmlt: '25:2553'}
  sources:
  - bmlt/aggregator
  verified: {'on': '2026-07-19', method: api}
- id: ky/morehead/pains
  name: Pains
  program: na
  categories:
  - recovery-meeting
  schedule:
  - {day: sun, time: '17:00', duration_min: 60}
  format: in-person
  types:
  - o
  - wc
  venue_name: Triplett Park Shelter
  venue: {street: 100 C B Cornette Dr, city: Morehead, state: ky, zip: '40351'}
  place: '2153418'
  geo: {lat: 38.18598, lng: -83.4268}
  external_ids: {bmlt: '25:2461'}
  sources:
  - bmlt/aggregator
  verified: {'on': '2026-07-19', method: api}
- id: ky/morehead/pains-2
  name: Pains
  program: na
  categories:
  - recovery-meeting
  schedule:
  - {day: fri, time: '19:00', duration_min: 60}
  format: in-person
  types:
  - o
  - wc
  venue_name: Triplett Park Shelter
  venue: {street: 100 C B Cornette Dr, city: Morehead, state: ky, zip: '40351'}
  place: '2153418'
  geo: {lat: 38.18595, lng: -83.42594}
  external_ids: {bmlt: '25:2460'}
  sources:
  - bmlt/aggregator
  verified: {'on': '2026-07-19', method: api}
- id: ky/morehead/second-chance
  name: Second Chance
  program: na
  categories:
  - recovery-meeting
  schedule:
  - {day: mon, time: '19:00', duration_min: 60}
  format: in-person
  venue: {street: 316 W 2nd Street, city: Morehead, state: ky, zip: '40351'}
  place: '2153418'
  geo: {lat: 38.17954, lng: -83.43943}
  external_ids: {bmlt: '25:2407'}
  sources:
  - bmlt/aggregator
  verified: {'on': '2026-07-19', method: api}
- id: ky/morehead/the-meeting-spot
  name: The Meeting Spot
  program: na
  categories:
  - recovery-meeting
  schedule:
  - {day: thu, time: '18:00', duration_min: 60}
  format: in-person
  types:
  - o
  - d
  - wc
  venue_name: Morehead City Park Complex
  venue: {street: 100 C B Cornette DR, city: Morehead, state: ky, zip: '40351'}
  place: '2153418'
  geo: {lat: 38.18598, lng: -83.4268}
  external_ids: {bmlt: '25:642'}
  sources:
  - bmlt/aggregator
  verified: {'on': '2026-07-19', method: api}
- id: ky/morehead/total-abstinence
  name: Total Abstinence
  program: na
  categories:
  - recovery-meeting
  schedule:
  - {day: tue, time: '19:00', duration_min: 60}
  format: in-person
  types:
  - o
  - d
  - wc
  venue_name: Blair Building
  venue: {street: 123 E. Main St, city: Morehead, state: ky}
  place: '2153418'
  geo: {lat: 38.18239, lng: -83.43518}
  external_ids: {bmlt: '25:1163'}
  sources:
  - bmlt/aggregator
  verified: {'on': '2026-07-19', method: api}
- id: ky/morehead/total-abstinence-2
  name: Total Abstinence
  program: na
  categories:
  - recovery-meeting
  schedule:
  - {day: thu, time: '20:00', duration_min: 60}
  format: in-person
  types:
  - o
  venue: {street: 123 East Main Street, city: Morehead, state: ky, zip: '40351'}
  place: '2153418'
  geo: {lat: 38.18229, lng: -83.43505}
  external_ids: {bmlt: '25:1760'}
  sources:
  - bmlt/aggregator
  verified: {'on': '2026-07-19', method: api}
- id: ky/morehead/total-abstinence-3
  name: Total Abstinence
  program: na
  categories:
  - recovery-meeting
  schedule:
  - {day: sat, time: '09:00', duration_min: 60}
  format: in-person
  types:
  - o
  - d
  venue_name: First Baptist Church
  venue: {street: 123 East Main Street, city: Morehead, state: ky, zip: '40351'}
  place: '2153418'
  geo: {lat: 38.18229, lng: -83.43505}
  external_ids: {bmlt: '25:1547'}
  sources:
  - bmlt/aggregator
  verified: {'on': '2026-07-19', method: api}
