- id: ia/cedar-rapids/a-new-leaf-mental-health-and-wellness
  name: A New Leaf Mental Health and Wellness
  categories:
  - su-treatment
  address:
    street: 5925 Council Street NE
    city: Cedar Rapids
    state: ia
    zip: '52402'
  place: '1912000'
  geo:
    lat: 42.03709
    lng: -91.65899
  phone: 319-423-0919
  website: https://newleafiowa.com
  sources:
  - samhsa/findtreatment
  verified:
    'on': '2026-07-19'
    method: api
- id: ia/cedar-rapids/abbe-center-for-community-mh-cedar-rapids-clinic
  name: Abbe Center for Community MH Cedar Rapids Clinic
  categories:
  - su-treatment
  - mh-treatment
  address:
    street: 615 5th Street SE
    city: Cedar Rapids
    state: ia
    zip: '52401'
  place: '1912000'
  geo:
    lat: 41.97592
    lng: -91.66119
  phone: 319-398-3562
  website: https://unitypoint.org/abbehealth
  sources:
  - samhsa/findtreatment
  verified:
    'on': '2026-07-19'
    method: api
- id: ia/cedar-rapids/area-substance-abuse-council-cedar-rapids
  name: Area Substance Abuse Council Cedar Rapids
  categories:
  - su-treatment
  address:
    street: 3601 16th Avenue SW
    city: Cedar Rapids
    state: ia
    zip: '52404'
  place: '1912000'
  geo:
    lat: 41.96297
    lng: -91.71804
  phone: 319-390-4611
  website: https://www.asac.us
  sources:
  - samhsa/findtreatment
  verified:
    'on': '2026-07-19'
    method: api
- id: ia/cedar-rapids/area-substance-abuse-council-cedar-rapids-cedar
  name: Area Substance Abuse Council Cedar Rapids/Cedar Rapids Library
  categories:
  - su-treatment
  address:
    street: 450 5th Avenue SE
    city: Cedar Rapids
    state: ia
    zip: '52401'
  place: '1912000'
  geo:
    lat: 41.97749
    lng: -91.66271
  phone: 319-390-4611
  website: https://www.asac.us
  sources:
  - samhsa/findtreatment
  verified:
    'on': '2026-07-19'
    method: api
- id: ia/cedar-rapids/area-substance-abuse-council-cedar-rapids-four-o
  name: Area Substance Abuse Council Cedar Rapids/Four Oaks Bertram
  categories:
  - su-treatment
  address:
    street: 1341 Bertram Street
    city: Cedar Rapids
    state: ia
    zip: '52403'
  place: '1912000'
  geo:
    lat: 41.95693
    lng: -91.52741
  phone: 319-866-6000
  website: https://www.asac.us
  sources:
  - samhsa/findtreatment
  verified:
    'on': '2026-07-19'
    method: api
- id: ia/cedar-rapids/area-substance-abuse-council-cedar-rapids-outpat
  name: Area Substance Abuse Council Cedar Rapids/Outpatient
  categories:
  - su-treatment
  address:
    street: 3601 16th Avenue SW
    city: Cedar Rapids
    state: ia
    zip: '52404'
  place: '1912000'
  geo:
    lat: 41.96297
    lng: -91.71804
  phone: 319-390-4611
  website: https://www.asac.us
  sources:
  - samhsa/findtreatment
  verified:
    'on': '2026-07-19'
    method: api
- id: ia/cedar-rapids/area-substance-abuse-council-cedar-rapids-recove
  name: Area Substance Abuse Council Cedar Rapids/Recovery Center Adult
  categories:
  - su-treatment
  address:
    street: 3601 16th Avenue SW
    city: Cedar Rapids
    state: ia
    zip: '52404'
  place: '1912000'
  geo:
    lat: 41.96297
    lng: -91.71804
  phone: 319-390-4611
  website: https://www.asac.us
  sources:
  - samhsa/findtreatment
  verified:
    'on': '2026-07-19'
    method: api
- id: ia/cedar-rapids/area-substance-abuse-council-cedar-rapids-the-wa
  name: Area Substance Abuse Council Cedar Rapids/The Way Home
  categories:
  - su-treatment
  address:
    street: 5480 Kirkwood Boulevard SW
    city: Cedar Rapids
    state: ia
    zip: '52404'
  place: '1912000'
  geo:
    lat: 41.92061
    lng: -91.6588
  phone: 319-390-4611
  website: https://www.asac.us
  sources:
  - samhsa/findtreatment
  verified:
    'on': '2026-07-19'
    method: api
- id: ia/cedar-rapids/area-substance-abuse-council-cedar-rapids-willis
  name: Area Substance Abuse Council Cedar Rapids/Willis Dady Homeless Serv
  categories:
  - su-treatment
  address:
    street: 1247 4th Avenue SE
    city: Cedar Rapids
    state: ia
    zip: '52403'
  place: '1912000'
  geo:
    lat: 41.98312
    lng: -91.65334
  phone: 319-390-4611
  website: https://www.asac.us
  sources:
  - samhsa/findtreatment
  verified:
    'on': '2026-07-19'
    method: api
- id: ia/cedar-rapids/area-substance-abuse-council-heart-of-iowa
  name: Area Substance Abuse Council Heart of Iowa
  categories:
  - su-treatment
  address:
    street: 4050 Bowling Street SW
    city: Cedar Rapids
    state: ia
    zip: '52404'
  place: '1912000'
  geo:
    lat: 41.93813
    lng: -91.65796
  phone: 319-390-4611
  website: https://www.asac.us
  sources:
  - samhsa/findtreatment
  verified:
    'on': '2026-07-19'
    method: api
- id: ia/cedar-rapids/cedar-rapids-housing-services
  name: Cedar Rapids Housing Services
  categories:
  - housing-assistance
  address: {street: 101 1st St SE, city: Cedar Rapids, state: ia, zip: '52401'}
  description: Housing Choice Voucher (Section 8) agency
  place: '1912000'
  geo: {lat: 41.97792, lng: -91.67}
  phone: 319-286-5872
  sources:
  - hud/resource-locator
  verified: {'on': '2026-07-19', method: api}
- id: ia/cedar-rapids/college-community-crest
  name: College Community - Crest
  categories:
  - child-care
  address:
    street: 301 76th Ave SW
    city: Cedar Rapids
    state: ia
    zip: '52404'
  place: '1912000'
  geo:
    lat: 41.90418
    lng: -91.66588
  phone: 319-848-5280
  sources:
  - acf/head-start-locations
  verified:
    'on': '2026-07-19'
    method: api
- id: ia/cedar-rapids/college-community-school-district-early-childhoo
  name: College Community School District - Early Childhood
  categories:
  - child-care
  address:
    street: 401 76th Ave SW
    city: Cedar Rapids
    state: ia
    zip: '52404'
  place: '1912000'
  geo:
    lat: 41.90497
    lng: -91.66864
  phone: 319-848-5296
  sources:
  - acf/head-start-locations
  verified:
    'on': '2026-07-19'
    method: api
- id: ia/cedar-rapids/college-community-sd-cedar-valley-townhomes
  name: College Community SD - Cedar Valley Townhomes
  categories:
  - child-care
  address:
    street: 3000 J St SW
    city: Cedar Rapids
    state: ia
    zip: '52404'
  place: '1912000'
  geo:
    lat: 41.94795
    lng: -91.66941
  phone: 319-848-5296
  sources:
  - acf/head-start-locations
  verified:
    'on': '2026-07-19'
    method: api
- id: ia/cedar-rapids/czech-village-free-pantry
  name: Czech Village Free Pantry
  categories:
  - food-pantry
  place: '1912000'
  geo:
    lat: 41.96461
    lng: -91.66215
  external_ids:
    lfp: '5392'
  sources:
  - littlefreepantry/map
  verified:
    'on': '2026-07-19'
    method: scrape
- id: ia/cedar-rapids/eastern-iowa-health-center
  name: Eastern Iowa Health Center
  categories:
  - community-health-center
  address:
    street: 1201 3rd Ave SE
    city: Cedar Rapids
    state: ia
    zip: '52403'
  place: '1912000'
  geo:
    lat: 41.98313
    lng: -91.65538
  phone: 319-730-7300
  website: https://www.easterniowahealthcenter.com
  external_ids:
    bphc: BPS-H80-009081
  sources:
  - hrsa/health-center-sites
  verified:
    'on': '2026-07-19'
    method: api
- id: ia/cedar-rapids/eastern-iowa-health-center-administrative-office
  name: Eastern Iowa Health Center Administrative Offices
  categories:
  - community-health-center
  address:
    street: 1030 5th Ave SE
    city: Cedar Rapids
    state: ia
    zip: '52403'
  place: '1912000'
  geo:
    lat: 41.98139
    lng: -91.65542
  phone: 319-730-7300
  external_ids:
    bphc: BPS-H80-018708
  sources:
  - hrsa/health-center-sites
  verified:
    'on': '2026-07-19'
    method: api
- id: ia/cedar-rapids/eastern-iowa-health-center-dental
  name: Eastern Iowa Health Center - Dental
  categories:
  - community-health-center
  address:
    street: 1210 4th Ave SE
    city: Cedar Rapids
    state: ia
    zip: '52403'
  place: '1912000'
  geo:
    lat: 41.9827
    lng: -91.65471
  phone: 319-730-7300
  website: https://easterniowahealthcenter.com/
  external_ids:
    bphc: BPS-H80-033778
  sources:
  - hrsa/health-center-sites
  verified:
    'on': '2026-07-19'
    method: api
- id: ia/cedar-rapids/eastern-iowa-health-center-pediatrics
  name: Eastern Iowa Health Center - Pediatrics
  categories:
  - community-health-center
  address:
    street: 1225 3rd Ave SE
    city: Cedar Rapids
    state: ia
    zip: '52403'
  place: '1912000'
  geo:
    lat: 41.98341
    lng: -91.65505
  phone: 319-730-7300
  website: https://www.easterniowahealthcenter.com
  external_ids:
    bphc: BPS-H80-018891
  sources:
  - hrsa/health-center-sites
  verified:
    'on': '2026-07-19'
    method: api
- id: ia/cedar-rapids/eastern-iowa-health-center-pharmacy-walk-in-care
  name: Eastern Iowa Health Center Pharmacy & Walk-in Care
  categories:
  - community-health-center
  address:
    street: 400 12th St SE
    city: Cedar Rapids
    state: ia
    zip: '52403'
  place: '1912000'
  geo:
    lat: 41.98227
    lng: -91.65491
  phone: 319-730-7300
  website: https://www.easterniowahealthcenter.com
  external_ids:
    bphc: BPS-H80-032007
  sources:
  - hrsa/health-center-sites
  verified:
    'on': '2026-07-19'
    method: api
- id: ia/cedar-rapids/eastern-iowa-rhys-jones-dental-center
  name: Eastern Iowa Rhys Jones Dental Center
  categories:
  - community-health-center
  address:
    street: 855 A Ave NE, Suite LL1
    city: Cedar Rapids
    state: ia
    zip: '52402'
  place: '1912000'
  geo:
    lat: 41.98418
    lng: -91.66094
  phone: 319-730-7300
  website: https://easterniowahealthcenter.com
  external_ids:
    bphc: BPS-H80-041428
  sources:
  - hrsa/health-center-sites
  verified:
    'on': '2026-07-19'
    method: api
- id: ia/cedar-rapids/four-oaks-bertram
  name: Four Oaks Bertram
  categories:
  - mh-treatment
  address:
    street: 1341 Bertram Street
    city: Cedar Rapids
    state: ia
    zip: '52403'
  place: '1912000'
  geo:
    lat: 41.95694
    lng: -91.52742
  phone: 319-364-0259
  website: https://www.fouroaks.org
  sources:
  - samhsa/findtreatment
  verified:
    'on': '2026-07-19'
    method: api
- id: ia/cedar-rapids/four-oaks-family-and-childrens-service
  name: Four Oaks Family and Childrens Service
  categories:
  - mh-treatment
  address:
    street: 5400 Kirkwood Boulevard SW
    city: Cedar Rapids
    state: ia
    zip: '52404'
  place: '1912000'
  geo:
    lat: 41.92122
    lng: -91.65953
  phone: 319-364-0259
  website: https://www.fouroaks.org
  sources:
  - samhsa/findtreatment
  verified:
    'on': '2026-07-19'
    method: api
- id: ia/cedar-rapids/gloria-dei-s-little-free-pantry
  name: Gloria Dei's Little Free Pantry
  categories:
  - food-pantry
  place: '1912000'
  geo:
    lat: 41.97288
    lng: -91.74426
  external_ids:
    lfp: '2706'
  sources:
  - littlefreepantry/map
  verified:
    'on': '2026-07-19'
    method: scrape
- id: ia/cedar-rapids/hacap-head-start-horizons
  name: HACAP Head Start - Horizons
  categories:
  - child-care
  address:
    street: 819 5th St SE
    city: Cedar Rapids
    state: ia
    zip: '52401'
  place: '1912000'
  geo:
    lat: 41.97415
    lng: -91.65871
  phone: 319-364-2438
  sources:
  - acf/head-start-locations
  verified:
    'on': '2026-07-19'
    method: api
- id: ia/cedar-rapids/hacap-head-start-inn-circle
  name: HACAP Head Start - Inn Circle
  categories:
  - child-care
  address:
    street: 5560 6th St SW
    city: Cedar Rapids
    state: ia
    zip: '52404'
  place: '1912000'
  geo:
    lat: 41.92389
    lng: -91.67646
  phone: 319-366-7631
  sources:
  - acf/head-start-locations
  verified:
    'on': '2026-07-19'
    method: api
- id: ia/cedar-rapids/hacap-head-start-jane-boyd
  name: HACAP Head Start - Jane Boyd
  categories:
  - child-care
  address:
    street: 943 14th Ave SE
    city: Cedar Rapids
    state: ia
    zip: '52401'
  place: '1912000'
  geo:
    lat: 41.97186
    lng: -91.65148
  phone: 319-200-3674
  sources:
  - acf/head-start-locations
  verified:
    'on': '2026-07-19'
    method: api
- id: ia/cedar-rapids/hacap-head-start-northwest
  name: HACAP Head Start - Northwest
  categories:
  - child-care
  address:
    street: 230 10th St NW
    city: Cedar Rapids
    state: ia
    zip: '52405'
  place: '1912000'
  geo:
    lat: 41.97461
    lng: -91.68597
  phone: 319-221-1484
  sources:
  - acf/head-start-locations
  verified:
    'on': '2026-07-19'
    method: api
- id: ia/cedar-rapids/hacap-head-start-urban
  name: HACAP Head Start - Urban
  categories:
  - child-care
  address:
    street: 1328 2nd Ave SE
    city: Cedar Rapids
    state: ia
    zip: '52403'
  place: '1912000'
  geo:
    lat: 41.98626
    lng: -91.6538
  phone: 319-366-7632
  sources:
  - acf/head-start-locations
  verified:
    'on': '2026-07-19'
    method: api
- id: ia/cedar-rapids/linn-county-child-development-center
  name: Linn County Child Development Center
  categories:
  - child-care
  address:
    street: 1020 6th Street SE
    city: Cedar Rapids
    state: ia
    zip: '52401'
  place: '1912000'
  geo:
    lat: 41.97356
    lng: -91.65634
  phone: 319-892-5700
  sources:
  - acf/head-start-locations
  verified:
    'on': '2026-07-19'
    method: api
- id: ia/cedar-rapids/mercy-medical-center-behavioral-health-unit
  name: Mercy Medical Center Behavioral Health Unit
  categories:
  - mh-treatment
  address:
    street: 701 10th Street SE
    city: Cedar Rapids
    state: ia
    zip: '52403'
  place: '1912000'
  geo:
    lat: 41.97908
    lng: -91.65702
  phone: 319-398-6530
  website: https://www.mercycare.org
  sources:
  - samhsa/findtreatment
  verified:
    'on': '2026-07-19'
    method: api
- id: ia/cedar-rapids/mercy-medical-center-sedlacek-treatment-center
  name: Mercy Medical Center Sedlacek Treatment Center
  categories:
  - su-treatment
  address:
    street: 5975 Rockwell Drive NE
    city: Cedar Rapids
    state: ia
    zip: '52402'
  place: '1912000'
  geo:
    lat: 42.03799
    lng: -91.64919
  phone: 319-398-6226
  website: https://www.mercycare.org/sedlacek
  sources:
  - samhsa/findtreatment
  verified:
    'on': '2026-07-19'
    method: api
- id: ia/cedar-rapids/still-waters-recovery-counseling
  name: Still Waters Recovery Counseling
  categories:
  - su-treatment
  address:
    street: 1120 Depot Lane SE
    city: Cedar Rapids
    state: ia
    zip: '52401'
  place: '1912000'
  geo:
    lat: 41.97155
    lng: -91.65722
  phone: 319-350-9444
  website: https://www.StillWatersPsalm23.org
  sources:
  - samhsa/findtreatment
  verified:
    'on': '2026-07-19'
    method: api
- id: ia/cedar-rapids/unitypoint-health-childrens-specialty-services
  name: UnityPoint Health Childrens Specialty Services
  categories:
  - su-treatment
  - mh-treatment
  address:
    street: 4050 River Ridge Drive NE
    city: Cedar Rapids
    state: ia
    zip: '52402'
  place: '1912000'
  geo:
    lat: 42.02063
    lng: -91.69933
  phone: 319-558-4900
  website: https://www.unitypoint.org/locations/unitypoint-health---st-lukes-childrens-specialty-services
  sources:
  - samhsa/findtreatment
  verified:
    'on': '2026-07-19'
    method: api
- id: ia/cedar-rapids/unitypoint-health-st-lukes-chemical-dependency-s
  name: UnityPoint Health St Lukes Chemical Dependency Services
  categories:
  - su-treatment
  address:
    street: 810 1st Avenue NE
    city: Cedar Rapids
    state: ia
    zip: '52402'
  place: '1912000'
  geo:
    lat: 41.98308
    lng: -91.66184
  phone: 319-363-4429
  website: https://www.unitypoint.org/cedarrapids
  sources:
  - samhsa/findtreatment
  verified:
    'on': '2026-07-19'
    method: api
- id: ia/cedar-rapids/unitypoint-health-st-lukes-hospital-behav-health
  name: UnityPoint Health St Lukes Hospital Behav Health Servs
  categories:
  - su-treatment
  - mh-treatment
  address:
    street: 1026 A Avenue NE
    city: Cedar Rapids
    state: ia
    zip: '52402'
  place: '1912000'
  geo:
    lat: 41.9853
    lng: -91.66043
  phone: 319-369-7211
  website: https://www.unitypoint.org
  sources:
  - samhsa/findtreatment
  verified:
    'on': '2026-07-19'
    method: api
