- id: ia/fort-dodge/catholic-charities-diocese-of-sioux-city
  name: Catholic Charities Diocese of Sioux City
  categories:
  - su-treatment
  - mh-treatment
  address:
    street: 1414 Central Avenue
    city: Fort Dodge
    state: ia
    zip: '50501'
  place: '1928515'
  geo:
    lat: 42.50636
    lng: -94.17888
  phone: 515-576-4156
  website: https://www.cathchar.com
  sources:
  - samhsa/findtreatment
  verified:
    'on': '2026-07-19'
    method: api
- id: ia/fort-dodge/community-and-family-resources-fd-main-campus
  name: Community and Family Resources FD Main Campus
  categories:
  - su-treatment
  address:
    street: 211 Avenue M West
    city: Fort Dodge
    state: ia
    zip: '50501'
  place: '1928515'
  geo:
    lat: 42.48823
    lng: -94.21143
  phone: 515-576-7261
  website: https://www.cfrhelps.org
  sources:
  - samhsa/findtreatment
  verified:
    'on': '2026-07-19'
    method: api
- id: ia/fort-dodge/community-and-family-resources-mens-recovery-hou
  name: Community and Family Resources Mens Recovery Housing
  categories:
  - su-treatment
  address:
    street: 1321 2nd Avenue South
    city: Fort Dodge
    state: ia
    zip: '50501'
  place: '1928515'
  geo:
    lat: 42.50385
    lng: -94.18013
  phone: 515-955-7628 x1090
  website: https://www.cfrhelps.org
  sources:
  - samhsa/findtreatment
  verified:
    'on': '2026-07-19'
    method: api
- id: ia/fort-dodge/community-and-family-resources-womens-recovery-h
  name: Community and Family Resources Womens Recovery House
  categories:
  - su-treatment
  address:
    street: 728 South 17th Street
    city: Fort Dodge
    state: ia
    zip: '50501'
  place: '1928515'
  geo:
    lat: 42.49783
    lng: -94.17501
  phone: 515-576-7261 x1092
  website: https://www.cfrhelps.org
  sources:
  - samhsa/findtreatment
  verified:
    'on': '2026-07-19'
    method: api
- id: ia/fort-dodge/community-health-center-of-fort-dodge
  name: COMMUNITY HEALTH CENTER OF FORT DODGE
  categories:
  - community-health-center
  address:
    street: 126 N 10th St
    city: Fort Dodge
    state: ia
    zip: '50501'
  place: '1928515'
  geo:
    lat: 42.50721
    lng: -94.18553
  phone: 515-576-6500
  website: https://www.chcfd.com
  external_ids:
    bphc: BPS-H80-005182
  sources:
  - hrsa/health-center-sites
  verified:
    'on': '2026-07-19'
    method: api
- id: ia/fort-dodge/epworth-umc
  name: Epworth UMC
  categories:
  - food-pantry
  place: '1928515'
  geo:
    lat: 42.49273
    lng: -94.16963
  external_ids:
    lfp: '342'
  sources:
  - littlefreepantry/map
  verified:
    'on': '2026-07-19'
    method: scrape
- id: ia/fort-dodge/fort-dodge-municipal-housing-agency
  name: Fort Dodge Municipal Housing Agency
  categories:
  - housing-assistance
  address: {street: 700 S 17th St, city: Fort Dodge, state: ia, zip: '50501'}
  description: Public housing and Housing Choice Voucher agency
  place: '1928515'
  geo: {lat: 42.49844, lng: -94.17504}
  phone: 515-573-7751
  sources:
  - hud/resource-locator
  verified: {'on': '2026-07-19', method: api}
- id: ia/fort-dodge/grace-lutheran-church
  name: Grace Lutheran Church
  categories:
  - child-care
  address:
    street: 211 S 9th St
    city: Fort Dodge
    state: ia
    zip: '50501'
  place: '1928515'
  geo:
    lat: 42.50304
    lng: -94.18518
  phone: 515-573-2453
  sources:
  - acf/head-start-locations
  verified:
    'on': '2026-07-19'
    method: api
- id: ia/fort-dodge/maple-drive-head-start
  name: Maple Drive Head Start
  categories:
  - child-care
  address:
    street: 3611 Maple Dr
    city: Fort Dodge
    state: ia
    zip: '50501'
  place: '1928515'
  geo:
    lat: 42.49949
    lng: -94.13304
  phone: 515-573-2882
  sources:
  - acf/head-start-locations
  verified:
    'on': '2026-07-19'
    method: api
- id: ia/fort-dodge/proteus-inc-fort-dodge-site
  name: Proteus, Inc. - Fort Dodge Site
  categories:
  - community-health-center
  address:
    street: 107 N 7th St
    city: Fort Dodge
    state: ia
    zip: '50501'
  place: '1928515'
  geo:
    lat: 42.50618
    lng: -94.18888
  phone: 515-557-8225
  external_ids:
    bphc: BPS-H80-012139
  sources:
  - hrsa/health-center-sites
  verified:
    'on': '2026-07-19'
    method: api
- id: ia/fort-dodge/richmond-center-fort-dodge-outpatient
  name: Richmond Center Fort Dodge Outpatient
  categories:
  - su-treatment
  - mh-treatment
  address:
    street: 211 Avenue M West
    city: Fort Dodge
    state: ia
    zip: '50501'
  place: '1928515'
  geo:
    lat: 42.4879
    lng: -94.20843
  phone: 515-576-7261
  website: https://www.cfrhelps.org
  sources:
  - samhsa/findtreatment
  verified:
    'on': '2026-07-19'
    method: api
- id: ia/fort-dodge/unitypoint-health-berryhill-center
  name: UnityPoint Health Berryhill Center
  categories:
  - su-treatment
  - mh-treatment
  address:
    street: 720 Kenyon Road
    city: Fort Dodge
    state: ia
    zip: '50501'
  place: '1928515'
  geo:
    lat: 42.4894
    lng: -94.19372
  phone: 515-955-7171
  website: https://www.unitypoint.org/locations/unitypoint-health---berryhill-center
  sources:
  - samhsa/findtreatment
  verified:
    'on': '2026-07-19'
    method: api
- id: ia/fort-dodge/ywca-of-fort-dodge
  name: YWCA of Fort Dodge
  categories:
  - su-treatment
  address:
    street: 826 1st Avenue North
    city: Fort Dodge
    state: ia
    zip: '50501'
  place: '1928515'
  geo:
    lat: 42.50651
    lng: -94.18678
  phone: 515-573-3931
  website: https://www.ywcafd.org
  sources:
  - samhsa/findtreatment
  verified:
    'on': '2026-07-19'
    method: api
