- id: ia/iowa-falls/hardin-county-family-resource-center
  name: Hardin County Family Resource Center
  categories:
  - child-care
  address: {street: 637 S Oak St, city: Iowa Falls, state: ia, zip: '50126'}
  description: Head Start early childhood program — 15 funded slots; operated by Mid-Iowa Community Action,
    Inc..
  place: '1938640'
  geo: {lat: 42.50885, lng: -93.26292}
  phone: 641-640-8759
  sources:
  - acf/head-start-locations
  verified: {'on': '2026-07-19', method: api}
- id: ia/iowa-falls/hardin-county-little-food-pantry
  name: Hardin County Little Food Pantry
  categories:
  - food-pantry
  place: '1938640'
  geo: {lat: 42.50946, lng: -93.26053}
  website: https://mapping.littlefreepantry.org/pantry/2791
  external_ids: {lfp: '2791'}
  sources:
  - littlefreepantry/map
  verified: {'on': '2026-07-19', method: scrape}
- id: ia/iowa-falls/mica-hardin-county
  name: MICA - Hardin County
  org: ia/food-bank-of-iowa
  categories:
  - food-pantry
  address: {street: 637 S Oak St, city: Iowa Falls, state: ia, zip: '50126'}
  place: '1938640'
  geo: {lat: 42.5089, lng: -93.26304}
  phone: 641-648-5036
  website: https://www.micaonline.org/services/nutrition/emergency-food/
  external_ids: {ia-food-bank-of-iowa: '154'}
  sources:
  - foodbank/ia-food-bank-of-iowa
  verified: {'on': '2026-07-21', method: api}
- id: ia/iowa-falls/mid-iowa-community-action-inc
  name: Mid-Iowa Community Action, Inc.
  categories:
  - utility-assistance
  description: LIHEAP intake office serving Hardin County
  address: {street: 637 South Oak Street, city: Iowa Falls, state: ia, zip: '50126'}
  place: '1938640'
  phone: 641-648-5036
  website: https://www.micaonline.org/
  sources:
  - acf/liheap-clearinghouse
  verified: {'on': '2026-07-19', method: scrape}
  geo: {lat: 42.50882, lng: -93.26245}
- id: ia/iowa-falls/pineview-elementary-school
  name: Pineview Elementary School
  categories:
  - meal-program
  address: {street: 1510 Washington Avenue, city: Iowa Falls, state: ia, zip: '50126'}
  description: Free summer meals for kids and teens (2026 season) — sponsored by Hansen Family Hospital
    Foundation.
  place: '1938640'
  geo: {lat: 42.51968, lng: -93.27753}
  phone: (641) 648-7151
  external_ids: {usda_master: Cycle 05_IA_SFSP_0139}
  sources:
  - usda/summer-meal-sites
  verified: {'on': '2026-07-19', method: api}
- id: ia/iowa-falls/the-ruth-project
  name: The Ruth Project
  org: ia/food-bank-of-iowa
  categories:
  - food-pantry
  address: {street: 415 College Ave, city: Iowa Falls, state: ia, zip: '50126'}
  place: '1938640'
  geo: {lat: 42.52106, lng: -93.26691}
  phone: 641-648-6617
  website: https://www.iowafallsopenbible.com/ruth-project
  external_ids: {ia-food-bank-of-iowa: '155'}
  sources:
  - foodbank/ia-food-bank-of-iowa
  verified: {'on': '2026-07-21', method: api}
