- id: ia/muscatine/community-health-care-inc-mcsa-muscatine
  name: Community Health Care, Inc. MCSA Muscatine
  categories:
  - community-health-center
  address:
    street: 312 Iowa Ave
    city: Muscatine
    state: ia
    zip: '52761'
  place: '1955110'
  geo:
    lat: 41.42261
    lng: -91.04722
  phone: 563-336-3000
  external_ids:
    bphc: BPS-H80-029818
  sources:
  - hrsa/health-center-sites
  verified:
    'on': '2026-07-19'
    method: api
- id: ia/muscatine/community-health-care-inc-muscatine-new-building
  name: Community Health Care, Inc. Muscatine New Building
  categories:
  - community-health-center
  address:
    street: 1221 Park Ave
    city: Muscatine
    state: ia
    zip: '52761'
  place: '1955110'
  geo:
    lat: 41.4394
    lng: -91.03011
  phone: 563-336-3000
  external_ids:
    bphc: BPS-H80-041040
  sources:
  - hrsa/health-center-sites
  verified:
    'on': '2026-07-19'
    method: api
- id: ia/muscatine/muscatine-head-start-and-early-head-start
  name: MUSCATINE HEAD START AND EARLY HEAD START
  categories:
  - child-care
  address:
    street: 148 Colorado St
    city: Muscatine
    state: ia
    zip: '52761'
  place: '1955110'
  geo:
    lat: 41.44257
    lng: -91.02657
  phone: 563-264-2026
  sources:
  - acf/head-start-locations
  verified:
    'on': '2026-07-19'
    method: api
- id: ia/muscatine/muscatine-municipal-housing-agency
  name: Muscatine Municipal Housing Agency
  categories:
  - housing-assistance
  address: {street: 215 Sycamore St, city: Muscatine, state: ia, zip: '52761'}
  description: Public housing and Housing Choice Voucher agency
  place: '1955110'
  geo: {lat: 41.42238, lng: -91.04483}
  phone: 563-264-1554
  sources:
  - hud/resource-locator
  verified: {'on': '2026-07-19', method: api}
- id: ia/muscatine/new-horizons-robert-young-center
  name: New Horizons Robert Young Center
  categories:
  - su-treatment
  address:
    street: 1605 Cedar Street
    city: Muscatine
    state: ia
    zip: '52761'
  place: '1955110'
  geo:
    lat: 41.43291
    lng: -91.05584
  phone: 563-264-9409
  website: https://www.unitypoint.org/quadcities/addictionsrecovery.aspx
  sources:
  - samhsa/findtreatment
  verified:
    'on': '2026-07-19'
    method: api
