- id: ia/norwalk/lee-pantry
  name: Lee Pantry
  categories:
  - food-pantry
  place: '1957675'
  geo: {lat: 41.47977, lng: -93.6631}
  website: https://mapping.littlefreepantry.org/pantry/1498
  external_ids: {lfp: '1498'}
  sources:
  - littlefreepantry/map
  verified: {'on': '2026-07-19', method: scrape}
- id: ia/norwalk/little-purple-pantry
  name: Little Purple Pantry
  categories:
  - food-pantry
  place: '1957675'
  geo: {lat: 41.49248, lng: -93.68114}
  website: https://mapping.littlefreepantry.org/pantry/1487
  external_ids: {lfp: '1487'}
  sources:
  - littlefreepantry/map
  verified: {'on': '2026-07-19', method: scrape}
- id: ia/norwalk/norwalk
  name: Norwalk
  categories:
  - child-care
  address: {street: 713 School Ave, city: Norwalk, state: ia, zip: '50211'}
  description: Head Start early childhood program — 15 funded slots; operated by Drake University Head
    Start.
  place: '1957675'
  geo: {lat: 41.47265, lng: -93.68015}
  phone: 515-271-1854
  sources:
  - acf/head-start-locations
  verified: {'on': '2026-07-19', method: api}
- id: ia/norwalk/norwalk-area-little-free-pantry
  name: Norwalk Area Little Free Pantry
  categories:
  - food-pantry
  place: '1957675'
  geo: {lat: 41.50001, lng: -93.6752}
  website: https://mapping.littlefreepantry.org/pantry/355
  external_ids: {lfp: '355'}
  sources:
  - littlefreepantry/map
  verified: {'on': '2026-07-19', method: scrape}
- id: ia/norwalk/norwalk-little-pantry
  name: Norwalk Little Pantry
  categories:
  - food-pantry
  place: '1957675'
  geo: {lat: 41.50484, lng: -93.67597}
  website: https://mapping.littlefreepantry.org/pantry/2213
  external_ids: {lfp: '2213'}
  sources:
  - littlefreepantry/map
  verified: {'on': '2026-07-19', method: scrape}
- id: ia/norwalk/the-little-purple-pantry
  name: The Little Purple Pantry
  categories:
  - food-pantry
  place: '1957675'
  geo: {lat: 41.49248, lng: -93.68122}
  website: https://mapping.littlefreepantry.org/pantry/3057
  external_ids: {lfp: '3057'}
  sources:
  - littlefreepantry/map
  verified: {'on': '2026-07-19', method: scrape}
