- id: ia/oskaloosa/first-resources-corporation-treatment-and-recove
  name: First Resources Corporation Treatment and Recovery Services
  categories:
  - su-treatment
  address:
    street: 117 1st Avenue West
    city: Oskaloosa
    state: ia
    zip: '52577'
  place: '1959925'
  geo:
    lat: 41.29453
    lng: -92.646
  phone: 641-682-8114
  website: https://www.firstresources.us
  sources:
  - samhsa/findtreatment
  verified:
    'on': '2026-07-19'
    method: api
- id: ia/oskaloosa/oskaloosa-municipal-housing-agency
  name: Oskaloosa Municipal Housing Agency
  categories:
  - housing-assistance
  address: {street: 108 1st Ave E, city: Oskaloosa, state: ia, zip: '52577'}
  description: Housing Choice Voucher (Section 8) agency
  place: '1959925'
  geo: {lat: 41.29427, lng: -92.64486}
  phone: 641-673-8361
  sources:
  - hud/resource-locator
  verified: {'on': '2026-07-19', method: api}
- id: ia/oskaloosa/rhchc-mahaska-county-clinic
  name: RHCHC Mahaska County Clinic
  categories:
  - community-health-center
  address:
    street: 1417 A Ave E
    city: Oskaloosa
    state: ia
    zip: '52577'
  place: '1959925'
  geo:
    lat: 41.29654
    lng: -92.62847
  phone: 641-673-7537
  external_ids:
    bphc: BPS-H80-030770
  sources:
  - hrsa/health-center-sites
  verified:
    'on': '2026-07-19'
    method: api
- id: ia/oskaloosa/rhchc-oskaloosa-elementary-school
  name: RHCHC Oskaloosa Elementary School
  categories:
  - community-health-center
  address:
    street: 1801 Orchard Ave
    city: Oskaloosa
    state: ia
    zip: '52577'
  place: '1959925'
  geo:
    lat: 41.30532
    lng: -92.66518
  phone: 641-673-8092
  external_ids:
    bphc: BPS-H80-039481
  sources:
  - hrsa/health-center-sites
  verified:
    'on': '2026-07-19'
    method: api
- id: ia/oskaloosa/rhchc-oskaloosa-high-school
  name: RHCHC Oskaloosa High School
  categories:
  - community-health-center
  address:
    street: 1816 N 3rd St
    city: Oskaloosa
    state: ia
    zip: '52577'
  place: '1959925'
  geo:
    lat: 41.30979
    lng: -92.64153
  phone: 641-673-3407
  external_ids:
    bphc: BPS-H80-039119
  sources:
  - hrsa/health-center-sites
  verified:
    'on': '2026-07-19'
    method: api
- id: ia/oskaloosa/rhchc-oskaloosa-middle-school
  name: RHCHC Oskaloosa Middle School
  categories:
  - community-health-center
  address:
    street: 1704 N 3rd St
    city: Oskaloosa
    state: ia
    zip: '52577'
  place: '1959925'
  geo:
    lat: 41.30824
    lng: -92.64153
  phone: 641-673-8308
  external_ids:
    bphc: BPS-H80-039475
  sources:
  - hrsa/health-center-sites
  verified:
    'on': '2026-07-19'
    method: api
- id: ia/oskaloosa/river-hills-community-health-center-mahaska
  name: River Hills Community Health Center Mahaska
  categories:
  - su-treatment
  - mh-treatment
  address:
    street: 1417 A Avenue East
    city: Oskaloosa
    state: ia
    zip: '52577'
  place: '1959925'
  geo:
    lat: 41.29653
    lng: -92.62833
  phone: 641-954-9971
  website: https://www.riverhillshealth.org
  sources:
  - samhsa/findtreatment
  verified:
    'on': '2026-07-19'
    method: api
- id: ia/oskaloosa/sieda-head-start-mahaska-co-center
  name: Sieda Head Start Mahaska Co. Center
  categories:
  - child-care
  address:
    street: 1521 Green St
    city: Oskaloosa
    state: ia
    zip: '52577'
  place: '1959925'
  geo:
    lat: 41.30871
    lng: -92.66518
  phone: 641-676-1632
  sources:
  - acf/head-start-locations
  verified:
    'on': '2026-07-19'
    method: api
- id: ia/oskaloosa/southern-iowa-economic-dev-association-sieda-beh
  name: Southern Iowa Economic Dev Association (SIEDA)/Behav Health and Trt Services
  categories:
  - su-treatment
  address:
    street: 114 North Market Street
    city: Oskaloosa
    state: ia
    zip: '52577'
  place: '1959925'
  geo:
    lat: 41.29585
    lng: -92.64473
  phone: 641-683-6747
  website: https://www.sieda.org
  sources:
  - samhsa/findtreatment
  verified:
    'on': '2026-07-19'
    method: api
- id: ia/oskaloosa/the-rock-s-blessing-box
  name: The Rock's Blessing Box
  categories:
  - food-pantry
  place: '1959925'
  geo:
    lat: 41.29297
    lng: -92.6393
  external_ids:
    lfp: '151'
  sources:
  - littlefreepantry/map
  verified:
    'on': '2026-07-19'
    method: scrape
