- id: ia/perry/inside-out-wellness-and-advocacy
  name: Inside Out Wellness and Advocacy
  categories:
  - su-treatment
  - mh-treatment
  address: {street: 410 12th Street, city: Perry, state: ia, zip: '50220'}
  place: '1962355'
  geo: {lat: 41.83279, lng: -94.09107}
  phone: 515-642-7070
  website: https://www.insideoutiowa.com/locations/perry
  services:
  - Outpatient
  - Residential/24-hour residential
  - Young adults
  eligibility: Serves children/adolescents, young adults, adults, seniors.
  cost: varies
  sources:
  - samhsa/findtreatment
  verified: {'on': '2026-07-19', method: api}
- id: ia/perry/mobile-pantry-dallas-county-hospital
  name: Mobile Pantry- Dallas County Hospital
  org: ia/food-bank-of-iowa
  categories:
  - food-pantry
  address: {street: 610 10th St, city: Perry, state: ia, zip: '50220'}
  place: '1962355'
  geo: {lat: 41.8334, lng: -94.09299}
  external_ids: {ia-food-bank-of-iowa: '49'}
  sources:
  - foodbank/ia-food-bank-of-iowa
  verified: {'on': '2026-07-21', method: api}
- id: ia/perry/mobile-pantry-perry-crossroads-church
  name: Mobile Pantry- Perry Crossroads Church
  org: ia/food-bank-of-iowa
  categories:
  - food-pantry
  address: {street: 2810 1st Ave, city: Perry, state: ia, zip: '50220'}
  place: '1962355'
  geo: {lat: 41.85966, lng: -94.10568}
  external_ids: {ia-food-bank-of-iowa: '50'}
  sources:
  - foodbank/ia-food-bank-of-iowa
  verified: {'on': '2026-07-21', method: api}
- id: ia/perry/new-opportunities-inc
  name: New Opportunities, Inc.
  categories:
  - utility-assistance
  description: LIHEAP intake office serving Dallas County
  address: {street: 1212 2nd St., city: Perry, state: ia, zip: '50220'}
  place: '1962355'
  phone: 515-465-5185
  website: http://www.newopp.org/
  sources:
  - acf/liheap-clearinghouse
  verified: {'on': '2026-07-19', method: scrape}
  geo: {lat: 41.83971, lng: -94.10509}
- id: ia/perry/north-dallas-early-head-start
  name: North Dallas Early Head Start
  categories:
  - child-care
  address: {street: 2816 1st Ave, city: Perry, state: ia, zip: '50220'}
  description: Head Start early childhood program — 32 funded slots; operated by New Opportunities, Incorporated.
  place: '1962355'
  geo: {lat: 41.85967, lng: -94.10557}
  sources:
  - acf/head-start-locations
  verified: {'on': '2026-07-19', method: api}
- id: ia/perry/north-dallas-head-start
  name: North Dallas Head Start
  categories:
  - child-care
  address: {street: 2816 1st Ave, street2: Crossroads Church, city: Perry, state: ia, zip: '50220'}
  description: Head Start early childhood program — 51 funded slots; operated by New Opportunities, Incorporated.
  place: '1962355'
  geo: {lat: 41.86, lng: -94.1062}
  phone: 515-465-5972
  sources:
  - acf/head-start-locations
  verified: {'on': '2026-07-19', method: api}
- id: ia/perry/perry-area-emergency-food-pantry
  name: Perry Area Emergency Food Pantry
  org: ia/food-bank-of-iowa
  categories:
  - food-pantry
  address: {street: 3000 E Willis Ave, city: Perry, state: ia, zip: '50220'}
  place: '1962355'
  geo: {lat: 41.83865, lng: -94.07604}
  phone: 515-570-2975
  website: https://www.perryfoodpantry.org/
  external_ids: {ia-food-bank-of-iowa: '103'}
  sources:
  - foodbank/ia-food-bank-of-iowa
  verified: {'on': '2026-07-21', method: api}
- id: ia/perry/perry-elementary-school
  name: Perry Elementary School
  categories:
  - meal-program
  address: {street: 1600 8Th Street, city: Perry, state: ia, zip: '50220'}
  description: Free summer meals for kids and teens (2026 season) — sponsored by Perry Comm School District.
  place: '1962355'
  geo: {lat: 41.84378, lng: -94.09687}
  phone: (515) 465-8558
  external_ids: {usda_master: Cycle 04_IA_SFSP_0112}
  sources:
  - usda/summer-meal-sites
  verified: {'on': '2026-07-19', method: api}
- id: ia/perry/zion-integrated-behav-health-services-perry
  name: ZION Integrated Behav Health Services Perry
  categories:
  - su-treatment
  address: {street: 1316 2nd Street, city: Perry, state: ia, zip: '50220'}
  place: '1962355'
  geo: {lat: 41.84117, lng: -94.10501}
  phone: 712-465-9310
  website: https://www.zioniowa.org
  services:
  - Outpatient
  - Intensive outpatient treatment
  - Regular outpatient treatment
  - Clients with co-occurring mental and substance use disorders
  eligibility: Serves children/adolescents, young adults, adults, seniors.
  cost: sliding-scale
  sources:
  - samhsa/findtreatment
  verified: {'on': '2026-07-19', method: api}
