- id: ga/brunswick/cch-glynn-county-employee-health
  name: CCH  -  Glynn County Employee Health
  categories:
  - community-health-center
  address:
    street: 2747 4th St
    city: Brunswick
    state: ga
    zip: '31520'
  place: '1311560'
  geo:
    lat: 31.18176
    lng: -81.4797
  phone: 912-289-2617
  website: https://www.coastalchs.org
  external_ids:
    bphc: BPS-H80-039610
  sources:
  - hrsa/health-center-sites
  verified:
    'on': '2026-07-19'
    method: api
- id: ga/brunswick/cchs-administration
  name: CCHS Administration
  categories:
  - community-health-center
  address:
    street: 100 Professional Center Dr
    city: Brunswick
    state: ga
    zip: '31525'
  place: '1311560'
  geo:
    lat: 31.2378
    lng: -81.4986
  phone: 912-275-8028
  website: https://www.coastalchs.org
  external_ids:
    bphc: BPS-H80-036191
  sources:
  - hrsa/health-center-sites
  verified:
    'on': '2026-07-19'
    method: api
- id: ga/brunswick/cchs-downtown-brunswick
  name: CCHS Downtown Brunswick
  categories:
  - community-health-center
  address:
    street: 1600 Ellis St
    city: Brunswick
    state: ga
    zip: '31520'
  place: '1311560'
  geo:
    lat: 31.15139
    lng: -81.49314
  phone: 912-289-2006
  website: https://www.coastalchs.org
  external_ids:
    bphc: BPS-H80-035210
  sources:
  - hrsa/health-center-sites
  verified:
    'on': '2026-07-19'
    method: api
- id: ga/brunswick/cchs-mobile-clinic
  name: CCHS Mobile Clinic
  categories:
  - community-health-center
  address:
    street: 106 Shoppers Way
    city: Brunswick
    state: ga
    zip: '31525'
  place: '1311560'
  geo:
    lat: 31.21926
    lng: -81.48713
  phone: 912-275-8028
  website: https://www.coastalchs.org
  external_ids:
    bphc: BPS-H80-031536
  sources:
  - hrsa/health-center-sites
  verified:
    'on': '2026-07-19'
    method: api
- id: ga/brunswick/coastal-community-behavioral-health
  name: Coastal Community Behavioral Health
  categories:
  - su-treatment
  address:
    street: 100 Cornerstone Drive
    city: Brunswick
    state: ga
    zip: '31523'
  place: '1311560'
  geo:
    lat: 31.2369
    lng: -81.53949
  phone: 912-262-0311 x1
  website: https://www.ccbhrecovery.com
  sources:
  - samhsa/findtreatment
  verified:
    'on': '2026-07-19'
    method: api
- id: ga/brunswick/coastal-community-health-services
  name: Coastal Community Health Services
  categories:
  - community-health-center
  address:
    street: 106 Shoppers Way
    city: Brunswick
    state: ga
    zip: '31525'
  place: '1311560'
  geo:
    lat: 31.21926
    lng: -81.48713
  phone: 912-275-8028
  website: https://www.coastalchs.org
  external_ids:
    bphc: BPS-H80-013664
  sources:
  - hrsa/health-center-sites
  verified:
    'on': '2026-07-19'
    method: api
- id: ga/brunswick/gateway-behavioral-health-services-glynn-behavio
  name: Gateway Behavioral Health Services Glynn Behavioral Health Crisis Center
  categories:
  - su-treatment
  address:
    street: 700 Coastal Village Drive
    city: Brunswick
    state: ga
    zip: '31520'
  place: '1311560'
  geo:
    lat: 31.22086
    lng: -81.49618
  phone: 912-554-8499
  website: https://www.gatewaycsb.org
  sources:
  - samhsa/findtreatment
  verified:
    'on': '2026-07-19'
    method: api
- id: ga/brunswick/gateway-behavioral-health-services-glynn-outpati
  name: Gateway Behavioral Health Services Glynn Outpatient Clinic
  categories:
  - su-treatment
  - mh-treatment
  address:
    street: 600 Coastal Village Drive
    city: Brunswick
    state: ga
    zip: '31520'
  place: '1311560'
  geo:
    lat: 31.22086
    lng: -81.49618
  phone: 912-554-8500
  website: https://www.gatewaycsb.org
  sources:
  - samhsa/findtreatment
  verified:
    'on': '2026-07-19'
    method: api
- id: ga/brunswick/glynn-head-start
  name: Glynn Head Start
  categories:
  - child-care
  address:
    street: 1 Community Action Dr - Suite D
    city: Brunswick
    state: ga
    zip: '31520'
  place: '1311560'
  geo:
    lat: 31.18217
    lng: -81.47876
  phone: 912-262-1400
  sources:
  - acf/head-start-locations
  verified:
    'on': '2026-07-19'
    method: api
- id: ga/brunswick/glynn-head-start-risley
  name: Glynn Head Start - Risley
  categories:
  - child-care
  address:
    street: 1405 H St
    city: Brunswick
    state: ga
    zip: '31520'
  place: '1311560'
  geo:
    lat: 31.15581
    lng: -81.49015
  sources:
  - acf/head-start-locations
  verified:
    'on': '2026-07-19'
    method: api
- id: ga/brunswick/housing-authority-of-the-city-of-brunswick
  name: Housing Authority Of The City Of Brunswick
  categories:
  - housing-assistance
  address: {street: 1126 Albany St, city: Brunswick, state: ga, zip: '31520'}
  description: Public housing and Housing Choice Voucher agency
  place: '1311560'
  geo: {lat: 31.14626, lng: -81.48768}
  phone: 912-265-1334
  sources:
  - hud/resource-locator
  verified: {'on': '2026-07-19', method: api}
