- id: ga/carrollton/cafi-carroll-county-head-start
  name: CAFI Carroll County Head Start
  categories:
  - child-care
  address:
    street: 619 Willie North St
    city: Carrollton
    state: ga
    zip: '30117'
  place: '1313492'
  geo:
    lat: 33.58472
    lng: -85.08993
  phone: 706-884-2651
  sources:
  - acf/head-start-locations
  verified:
    'on': '2026-07-19'
    method: api
- id: ga/carrollton/cafi-head-start-uwg
  name: CAFI Head Start @ UWG
  categories:
  - child-care
  address:
    street: 402 W Georgia Dr
    city: Carrollton
    state: ga
    zip: '30118'
  place: '1313492'
  geo:
    lat: 33.57228
    lng: -85.10393
  phone: 706-806-9006
  sources:
  - acf/head-start-locations
  verified:
    'on': '2026-07-19'
    method: api
- id: ga/carrollton/city-of-carrollton-little-free-pantry
  name: City of Carrollton Little Free Pantry
  categories:
  - food-pantry
  place: '1313492'
  geo:
    lat: 33.58011
    lng: -85.07661
  external_ids:
    lfp: '87'
  sources:
  - littlefreepantry/map
  verified:
    'on': '2026-07-19'
    method: scrape
- id: ga/carrollton/housing-authority-of-the-city-of-carrollton
  name: Housing Authority Of The City Of Carrollton
  categories:
  - housing-assistance
  address: {street: 1 Roop St, city: Carrollton, state: ga, zip: '30117'}
  description: Public housing and Housing Choice Voucher agency
  place: '1313492'
  geo: {lat: 33.56507, lng: -85.07313}
  phone: 770-834-2046
  sources:
  - hud/resource-locator
  verified: {'on': '2026-07-19', method: api}
- id: ga/carrollton/pathways-center-carroll-county-mhad
  name: Pathways Center Carroll County MHAD
  categories:
  - su-treatment
  - mh-treatment
  address:
    street: 153 Independence Drive
    city: Carrollton
    state: ga
    zip: '30116'
  place: '1313492'
  geo:
    lat: 33.56893
    lng: -85.04418
  phone: 770-836-6678
  website: https://www.pathwayscsb.org
  sources:
  - samhsa/findtreatment
  verified:
    'on': '2026-07-19'
    method: api
- id: ga/carrollton/westcare-georgia-youth-academy
  name: WestCare Georgia Youth Academy
  categories:
  - su-treatment
  address:
    street: 2385 Oak Grove Church Road
    city: Carrollton
    state: ga
    zip: '30117'
  place: '1313492'
  geo:
    lat: 33.513
    lng: -85.08604
  phone: 678-374-3319 x37201
  website: https://www.westcare.com
  sources:
  - samhsa/findtreatment
  verified:
    'on': '2026-07-19'
    method: api
- id: ga/carrollton/willowbrooke-at-tanner
  name: Willowbrooke at Tanner
  categories:
  - su-treatment
  - mh-treatment
  address:
    street: 101 Doctors Drive
    city: Carrollton
    state: ga
    zip: '30117'
  place: '1313492'
  geo:
    lat: 33.5679
    lng: -85.07427
  phone: 770-812-3266
  website: https://www.willowbrookeattanner.org
  sources:
  - samhsa/findtreatment
  verified:
    'on': '2026-07-19'
    method: api
- id: ga/carrollton/yourtown-health
  name: YourTown Health
  categories:
  - community-health-center
  address:
    street: 202 Croft St
    city: Carrollton
    state: ga
    zip: '30117'
  place: '1313492'
  geo:
    lat: 33.57404
    lng: -85.07361
  phone: 770-834-2255
  website: https://www.yourtownhealth.com
  external_ids:
    bphc: BPS-H80-008649
  sources:
  - hrsa/health-center-sites
  verified:
    'on': '2026-07-19'
    method: api
