- id: ga/columbus/benning-hills
  name: Benning Hills
  categories:
  - child-care
  address:
    street: 190 Munson Dr
    city: Columbus
    state: ga
    zip: '31903'
  place: '1319000'
  geo:
    lat: 32.41423
    lng: -84.9343
  phone: 706-223-3901
  sources:
  - acf/head-start-locations
  verified:
    'on': '2026-07-19'
    method: api
- id: ga/columbus/boxwood-place
  name: Boxwood Place
  categories:
  - child-care
  address:
    street: 1700 Boxwood Pl
    city: Columbus
    state: ga
    zip: '31906'
  place: '1319000'
  geo:
    lat: 32.47556
    lng: -84.94028
  phone: 706-660-5381
  sources:
  - acf/head-start-locations
  verified:
    'on': '2026-07-19'
    method: api
- id: ga/columbus/bradley-center-st-francis-emory-healthcare
  name: Bradley Center St Francis Emory Healthcare
  categories:
  - su-treatment
  - mh-treatment
  address:
    street: 2000 16th Avenue
    city: Columbus
    state: ga
    zip: '31901'
  place: '1319000'
  geo:
    lat: 32.48333
    lng: -84.96786
  phone: 706-320-3700
  website: https://www.mystfrancis.com
  sources:
  - samhsa/findtreatment
  verified:
    'on': '2026-07-19'
    method: api
- id: ga/columbus/cdc
  name: CDC
  categories:
  - child-care
  address:
    street: 2701 11th Ave
    city: Columbus
    state: ga
    zip: '31904'
  place: '1319000'
  geo:
    lat: 32.4885
    lng: -84.97838
  phone: 706-801-9428
  sources:
  - acf/head-start-locations
  verified:
    'on': '2026-07-19'
    method: api
- id: ga/columbus/child-development-center
  name: CHILD DEVELOPMENT CENTER
  categories:
  - child-care
  address:
    street: 2701 11th Ave
    city: Columbus
    state: ga
    zip: '31904'
  place: '1319000'
  geo:
    lat: 32.48859
    lng: -84.97848
  phone: 706-801-9428
  sources:
  - acf/head-start-locations
  verified:
    'on': '2026-07-19'
    method: api
- id: ga/columbus/childcare-network-farr-road
  name: CHILDCARE NETWORK FARR ROAD
  categories:
  - child-care
  address:
    street: 353 Farr Rd
    city: Columbus
    state: ga
    zip: '31907'
  place: '1319000'
  geo:
    lat: 32.44269
    lng: -84.92469
  phone: 706-649-1695
  sources:
  - acf/head-start-locations
  verified:
    'on': '2026-07-19'
    method: api
- id: ga/columbus/childcare-network-floyd-road
  name: CHILDCARE NETWORK FLOYD ROAD
  categories:
  - child-care
  address:
    street: 1810 Floyd Rd
    city: Columbus
    state: ga
    zip: '31907'
  place: '1319000'
  geo:
    lat: 32.47776
    lng: -84.89802
  phone: 706-568-6655
  sources:
  - acf/head-start-locations
  verified:
    'on': '2026-07-19'
    method: api
- id: ga/columbus/columbus-metro-treatment-center-metro-treatment
  name: Columbus Metro Treatment Center Metro Treatment of Georgia LP
  categories:
  - su-treatment
  address:
    street: 1135 13th Street
    city: Columbus
    state: ga
    zip: '31901'
  place: '1319000'
  geo:
    lat: 32.47074
    lng: -84.97585
  phone: 706-887-5030 x24805
  website: https://www.methadonetreatment.com
  sources:
  - samhsa/findtreatment
  verified:
    'on': '2026-07-19'
    method: api
- id: ga/columbus/columbus-tech
  name: Columbus Tech
  categories:
  - child-care
  address:
    street: 928 Manchester Expy
    city: Columbus
    state: ga
    zip: '31904'
  place: '1319000'
  geo:
    lat: 32.50766
    lng: -84.97818
  phone: 706-905-2914
  sources:
  - acf/head-start-locations
  verified:
    'on': '2026-07-19'
    method: api
- id: ga/columbus/columbus-technical-college
  name: Columbus Technical College
  categories:
  - child-care
  address:
    street: 928 Manchester Expy
    city: Columbus
    state: ga
    zip: '31904'
  place: '1319000'
  geo:
    lat: 32.50766
    lng: -84.97818
  phone: 706-329-0304
  sources:
  - acf/head-start-locations
  verified:
    'on': '2026-07-19'
    method: api
- id: ga/columbus/dorothy-height
  name: Dorothy Height
  categories:
  - child-care
  address:
    street: 1458 Benning Dr
    city: Columbus
    state: ga
    zip: '31903'
  place: '1319000'
  geo:
    lat: 32.42469
    lng: -84.94382
  phone: 706-683-8871
  sources:
  - acf/head-start-locations
  verified:
    'on': '2026-07-19'
    method: api
- id: ga/columbus/dorothy-height-elementary-school-sbhc
  name: Dorothy Height Elementary School SBHC
  categories:
  - community-health-center
  address:
    street: 1458 Benning Dr
    city: Columbus
    state: ga
    zip: '31903'
  place: '1319000'
  geo:
    lat: 32.4247
    lng: -84.94382
  phone: 706-322-9599
  website: https://www.valleyhealthcolumbus.com
  external_ids:
    bphc: BPS-H80-030095
  sources:
  - hrsa/health-center-sites
  verified:
    'on': '2026-07-19'
    method: api
- id: ga/columbus/edgewood
  name: Edgewood
  categories:
  - child-care
  address:
    street: 3835 Forrest Rd
    city: Columbus
    state: ga
    zip: '31907'
  place: '1319000'
  geo:
    lat: 32.48481
    lng: -84.92649
  phone: 706-649-1616
  sources:
  - acf/head-start-locations
  verified:
    'on': '2026-07-19'
    method: api
- id: ga/columbus/edgewood-child-development-center
  name: EDGEWOOD CHILD DEVELOPMENT CENTER
  categories:
  - child-care
  address:
    street: 3835 Forrest Rd
    city: Columbus
    state: ga
    zip: '31907'
  place: '1319000'
  geo:
    lat: 32.48486
    lng: -84.92639
  phone: 706-570-0855
  sources:
  - acf/head-start-locations
  verified:
    'on': '2026-07-19'
    method: api
- id: ga/columbus/forrest-rd
  name: Forrest Rd
  categories:
  - child-care
  address:
    street: 6400 Forrest Rd
    city: Columbus
    state: ga
    zip: '31907'
  place: '1319000'
  geo:
    lat: 32.48761
    lng: -84.88172
  phone: 706-565-3062
  sources:
  - acf/head-start-locations
  verified:
    'on': '2026-07-19'
    method: api
- id: ga/columbus/fort-benning-road-health-center
  name: Fort Benning Road Health Center
  categories:
  - community-health-center
  address:
    street: 1600 Fort Benning Rd
    city: Columbus
    state: ga
    zip: '31903'
  place: '1319000'
  geo:
    lat: 32.42417
    lng: -84.93727
  phone: 706-689-1331
  website: https://www.valleyhealthcolumbus.com
  external_ids:
    bphc: BPS-H80-010111
  sources:
  - hrsa/health-center-sites
  verified:
    'on': '2026-07-19'
    method: api
- id: ga/columbus/fox-elementary
  name: Fox Elementary
  categories:
  - child-care
  address:
    street: 600 38th St
    street2: Bldg C
    city: Columbus
    state: ga
    zip: '31904'
  place: '1319000'
  geo:
    lat: 32.4977
    lng: -84.985
  phone: 706-748-2723
  sources:
  - acf/head-start-locations
  verified:
    'on': '2026-07-19'
    method: api
- id: ga/columbus/generational-kids
  name: Generational Kids
  categories:
  - child-care
  address:
    street: 4352 Valley Rd
    city: Columbus
    state: ga
    zip: '31907'
  place: '1319000'
  geo:
    lat: 32.50644
    lng: -84.93336
  phone: 706-221-6070
  sources:
  - acf/head-start-locations
  verified:
    'on': '2026-07-19'
    method: api
- id: ga/columbus/georgia-hope
  name: Georgia HOPE
  categories:
  - su-treatment
  - mh-treatment
  address:
    street: 3228 University Avenue
    city: Columbus
    state: ga
    zip: '31907'
  place: '1319000'
  geo:
    lat: 32.49493
    lng: -84.93167
  phone: 706-279-0405
  website: https://www.gahope.org
  sources:
  - samhsa/findtreatment
  verified:
    'on': '2026-07-19'
    method: api
- id: ga/columbus/housing-authority-of-columbus-georgia
  name: Housing Authority Of Columbus, Georgia
  categories:
  - housing-assistance
  address: {street: 1000 Wynnton Rd, city: Columbus, state: ga, zip: '31906'}
  description: Public housing and Housing Choice Voucher agency
  place: '1319000'
  geo: {lat: 32.46551, lng: -84.9791}
  phone: 706-571-2800
  sources:
  - hud/resource-locator
  verified: {'on': '2026-07-19', method: api}
- id: ga/columbus/key-elementary
  name: Key Elementary
  categories:
  - child-care
  address:
    street: 2520 Broadmoor Dr
    city: Columbus
    state: ga
    zip: '31903'
  place: '1319000'
  geo:
    lat: 32.40974
    lng: -84.96832
  phone: 706-683-8797
  sources:
  - acf/head-start-locations
  verified:
    'on': '2026-07-19'
    method: api
- id: ga/columbus/lonnie-jackson-academy
  name: Lonnie Jackson Academy
  categories:
  - child-care
  address:
    street: 4601 Buena Vista Rd
    city: Columbus
    state: ga
    zip: '31907'
  place: '1319000'
  geo:
    lat: 32.46799
    lng: -84.91807
  phone: 706-565-3039
  sources:
  - acf/head-start-locations
  verified:
    'on': '2026-07-19'
    method: api
- id: ga/columbus/medical-rv
  name: Medical RV
  categories:
  - community-health-center
  address:
    street: 1600 Fort Benning Rd
    city: Columbus
    state: ga
    zip: '31903'
  place: '1319000'
  geo:
    lat: 32.42417
    lng: -84.93727
  phone: 706-987-8250
  external_ids:
    bphc: BPS-H80-038407
  sources:
  - hrsa/health-center-sites
  verified:
    'on': '2026-07-19'
    method: api
- id: ga/columbus/medmark-treatment-centers-columbus-north
  name: MedMark Treatment Centers Columbus North
  categories:
  - su-treatment
  address:
    street: 5617 Princeton Avenue
    city: Columbus
    state: ga
    zip: '31904'
  place: '1319000'
  geo:
    lat: 32.52399
    lng: -84.96184
  phone: 706-257-7722
  website: https://medmark.com/medmark-treatment-centers-columbus-north/
  sources:
  - samhsa/findtreatment
  verified:
    'on': '2026-07-19'
    method: api
- id: ga/columbus/midland-blessing-box
  name: Midland Blessing Box
  categories:
  - food-pantry
  place: '1319000'
  geo:
    lat: 32.47361
    lng: -84.94573
  external_ids:
    lfp: '5945'
  sources:
  - littlefreepantry/map
  verified:
    'on': '2026-07-19'
    method: scrape
- id: ga/columbus/midland-blessing-box-2
  name: Midland Blessing Box
  categories:
  - food-pantry
  place: '1319000'
  geo:
    lat: 32.52153
    lng: -84.88448
  external_ids:
    lfp: '5943'
  sources:
  - littlefreepantry/map
  verified:
    'on': '2026-07-19'
    method: scrape
- id: ga/columbus/mlk-elementary
  name: MLK Elementary
  categories:
  - child-care
  address:
    street: 1566 30th St
    city: Columbus
    state: ga
    zip: '31904'
  place: '1319000'
  geo:
    lat: 32.49255
    lng: -84.96809
  phone: 706-683-8815
  sources:
  - acf/head-start-locations
  verified:
    'on': '2026-07-19'
    method: api
- id: ga/columbus/muscogee-cdc
  name: Muscogee CDC
  categories:
  - child-care
  address:
    street: 3900 Baker Plaza Dr
    city: Columbus
    state: ga
    zip: '31903'
  place: '1319000'
  geo:
    lat: 32.43058
    lng: -84.93793
  phone: 706-649-0780
  sources:
  - acf/head-start-locations
  verified:
    'on': '2026-07-19'
    method: api
- id: ga/columbus/project-change-clubhouse-new-horizons-behavioral
  name: Project Change Clubhouse New Horizons Behavioral Health
  categories:
  - su-treatment
  address:
    street: 1727 Boxwood Place
    city: Columbus
    state: ga
    zip: '31906'
  place: '1319000'
  geo:
    lat: 32.47747
    lng: -84.94015
  phone: 706-569-0727
  website: https://nhbh.org
  sources:
  - samhsa/findtreatment
  verified:
    'on': '2026-07-19'
    method: api
- id: ga/columbus/richards-middle-school
  name: Richards Middle School
  categories:
  - community-health-center
  address:
    street: 2892 Edgewood Rd
    city: Columbus
    state: ga
    zip: '31906'
  place: '1319000'
  geo:
    lat: 32.49238
    lng: -84.947
  phone: 706-569-3697
  external_ids:
    bphc: BPS-H80-034256
  sources:
  - hrsa/health-center-sites
  verified:
    'on': '2026-07-19'
    method: api
- id: ga/columbus/va-healthcare-system-mental-health-clinic
  name: VA Healthcare System Mental Health Clinic
  categories:
  - su-treatment
  - mh-treatment
  address:
    street: 6910 River Road
    city: Columbus
    state: ga
    zip: '31904'
  place: '1319000'
  geo:
    lat: 32.54463
    lng: -84.99459
  phone: 706-257-7205
  website: https://www.va.gov/central-alabama-health-care/locations/robert-s-poydasheff-va-clinic/
  sources:
  - samhsa/findtreatment
  verified:
    'on': '2026-07-19'
    method: api
- id: ga/columbus/vhcs-mobile-dental-services
  name: VHCS Mobile Dental Services
  categories:
  - community-health-center
  address:
    street: 1600 Fort Benning Rd
    city: Columbus
    state: ga
    zip: '31903'
  place: '1319000'
  geo:
    lat: 32.42417
    lng: -84.93727
  phone: 706-987-8330
  website: https://www.valleyhealthcolumbus.com
  external_ids:
    bphc: BPS-H80-029764
  sources:
  - hrsa/health-center-sites
  verified:
    'on': '2026-07-19'
    method: api
