- id: ga/conyers/alliance-recovery-center-conyers
  name: Alliance Recovery Center Conyers
  categories:
  - su-treatment
  address:
    street: 3430 Highway 20 SE
    city: Conyers
    state: ga
    zip: '30013'
  place: '1319336'
  geo:
    lat: 33.59763
    lng: -84.01425
  phone: 770-922-4482
  website: https://www.alliancerecoverycenter.com
  sources:
  - samhsa/findtreatment
  verified:
    'on': '2026-07-19'
    method: api
- id: ga/conyers/atlanta-intervention-network-inc
  name: Atlanta Intervention Network Inc
  categories:
  - su-treatment
  address:
    street: 930 Green Street SW
    city: Conyers
    state: ga
    zip: '30012'
  place: '1319336'
  geo:
    lat: 33.66658
    lng: -84.01924
  phone: 770-713-8580
  website: https://www.atlantaintervention.com
  sources:
  - samhsa/findtreatment
  verified:
    'on': '2026-07-19'
    method: api
- id: ga/conyers/comprehensive-family-care
  name: Comprehensive Family Care
  categories:
  - su-treatment
  - mh-treatment
  address:
    street: 2055 Gees Mill Road NE
    city: Conyers
    state: ga
    zip: '30013'
  place: '1319336'
  geo:
    lat: 33.65096
    lng: -83.97769
  phone: 404-585-7533
  website: https://www.comprehensivefamilycare.org
  sources:
  - samhsa/findtreatment
  verified:
    'on': '2026-07-19'
    method: api
- id: ga/conyers/fieldstone-jewelry-and-pawn
  name: Fieldstone Jewelry and Pawn
  categories:
  - food-pantry
  place: '1319336'
  geo:
    lat: 33.63103
    lng: -83.96996
  external_ids:
    lfp: '4500'
  sources:
  - littlefreepantry/map
  verified:
    'on': '2026-07-19'
    method: scrape
- id: ga/conyers/housing-authority-of-the-city-of-conyers
  name: Housing Authority Of The City Of Conyers
  categories:
  - housing-assistance
  address: {street: 1214 Summer Cir NW, city: Conyers, state: ga, zip: '30012'}
  description: Public housing (Low-Rent) agency
  place: '1319336'
  geo: {lat: 33.67558, lng: -84.0262}
  phone: 770-483-9301
  sources:
  - hud/resource-locator
  verified: {'on': '2026-07-19', method: api}
- id: ga/conyers/medcura-rockdale
  name: MedCura Rockdale
  categories:
  - community-health-center
  address:
    street: 977 Taylor St SW
    city: Conyers
    state: ga
    zip: '30012'
  place: '1319336'
  geo:
    lat: 33.66495
    lng: -84.02503
  phone: 404-298-8998
  website: https://www.medcura.org
  external_ids:
    bphc: BPS-H80-011649
  sources:
  - hrsa/health-center-sites
  verified:
    'on': '2026-07-19'
    method: api
- id: ga/conyers/restoration-storehouse
  name: Restoration Storehouse
  categories:
  - child-care
  address:
    street: 1400 Parker Rd SE
    city: Conyers
    state: ga
    zip: '30094'
  place: '1319336'
  geo:
    lat: 33.65258
    lng: -84.01922
  phone: 470-653-2860
  sources:
  - acf/head-start-locations
  verified:
    'on': '2026-07-19'
    method: api
- id: ga/conyers/rockdale-house-for-men
  name: Rockdale House for Men
  categories:
  - su-treatment
  address:
    street: 1060 Scott Street SE
    city: Conyers
    state: ga
    zip: '30012'
  place: '1319336'
  geo:
    lat: 33.66252
    lng: -84.01641
  phone: 770-483-3984
  website: https://www.RockdaleHouse.com
  sources:
  - samhsa/findtreatment
  verified:
    'on': '2026-07-19'
    method: api
- id: ga/conyers/view-point-health-rockdale-outpatient-center
  name: View Point Health Rockdale Outpatient Center
  categories:
  - su-treatment
  - mh-treatment
  address:
    street: 977 Taylor Street SW
    city: Conyers
    state: ga
    zip: '30012'
  place: '1319336'
  geo:
    lat: 33.66481
    lng: -84.026
  phone: 678-209-2411
  website: https://www.myviewpointhealth.org
  sources:
  - samhsa/findtreatment
  verified:
    'on': '2026-07-19'
    method: api
- id: ga/conyers/west-circle
  name: West Circle
  categories:
  - child-care
  address:
    street: 780 West Cir SW
    city: Conyers
    state: ga
    zip: '30012'
  place: '1319336'
  geo:
    lat: 33.67017
    lng: -84.02554
  phone: 478-287-1676
  sources:
  - acf/head-start-locations
  verified:
    'on': '2026-07-19'
    method: api
