- id: ga/douglasville/burnette-elementary-school
  name: Burnette Elementary School
  categories:
  - child-care
  address:
    street: 8277 Connally Dr
    city: Douglasville
    state: ga
    zip: '30134'
  place: '1323900'
  geo:
    lat: 33.75476
    lng: -84.7294
  phone: 770-651-2000
  sources:
  - acf/head-start-locations
  verified:
    'on': '2026-07-19'
    method: api
- id: ga/douglasville/central-baptist-church
  name: Central Baptist Church
  categories:
  - food-pantry
  place: '1323900'
  geo:
    lat: 33.70217
    lng: -84.76591
  external_ids:
    lfp: '1970'
  sources:
  - littlefreepantry/map
  verified:
    'on': '2026-07-19'
    method: scrape
- id: ga/douglasville/douglas-county-head-start
  name: Douglas County Head Start
  categories:
  - child-care
  address:
    street: 3833 Longview Dr
    city: Douglasville
    state: ga
    zip: '30135'
  place: '1323900'
  geo:
    lat: 33.74455
    lng: -84.70093
  phone: 770-949-3717
  sources:
  - acf/head-start-locations
  verified:
    'on': '2026-07-19'
    method: api
- id: ga/douglasville/douglasville-first-umc
  name: Douglasville First UMC
  categories:
  - food-pantry
  place: '1323900'
  geo:
    lat: 33.73902
    lng: -84.73428
  external_ids:
    lfp: '4425'
  sources:
  - littlefreepantry/map
  verified:
    'on': '2026-07-19'
    method: scrape
- id: ga/douglasville/healing-community-center-douglasville
  name: HEALing Community Center - Douglasville
  categories:
  - community-health-center
  address:
    street: 3666 Highway 5, Suite 102
    city: Douglasville
    state: ga
    zip: '30135'
  place: '1323900'
  geo:
    lat: 33.70556
    lng: -84.77261
  phone: 404-564-7749
  external_ids:
    bphc: BPS-H80-035528
  sources:
  - hrsa/health-center-sites
  verified:
    'on': '2026-07-19'
    method: api
- id: ga/douglasville/healthqwest-douglasville
  name: HealthQwest Douglasville
  categories:
  - su-treatment
  address:
    street: 2109 Fairburn Road
    city: Douglasville
    state: ga
    zip: '30135'
  place: '1323900'
  geo:
    lat: 33.74636
    lng: -84.70161
  phone: 770-726-7958
  website: https://www.healthqwest.us
  sources:
  - samhsa/findtreatment
  verified:
    'on': '2026-07-19'
    method: api
- id: ga/douglasville/housing-authority-of-the-county-of-douglas
  name: Housing Authority Of The County Of Douglas
  categories:
  - housing-assistance
  address: {street: 8474 Pounds Cir, city: Douglasville, state: ga, zip: '30134'}
  description: Public housing (Low-Rent) agency
  place: '1323900'
  geo: {lat: 33.74951, lng: -84.75669}
  phone: 770-942-3121
  sources:
  - hud/resource-locator
  verified: {'on': '2026-07-19', method: api}
- id: ga/douglasville/loving-hands-ministry-1
  name: 'Loving Hands Ministry #1'
  categories:
  - food-pantry
  place: '1323900'
  geo:
    lat: 33.75167
    lng: -84.74487
  external_ids:
    lfp: '1560'
  sources:
  - littlefreepantry/map
  verified:
    'on': '2026-07-19'
    method: scrape
- id: ga/douglasville/sheltering-arms-longview-center-ehs
  name: Sheltering Arms Longview Center - EHS
  categories:
  - child-care
  address:
    street: 3833 Longview Dr
    city: Douglasville
    state: ga
    zip: '30135'
  place: '1323900'
  geo:
    lat: 33.74455
    lng: -84.70093
  phone: 770-949-3717
  sources:
  - acf/head-start-locations
  verified:
    'on': '2026-07-19'
    method: api
- id: ga/douglasville/the-family-health-center-at-douglas-county-schoo
  name: The Family Health Center at Douglas County Schools
  categories:
  - community-health-center
  address:
    street: 8277 Connally Dr
    city: Douglasville
    state: ga
    zip: '30134'
  place: '1323900'
  geo:
    lat: 33.75504
    lng: -84.72954
  phone: 770-651-2273
  website: https://fhcga.org
  external_ids:
    bphc: BPS-H80-019653
  sources:
  - hrsa/health-center-sites
  verified:
    'on': '2026-07-19'
    method: api
