- id: ga/fitzgerald/ben-hill-county-school-health-center
  name: Ben Hill County School Health Center
  categories:
  - community-health-center
  address:
    street: 134 Jc Hunter Rd
    city: Fitzgerald
    state: ga
    zip: '31750'
  place: '1329528'
  geo:
    lat: 31.76073
    lng: -83.25927
  phone: 229-409-5504
  external_ids:
    bphc: BPS-H80-035467
  sources:
  - hrsa/health-center-sites
  verified:
    'on': '2026-07-19'
    method: api
- id: ga/fitzgerald/ben-hill-head-start
  name: BEN HILL HEAD START
  categories:
  - child-care
  address:
    street: 410 E Altamaha St
    city: Fitzgerald
    state: ga
    zip: '31750'
  place: '1329528'
  geo:
    lat: 31.71849
    lng: -83.25015
  phone: 229-423-3191
  sources:
  - acf/head-start-locations
  verified:
    'on': '2026-07-19'
    method: api
- id: ga/fitzgerald/housing-authority-of-the-city-of-fitzgerald
  name: Housing Authority Of The City Of Fitzgerald
  categories:
  - housing-assistance
  address: {street: 314 S Sherman St, city: Fitzgerald, state: ga, zip: '31750'}
  description: Public housing (Low-Rent) agency
  place: '1329528'
  geo: {lat: 31.71162, lng: -83.25136}
  phone: 229-423-3755
  sources:
  - hud/resource-locator
  verified: {'on': '2026-07-19', method: api}
- id: ga/fitzgerald/hurricane-health-center-2
  name: 'Hurricane Health Center #2'
  categories:
  - community-health-center
  address:
    street: 553 Ocilla Hwy
    city: Fitzgerald
    state: ga
    zip: '31750'
  place: '1329528'
  geo:
    lat: 31.67239
    lng: -83.24315
  phone: 229-468-9166
  external_ids:
    bphc: BPS-H80-039865
  sources:
  - hrsa/health-center-sites
  verified:
    'on': '2026-07-19'
    method: api
- id: ga/fitzgerald/kid-s-health-fitzgerald
  name: Kid's Health - Fitzgerald
  categories:
  - community-health-center
  address:
    street: 299 Benjamin H Hill Dr SW
    city: Fitzgerald
    state: ga
    zip: '31750'
  place: '1329528'
  geo:
    lat: 31.69315
    lng: -83.26417
  phone: 229-423-5437
  external_ids:
    bphc: BPS-H80-035386
  sources:
  - hrsa/health-center-sites
  verified:
    'on': '2026-07-19'
    method: api
