- id: ga/fort-valley/careconnect-convenient-care
  name: CareConnect Convenient Care
  categories:
  - community-health-center
  address:
    street: 209 N Camellia Blvd
    city: Fort Valley
    state: ga
    zip: '31030'
  place: '1331096'
  geo:
    lat: 32.55673
    lng: -83.88519
  phone: 478-822-0054
  website: https://www.ccthealth.org
  external_ids:
    bphc: BPS-H80-021569
  sources:
  - hrsa/health-center-sites
  verified:
    'on': '2026-07-19'
    method: api
- id: ga/fort-valley/child-development-center
  name: Child Development Center
  categories:
  - child-care
  address:
    street: 1101 Carver Drive
    city: Fort Valley
    state: ga
    zip: '31030'
  place: '1331096'
  geo:
    lat: 32.53363
    lng: -83.89339
  phone: 478-825-6171
  sources:
  - acf/head-start-locations
  verified:
    'on': '2026-07-19'
    method: api
- id: ga/fort-valley/fort-valley
  name: FORT VALLEY
  categories:
  - child-care
  address:
    street: 700 Spruce St
    city: Fort Valley
    state: ga
    zip: '31030'
  place: '1331096'
  geo:
    lat: 32.5449
    lng: -83.88358
  phone: 478-825-8584
  sources:
  - acf/head-start-locations
  verified:
    'on': '2026-07-19'
    method: api
- id: ga/fort-valley/housing-authority-of-the-city-of-fort-valley
  name: Housing Authority Of The City Of Fort Valley
  categories:
  - housing-assistance
  address: {street: 108 Anderson Ave, city: Fort Valley, state: ga, zip: '31030'}
  description: Public housing (Low-Rent) agency
  place: '1331096'
  geo: {lat: 32.55444, lng: -83.88721}
  phone: 478-825-5056
  sources:
  - hud/resource-locator
  verified: {'on': '2026-07-19', method: api}
- id: ga/fort-valley/middle-flint-health-and-wellness-fort-valley-fam
  name: Middle Flint Health and Wellness Fort Valley Family Enrichment Center
  categories:
  - su-treatment
  - mh-treatment
  address:
    street: 410 East Church Street
    city: Fort Valley
    state: ga
    zip: '31030'
  place: '1331096'
  geo:
    lat: 32.55337
    lng: -83.88113
  phone: 478-825-2160
  website: https://www.middleflinthw.org
  sources:
  - samhsa/findtreatment
  verified:
    'on': '2026-07-19'
    method: api
