- id: ga/hahira/hahira-church-of-god
  name: Hahira Church of God
  org: ga/second-harvest-of-south-georgia
  categories:
  - food-pantry
  address: {street: 100 East Stanfill St., city: Hahira, state: ga}
  place: '1336052'
  geo: {lat: 30.99404, lng: -83.36963}
  phone: 912-309-3321
  sources:
  - foodbank/ga-second-harvest-of-south-georgia
  verified: {'on': '2026-07-21', method: scrape}
- id: ga/hahira/hahira-community-church
  name: Hahira Community Church
  org: ga/second-harvest-of-south-georgia
  categories:
  - food-pantry
  address: {street: 117 East Main Street, city: Hahira, state: ga}
  place: '1336052'
  geo: {lat: 30.99209, lng: -83.37077}
  phone: 229-237-3271
  sources:
  - foodbank/ga-second-harvest-of-south-georgia
  verified: {'on': '2026-07-21', method: scrape}
- id: ga/hahira/hahira-head-start
  name: HAHIRA HEAD START
  categories:
  - child-care
  address: {street: 809 Tillman St, city: Hahira, state: ga, zip: '31632'}
  description: Head Start early childhood program — 32 funded slots; operated by Coastal Plain Area Economic
    Opportunity Authority, Inc.
  place: '1336052'
  geo: {lat: 30.98194, lng: -83.36888}
  phone: 229-794-3310
  sources:
  - acf/head-start-locations
  verified: {'on': '2026-07-19', method: api}
- id: ga/hahira/housing-authority-of-the-city-of-hahira
  name: Housing Authority Of The City Of Hahira
  categories:
  - housing-assistance
  address: {street: 205C S West St, city: Hahira, state: ga, zip: '31632'}
  description: Public housing (Low-Rent) agency
  place: '1336052'
  geo: {lat: 30.98986, lng: -83.3707}
  phone: 229-686-9321
  sources:
  - hud/resource-locator
  verified: {'on': '2026-07-19', method: api}
- id: ga/hahira/newsome-street-church-of-christ
  name: Newsome Street Church of Christ
  org: ga/second-harvest-of-south-georgia
  categories:
  - food-pantry
  address: {street: 202 Newsome Street, city: Hahira, state: ga}
  place: '1336052'
  geo: {lat: 30.98875, lng: -83.37757}
  phone: 229-588-6111
  sources:
  - foodbank/ga-second-harvest-of-south-georgia
  verified: {'on': '2026-07-21', method: scrape}
