- id: ga/hartwell/georgia-mountains-community-services-avita-commu
  name: Georgia Mountains Community Services Avita Community Partners
  categories:
  - su-treatment
  - mh-treatment
  address:
    street: 228 North College Avenue
    city: Hartwell
    state: ga
    zip: '30643'
  place: '1337144'
  geo:
    lat: 34.35476
    lng: -82.92744
  phone: 706-376-4002
  website: https://www.avitapartners.org
  sources:
  - samhsa/findtreatment
  verified:
    'on': '2026-07-19'
    method: api
- id: ga/hartwell/hart-county-head-start-early-head-start
  name: Hart County Head Start/Early Head Start
  categories:
  - child-care
  address:
    street: 500 N Richardson St
    city: Hartwell
    state: ga
    zip: '30643'
  place: '1337144'
  geo:
    lat: 34.3598
    lng: -82.92693
  phone: 706-376-9355
  sources:
  - acf/head-start-locations
  verified:
    'on': '2026-07-19'
    method: api
- id: ga/hartwell/housing-authority-of-the-city-of-hartwell
  name: Housing Authority Of The City Of Hartwell
  categories:
  - housing-assistance
  address: {street: 116 W Franklin Pl, city: Hartwell, state: ga, zip: '30643'}
  description: Public housing (Low-Rent) agency
  place: '1337144'
  geo: {lat: 34.35767, lng: -82.94224}
  phone: 706-376-3153
  sources:
  - hud/resource-locator
  verified: {'on': '2026-07-19', method: api}
- id: ga/hartwell/medlink-hartwell
  name: MedLink Hartwell
  categories:
  - community-health-center
  address:
    street: 63 W Gibson St
    city: Hartwell
    state: ga
    zip: '30643'
  place: '1337144'
  geo:
    lat: 34.34517
    lng: -82.93878
  phone: 706-376-6100
  website: https://www.medlinkga.org
  external_ids:
    bphc: BPS-H80-002487
  sources:
  - hrsa/health-center-sites
  verified:
    'on': '2026-07-19'
    method: api
- id: ga/hartwell/medlink-hartwell-family-foot-care
  name: MedLink Hartwell Family Foot Care
  categories:
  - community-health-center
  address:
    street: 1087 E Franklin St
    city: Hartwell
    state: ga
    zip: '30643'
  place: '1337144'
  geo:
    lat: 34.35494
    lng: -82.91329
  phone: 706-376-9973
  external_ids:
    bphc: BPS-H80-034727
  sources:
  - hrsa/health-center-sites
  verified:
    'on': '2026-07-19'
    method: api
