- id: ga/hogansville/callaway-high-school
  name: Callaway High School
  categories:
  - meal-program
  address: {street: 221 Whitfield Rd, city: Hogansville, state: ga, zip: '30230'}
  description: Free summer meals for kids and teens (2026 season) — sponsored by Troup County.
  place: '1339244'
  geo: {lat: 33.0831, lng: -84.98033}
  phone: (706) 845-2072
  external_ids: {usda_master: Cycle 04_GA_SSO_0013}
  sources:
  - usda/summer-meal-sites
  verified: {'on': '2026-07-19', method: api}
- id: ga/hogansville/gods-bread-basket
  name: God’s Bread Basket
  org: ga/feeding-the-valley-food-bank
  categories:
  - food-pantry
  address: {street: 405 Church Street, city: Hogansville, state: ga, zip: '30230'}
  place: '1339244'
  geo: {lat: 33.17646, lng: -84.90502}
  phone: 706-575-4573
  hours:
  - {days: [thu], open: '09:00', close: '12:00'}
  external_ids: {ga-feeding-the-valley-food-bank: '5445'}
  sources:
  - foodbank/ga-feeding-the-valley-food-bank
  verified: {'on': '2026-07-20', method: api}
- id: ga/hogansville/hogansville-elementary-school
  name: Hogansville Elementary School
  categories:
  - meal-program
  address: {street: 611 E Main St, city: Hogansville, state: ga, zip: '30230'}
  description: Free summer meals for kids and teens (2026 season) — sponsored by Troup County.
  place: '1339244'
  geo: {lat: 33.1709, lng: -84.90822}
  phone: (706) 812-7995
  external_ids: {usda_master: Cycle 04_GA_SSO_0688}
  sources:
  - usda/summer-meal-sites
  verified: {'on': '2026-07-19', method: api}
- id: ga/hogansville/housing-authority-of-the-city-of-hogansville
  name: Housing Authority Of The City Of Hogansville
  categories:
  - housing-assistance
  address: {street: 200 W Boyd Rd, city: Hogansville, state: ga, zip: '30230'}
  description: Public housing (Low-Rent) agency
  place: '1339244'
  geo: {lat: 33.16481, lng: -84.91666}
  phone: 706-637-8153
  sources:
  - hud/resource-locator
  verified: {'on': '2026-07-19', method: api}
- id: ga/hogansville/mobile-route-2-non-congregate
  name: Mobile Route 2-Non-Congregate
  categories:
  - meal-program
  address: {street: 611 East Main Street, city: Hogansville, state: ga, zip: '30230'}
  description: Free summer meals for kids and teens (2026 season) — sponsored by Troup County.
  place: '1339244'
  geo: {lat: 33.1709, lng: -84.90822}
  phone: (706) 812-7995
  external_ids: {usda_master: Cycle 04_GA_SSO_0689}
  sources:
  - usda/summer-meal-sites
  verified: {'on': '2026-07-19', method: api}
- id: ga/hogansville/st-mary-umc-hogansville
  name: St. Mary UMC – Hogansville
  org: ga/feeding-the-valley-food-bank
  categories:
  - food-pantry
  address: {street: 100 Pine Street, city: Hogansville, state: ga, zip: '30230'}
  place: '1339244'
  geo: {lat: 33.17203, lng: -84.92148}
  phone: 706-594-0051
  external_ids: {ga-feeding-the-valley-food-bank: '5366'}
  sources:
  - foodbank/ga-feeding-the-valley-food-bank
  verified: {'on': '2026-07-20', method: api}
