- id: ga/kennesaw/chalker-elementary-school
  name: Chalker Elementary School
  categories:
  - meal-program
  address:
    street: 325 N Booth Rd Nw
    city: Kennesaw
    state: ga
    zip: '30144'
  description: Free summer meals for kids and teens (2026 season) — sponsored by Cobb County.
  place: '1343192'
  geo:
    lat: 34.04738
    lng: -84.56075
  phone: (770) 426-3380
  external_ids:
    usda_master: Cycle 04_GA_SSO_0589
  sources:
  - usda/summer-meal-sites
  verified:
    'on': '2026-07-19'
    method: api
- id: ga/kennesaw/kennesaw-mountain-high-school
  name: Kennesaw Mountain High School
  categories:
  - meal-program
  address:
    street: 1898 Kennesaw Due West Road
    city: Kennesaw
    state: ga
    zip: '30152'
  description: Free summer meals for kids and teens (2026 season) — sponsored by Georgia Educational Resources,
    Incorporated.
  place: '1343192'
  geo:
    lat: 34.00084
    lng: -84.62497
  phone: (678) 883-2340
  external_ids:
    usda_master: Cycle 05_GA_SFSP_0362
  sources:
  - usda/summer-meal-sites
  verified:
    'on': '2026-07-19'
    method: api
- id: ga/kennesaw/ksu-fast-start
  name: Ksu Fast Start
  categories:
  - meal-program
  address:
    street: 580 Parliament Garden Way
    city: Kennesaw
    state: ga
    zip: '30144'
  description: Free summer meals for kids and teens (2026 season) — sponsored by Marietta City.
  place: '1343192'
  geo:
    lat: 34.04013
    lng: -84.58062
  phone: (706) 424-5387
  external_ids:
    usda_master: Cycle 04_GA_SSO_0568
  sources:
  - usda/summer-meal-sites
  verified:
    'on': '2026-07-19'
    method: api
- id: ga/kennesaw/library-north-cobb-regional
  name: Library North Cobb Regional
  categories:
  - meal-program
  address:
    street: 3535 Old 41 Hwy Nw
    city: Kennesaw
    state: ga
    zip: '30144'
  description: Free summer meals for kids and teens (2026 season) — sponsored by Georgia Educational Resources,
    Incorporated.
  place: '1343192'
  geo:
    lat: 34.03976
    lng: -84.65226
  phone: (678) 883-2340
  external_ids:
    usda_master: Cycle 05_GA_SFSP_0357
  sources:
  - usda/summer-meal-sites
  verified:
    'on': '2026-07-19'
    method: api
- id: ga/kennesaw/miss-helens-little-free-pantry
  name: Miss Helens Little Free Pantry
  categories:
  - food-pantry
  place: '1343192'
  geo:
    lat: 34.02593
    lng: -84.61819
  external_ids:
    lfp: '3219'
  sources:
  - littlefreepantry/map
  verified:
    'on': '2026-07-19'
    method: scrape
- id: ga/kennesaw/patricia-hill-color-studio-side-porch-pantry
  name: Patricia Hill Color Studio Side Porch Pantry
  categories:
  - food-pantry
  place: '1343192'
  geo:
    lat: 34.02518
    lng: -84.61095
  external_ids:
    lfp: '4860'
  sources:
  - littlefreepantry/map
  verified:
    'on': '2026-07-19'
    method: scrape
- id: ga/kennesaw/vetsuccess-on-campus-at-kennesaw-state-universit
  name: VetSuccess on Campus at Kennesaw State University
  categories:
  - va-facility
  description: VetSuccess On Campus
  address:
    street: 420 Bartow Avenue, NW, Willingham Hall, Room 200
    city: Kennesaw
    state: ga
    zip: '30144'
  place: '1343192'
  geo:
    lat: 34.03887
    lng: -84.58473
  phone: 470-578-3644
  services:
  - ApplyingForBenefits
  - EducationAndCareerCounseling
  - EducationClaimAssistance
  - VocationalRehabilitationAndEmploymentAssistance
  external_ids:
    va: vba_316p
  sources:
  - va/facilities-api
  verified:
    'on': '2026-07-19'
    method: api
- id: ga/kennesaw/white-oak-pantry
  name: White Oak Pantry
  categories:
  - food-pantry
  place: '1343192'
  geo:
    lat: 34.02975
    lng: -84.61006
  external_ids:
    lfp: '3168'
  sources:
  - littlefreepantry/map
  verified:
    'on': '2026-07-19'
    method: scrape
