- id: ga/lafayette/gilbert-elementary-sbhc
  name: Gilbert Elementary SBHC
  categories:
  - community-health-center
  address:
    street: 87 S Burnt Mill Rd
    city: La Fayette
    state: ga
    zip: '30728'
  place: '1344312'
  geo:
    lat: 34.7011
    lng: -85.3069
  phone: 706-638-2432
  website: http://primaryhealthcarecenter.org/default.aspx
  external_ids:
    bphc: BPS-H80-015041
  sources:
  - hrsa/health-center-sites
  verified:
    'on': '2026-07-19'
    method: api
- id: ga/lafayette/healthy-kids-naomi
  name: Healthy Kids+ Naomi
  categories:
  - community-health-center
  address:
    street: 4038 E Highway 136
    city: La Fayette
    state: ga
    zip: '30728'
  place: '1344312'
  geo:
    lat: 34.69282
    lng: -85.21258
  phone: 706-638-2443
  external_ids:
    bphc: BPS-H80-040413
  sources:
  - hrsa/health-center-sites
  verified:
    'on': '2026-07-19'
    method: api
- id: ga/lafayette/housing-authority-of-the-city-of-lafayette
  name: Housing Authority Of The City Of Lafayette
  categories:
  - housing-assistance
  address: {street: 300 S Oak St, city: La Fayette, state: ga, zip: '30728'}
  description: Public housing (Low-Rent) agency
  place: '1344312'
  geo: {lat: 34.70483, lng: -85.2843}
  phone: 706-638-2733
  sources:
  - hud/resource-locator
  verified: {'on': '2026-07-19', method: api}
- id: ga/lafayette/primary-healthcare-center-abbington-at-linwood
  name: Primary Healthcare Center Abbington at Linwood
  categories:
  - community-health-center
  address:
    street: 10 Probasco St
    city: La Fayette
    state: ga
    zip: '30728'
  place: '1344312'
  geo:
    lat: 34.71095
    lng: -85.28905
  phone: 706-610-4494
  website: https://www.primaryhealthcarecenter.org
  external_ids:
    bphc: BPS-H80-031882
  sources:
  - hrsa/health-center-sites
  verified:
    'on': '2026-07-19'
    method: api
- id: ga/lafayette/south-walker-hs-ehs-pk
  name: SOUTH WALKER HS/EHS/PK
  categories:
  - child-care
  address:
    street: 3 Probasco St
    city: La Fayette
    state: ga
    zip: '30728'
  place: '1344312'
  geo:
    lat: 34.7094
    lng: -85.28829
  phone: 706-956-5244
  sources:
  - acf/head-start-locations
  verified:
    'on': '2026-07-19'
    method: api
