- id: ga/norcross/easter-seals
  name: Easter Seals
  categories:
  - child-care
  address:
    street: 4335 Steve Reynolds Blvd
    city: Norcross
    state: ga
    zip: '30093'
  place: '1355776'
  geo:
    lat: 33.92498
    lng: -84.148
  phone: 770-674-5797
  sources:
  - acf/head-start-locations
  verified:
    'on': '2026-07-19'
    method: api
- id: ga/norcross/four-corners-primary-care-centers
  name: Four Corners Primary Care Centers
  categories:
  - community-health-center
  address:
    street: 5300 Oakbrook Pkwy, Suite 130
    city: Norcross
    state: ga
    zip: '30093'
  place: '1355776'
  geo:
    lat: 33.91906
    lng: -84.17786
  phone: 770-806-2928
  website: https://www.fcpchealth.com
  external_ids:
    bphc: BPS-H80-017076
  sources:
  - hrsa/health-center-sites
  verified:
    'on': '2026-07-19'
    method: api
- id: ga/norcross/housing-authority-of-the-city-of-norcross
  name: Housing Authority Of The City Of Norcross
  categories:
  - housing-assistance
  address: {street: 19 Garner St, city: Norcross, state: ga, zip: '30071'}
  description: Public housing (Low-Rent) agency
  place: '1355776'
  geo: {lat: 33.93679, lng: -84.20407}
  phone: 770-448-3668
  sources:
  - hud/resource-locator
  verified: {'on': '2026-07-19', method: api}
- id: ga/norcross/murray-medical-and-wellness-center-norcross
  name: Murray Medical and Wellness Center Norcross
  categories:
  - su-treatment
  - mh-treatment
  address:
    street: 5750 Brook Hollow Parkway
    city: Norcross
    state: ga
    zip: '30071'
  place: '1355776'
  geo:
    lat: 33.91931
    lng: -84.19677
  phone: 770-559-8271
  website: https://www.murraymed.com
  sources:
  - samhsa/findtreatment
  verified:
    'on': '2026-07-19'
    method: api
- id: ga/norcross/murray-medical-and-wellness-center-peachtree-cor
  name: Murray Medical and Wellness Center Peachtree Corners
  categories:
  - su-treatment
  - mh-treatment
  address:
    street: 5245 Buford Highway
    city: Norcross
    state: ga
    zip: '30071'
  place: '1355776'
  geo:
    lat: 33.95068
    lng: -84.1977
  phone: 678-445-5995
  website: https://www.murraymed.com
  sources:
  - samhsa/findtreatment
  verified:
    'on': '2026-07-19'
    method: api
- id: ga/norcross/norcross-head-start
  name: Norcross Head Start
  categories:
  - child-care
  address:
    street: 5030 Georgia Belle Ct
    city: Norcross
    state: ga
    zip: '30093'
  place: '1355776'
  geo:
    lat: 33.92038
    lng: -84.16504
  phone: 770-225-5427
  sources:
  - acf/head-start-locations
  verified:
    'on': '2026-07-19'
    method: api
- id: ga/norcross/northview-wellness
  name: Northview Wellness
  categories:
  - su-treatment
  address:
    street: 3020 Holcomb Bridge Road
    city: Norcross
    state: ga
    zip: '30071'
  place: '1355776'
  geo:
    lat: 33.94689
    lng: -84.22611
  phone: 678-626-1868
  website: https://www.northviewwellness.com
  sources:
  - samhsa/findtreatment
  verified:
    'on': '2026-07-19'
    method: api
- id: ga/norcross/sheltering-arms-norcross-center-ehs
  name: Sheltering Arms Norcross Center - EHS
  categories:
  - child-care
  address:
    street: 5360 Old Norcross Rd
    city: Norcross
    state: ga
    zip: '30071'
  place: '1355776'
  geo:
    lat: 33.94658
    lng: -84.19957
  phone: 770-263-6595
  sources:
  - acf/head-start-locations
  verified:
    'on': '2026-07-19'
    method: api
- id: ga/norcross/southside-medical-center-norcross-clinic
  name: SOUTHSIDE MEDICAL CENTER - Norcross Clinic
  categories:
  - community-health-center
  address:
    street: 5127 Jimmy Carter Blvd
    city: Norcross
    state: ga
    zip: '30093'
  place: '1355776'
  geo:
    lat: 33.89881
    lng: -84.20137
  phone: 770-368-3845
  website: https://www.smcmed.com
  external_ids:
    bphc: BPS-H80-000750
  sources:
  - hrsa/health-center-sites
  verified:
    'on': '2026-07-19'
    method: api
