- id: ga/soperton/east-georgia-healthcare-center-inc
  name: East Georgia Healthcare Center, Inc.
  categories:
  - community-health-center
  address:
    street: 4357 E Louisiana Ave
    city: Soperton
    state: ga
    zip: '30457'
  place: '1371772'
  geo:
    lat: 32.37716
    lng: -82.5889
  phone: 478-488-4234
  website: https://www.eghc.org
  external_ids:
    bphc: BPS-H80-034725
  sources:
  - hrsa/health-center-sites
  verified:
    'on': '2026-07-19'
    method: api
- id: ga/soperton/housing-authority-of-the-city-of-soperton
  name: Housing Authority Of The City Of Soperton
  categories:
  - housing-assistance
  address:
    street: 700 Eastman Rd
    city: Soperton
    state: ga
    zip: '30457'
  description: Public housing (Low-Rent) agency
  place: '1371772'
  geo:
    lat: 32.37455
    lng: -82.60035
  phone: 912-529-4596
  sources:
  - hud/resource-locator
  verified:
    'on': '2026-07-19'
    method: api
- id: ga/soperton/mobile-non-congregate
  name: Mobile Non Congregate
  categories:
  - meal-program
  address: {street: Mobile Route Non Congregte, city: Soperton, state: ga, zip: '30457'}
  description: Free summer meals for kids and teens (2026 season) — sponsored by Treutlen County.
  place: '1371772'
  geo: {lat: 32.38312, lng: -82.58424}
  phone: (912) 529-7109
  external_ids: {usda_master: Cycle 04_GA_SSO_0435}
  sources:
  - usda/summer-meal-sites
  verified: {'on': '2026-07-19', method: api}
- id: ga/soperton/treutlen
  name: TREUTLEN
  categories:
  - child-care
  address:
    street: 1062 Jennings Ln
    city: Soperton
    state: ga
    zip: '30457'
  place: '1371772'
  geo:
    lat: 32.38405
    lng: -82.5887
  phone: 912-529-3774
  sources:
  - acf/head-start-locations
  verified:
    'on': '2026-07-19'
    method: api
- id: ga/soperton/treutlen-county-elementary-and-middle-high-schoo
  name: Treutlen County Elementary and Middle/High School
  categories:
  - community-health-center
  address:
    street: 7892 GA Highway 29
    city: Soperton
    state: ga
    zip: '30457'
  place: '1371772'
  geo:
    lat: 32.41265
    lng: -82.64042
  phone: 478-237-6262
  website: https://eghc.org
  external_ids:
    bphc: BPS-H80-037463
  sources:
  - hrsa/health-center-sites
  verified:
    'on': '2026-07-19'
    method: api
- id: ga/soperton/treutlen-middle-high-school
  name: Treutlen Middle/High School
  categories:
  - meal-program
  address: {street: 7892 Ga Highway 29, city: Soperton, state: ga, zip: '30457'}
  description: Free summer meals for kids and teens (2026 season) — sponsored by Treutlen County.
  place: '1371772'
  geo: {lat: 32.40953, lng: -82.64287}
  phone: (912) 529-7144
  external_ids: {usda_master: Cycle 04_GA_SSO_0434}
  sources:
  - usda/summer-meal-sites
  verified: {'on': '2026-07-19', method: api}
