- id: ga/sparta/community-health-care-systems-inc-hancock-school
  name: Community Health Care Systems, Inc. - Hancock School
  categories:
  - community-health-center
  address:
    street: 11145 GA Highway 15
    city: Sparta
    state: ga
    zip: '31087'
  place: '1372584'
  geo:
    lat: 33.29776
    lng: -82.96901
  phone: 706-444-5241
  website: https://www.chcsga.org
  external_ids:
    bphc: BPS-H80-040969
  sources:
  - hrsa/health-center-sites
  verified:
    'on': '2026-07-19'
    method: api
- id: ga/sparta/hancock-county-early-head-start
  name: Hancock County Early Head Start
  categories:
  - child-care
  address:
    street: 79 Boland Cir
    city: Sparta
    state: ga
    zip: '31087'
  place: '1372584'
  geo:
    lat: 33.27694
    lng: -82.97332
  phone: 706-444-7239
  sources:
  - acf/head-start-locations
  verified:
    'on': '2026-07-19'
    method: api
- id: ga/sparta/hancock-county-head-start-pre-k-m-e-lewis-elemen
  name: Hancock County Head Start/Pre-K (M.E. Lewis Elementary)
  categories:
  - child-care
  address:
    street: 11145 GA Highway 15
    city: Sparta
    state: ga
    zip: '31087'
  place: '1372584'
  geo:
    lat: 33.29758
    lng: -82.96891
  phone: 706-444-6652
  sources:
  - acf/head-start-locations
  verified:
    'on': '2026-07-19'
    method: api
- id: ga/sparta/housing-authority-of-the-city-of-sparta
  name: Housing Authority Of The City Of Sparta
  categories:
  - housing-assistance
  address: {street: 52 Dyer Dr, city: Sparta, state: ga, zip: '31087'}
  description: Public housing (Low-Rent) agency
  place: '1372584'
  geo: {lat: 33.28415, lng: -82.9719}
  phone: 706-444-0650
  sources:
  - hud/resource-locator
  verified: {'on': '2026-07-19', method: api}
- id: ga/sparta/tricounty-health-system-sparta
  name: TriCounty Health System - Sparta
  categories:
  - community-health-center
  address:
    street: 675 Hamilton St
    city: Sparta
    state: ga
    zip: '31087'
  place: '1372584'
  geo:
    lat: 33.27779
    lng: -82.97265
  phone: 706-444-5241
  website: https://www.chcsga.org
  external_ids:
    bphc: BPS-H80-014198
  sources:
  - hrsa/health-center-sites
  verified:
    'on': '2026-07-19'
    method: api
