- id: ga/sylvester/careconnect-convenient-care
  name: CareConnect Convenient Care
  categories:
  - community-health-center
  cost: sliding-scale
  address: {street: 615 E Franklin St, city: Sylvester, state: ga, zip: '31791'}
  place: '1375188'
  geo: {lat: 31.53048, lng: -83.82697}
  phone: 229-777-5156
  external_ids: {bphc: BPS-H80-040534}
  sources:
  - hrsa/health-center-sites
  verified: {'on': '2026-07-19', method: api}
- id: ga/sylvester/family-visions-outreach-inc
  name: Family Visions Outreach, Inc.
  org: ga/second-harvest-of-south-georgia
  categories:
  - food-pantry
  address: {street: 601 West Price Street, city: Sylvester, state: ga}
  place: '1375188'
  geo: {lat: 31.53525, lng: -83.84431}
  phone: 229-347-0518
  sources:
  - foodbank/ga-second-harvest-of-south-georgia
  verified: {'on': '2026-07-21', method: scrape}
- id: ga/sylvester/first-african-baptist-church
  name: First African Baptist Church
  org: ga/second-harvest-of-south-georgia
  categories:
  - food-pantry
  address: {street: 606 West Pope Street, city: Sylvester, state: ga}
  place: '1375188'
  geo: {lat: 31.52964, lng: -83.84492}
  phone: 229-272-6900
  sources:
  - foodbank/ga-second-harvest-of-south-georgia
  verified: {'on': '2026-07-21', method: scrape}
- id: ga/sylvester/housing-authority-of-the-city-of-sylvester
  name: Housing Authority Of The City Of Sylvester
  categories:
  - housing-assistance
  address: {street: 411 N Jefferson St, city: Sylvester, state: ga, zip: '31791'}
  description: Public housing (Low-Rent) agency
  place: '1375188'
  geo: {lat: 31.53297, lng: -83.84295}
  phone: 229-776-7621
  sources:
  - hud/resource-locator
  verified: {'on': '2026-07-19', method: api}
- id: ga/sylvester/jones-chapel-a-m-e-church
  name: Jones Chapel A.M.E. Church
  org: ga/second-harvest-of-south-georgia
  categories:
  - food-pantry
  address: {street: 317 Railroad Street, city: Sylvester, state: ga}
  place: '1375188'
  geo: {lat: 31.52711, lng: -83.84185}
  phone: 229-776-2600
  sources:
  - foodbank/ga-second-harvest-of-south-georgia
  verified: {'on': '2026-07-21', method: scrape}
- id: ga/sylvester/pinson-memorial-united-methodist-church
  name: Pinson Memorial United Methodist Church
  org: ga/second-harvest-of-south-georgia
  categories:
  - food-pantry
  address: {street: 109 East Pope Street, city: Sylvester, state: ga}
  place: '1375188'
  geo: {lat: 31.52942, lng: -83.83573}
  phone: 229-776-3358
  sources:
  - foodbank/ga-second-harvest-of-south-georgia
  verified: {'on': '2026-07-21', method: scrape}
- id: ga/sylvester/southwest-georgia-community-action-council-inc
  name: Southwest Georgia Community Action Council Inc.
  categories:
  - utility-assistance
  description: LIHEAP intake office serving Worth County
  address: {street: 504 East Price St., city: Sylvester, state: ga, zip: '31791'}
  place: '1375188'
  phone: 229-776-4851
  website: http://www.swgacac.com/
  sources:
  - acf/liheap-clearinghouse
  verified: {'on': '2026-07-19', method: scrape}
  geo: {lat: 31.53477, lng: -83.8301}
- id: ga/sylvester/worth-county-child-development-center
  name: Worth County Child Development Center
  categories:
  - child-care
  address: {street: 504 E Price St, city: Sylvester, state: ga, zip: '31791'}
  description: Head Start early childhood program — 102 funded slots; operated by SOUTHWEST GEORGIA COMMUNITY
    ACTION COUNCIL, INC.
  place: '1375188'
  geo: {lat: 31.53482, lng: -83.83015}
  phone: 229-776-5081
  sources:
  - acf/head-start-locations
  verified: {'on': '2026-07-19', method: api}
