- id: ga/toccoa/avita-community-partners-toccoa-service-center
  name: Avita Community Partners Toccoa Service Center
  categories:
  - su-treatment
  - mh-treatment
  address:
    street: 61 Boulevard Street
    city: Toccoa
    state: ga
    zip: '30577'
  place: '1376756'
  geo:
    lat: 34.58137
    lng: -83.3155
  phone: 706-282-4542
  website: https://www.avitapartners.org
  sources:
  - samhsa/findtreatment
  verified:
    'on': '2026-07-19'
    method: api
- id: ga/toccoa/center-for-wellness-and-recovery-of-ne
  name: Center for Wellness and Recovery of NE
  categories:
  - su-treatment
  address:
    street: 467 West Doyle Street
    city: Toccoa
    state: ga
    zip: '30577'
  place: '1376756'
  geo:
    lat: 34.57921
    lng: -83.33749
  phone: 706-886-4673
  website: https://www.wellnessandrecoverycenter.com
  sources:
  - samhsa/findtreatment
  verified:
    'on': '2026-07-19'
    method: api
- id: ga/toccoa/medlink-toccoa
  name: MedLink Toccoa
  categories:
  - community-health-center
  address:
    street: 711 Rose Ln
    city: Toccoa
    state: ga
    zip: '30577'
  place: '1376756'
  geo:
    lat: 34.55565
    lng: -83.29907
  phone: 706-886-9441
  external_ids:
    bphc: BPS-H80-034482
  sources:
  - hrsa/health-center-sites
  verified:
    'on': '2026-07-19'
    method: api
- id: ga/toccoa/northeast-georgia-housing-authority
  name: Northeast Georgia Housing Authority
  categories:
  - housing-assistance
  address: {street: 437 S Pond St, city: Toccoa, state: ga, zip: '30577'}
  description: Public housing (Low-Rent) agency
  place: '1376756'
  geo: {lat: 34.5751, lng: -83.32779}
  phone: 706-886-9455
  sources:
  - hud/resource-locator
  verified: {'on': '2026-07-19', method: api}
- id: ga/toccoa/pittard-clinic
  name: Pittard Clinic
  categories:
  - su-treatment
  address:
    street: 1654 Falls Road
    city: Toccoa
    state: ga
    zip: '30577'
  place: '1376756'
  geo:
    lat: 34.60378
    lng: -83.35177
  phone: 706-886-4420
  website: https://www.pittardclinic.com
  sources:
  - samhsa/findtreatment
  verified:
    'on': '2026-07-19'
    method: api
- id: ga/toccoa/stephens-county-head-start
  name: Stephens County Head Start
  categories:
  - child-care
  address:
    street: 176 S Broad St
    city: Toccoa
    state: ga
    zip: '30577'
  place: '1376756'
  geo:
    lat: 34.57768
    lng: -83.33309
  phone: 706-886-7675
  sources:
  - acf/head-start-locations
  verified:
    'on': '2026-07-19'
    method: api
