- id: ga/union-city/big-brothers-of-the-south
  name: Big Brothers Of The South
  categories:
  - meal-program
  address: {street: 6703 Shannon Parkway, city: Union City, state: ga, zip: '30291'}
  description: Free summer meals for kids and teens (2026 season) — sponsored by Free Spirit Social Club,
    Inc..
  place: '1378324'
  geo: {lat: 33.57286, lng: -84.53935}
  phone: (404) 637-0832
  external_ids: {usda_master: Cycle 05_GA_SFSP_0460}
  sources:
  - usda/summer-meal-sites
  verified: {'on': '2026-07-19', method: api}
- id: ga/union-city/colibri-reads-little-free-library-pantry
  name: Colibri Reads Little Free Library & Pantry
  categories:
  - food-pantry
  place: '1378324'
  geo:
    lat: 33.58402
    lng: -84.56279
  external_ids:
    lfp: '5223'
  sources:
  - littlefreepantry/map
  verified:
    'on': '2026-07-19'
    method: scrape
- id: ga/union-city/gullatt-elementary-school
  name: Gullatt Elementary School
  categories:
  - meal-program
  address: {street: 6110 Dodson Rd, city: Union City, state: ga, zip: '30291'}
  description: Free summer meals for kids and teens (2026 season) — sponsored by Fulton County.
  place: '1378324'
  geo: {lat: 33.58812, lng: -84.54017}
  phone: (470) 254-2207
  external_ids: {usda_master: Cycle 04_GA_SSO_0333}
  sources:
  - usda/summer-meal-sites
  verified: {'on': '2026-07-19', method: api}
- id: ga/union-city/union-city-parks-and-rec
  name: Union City Parks And Rec
  categories:
  - meal-program
  address: {street: 6280 Bryant Street, city: Union City, state: ga, zip: '30291'}
  description: Free summer meals for kids and teens (2026 season) — sponsored by Wayward Homes Inc.
  place: '1378324'
  geo: {lat: 33.58395, lng: -84.5539}
  phone: (470) 652-5573
  external_ids: {usda_master: Cycle 05_GA_SFSP_0316}
  sources:
  - usda/summer-meal-sites
  verified: {'on': '2026-07-19', method: api}
- id: ga/union-city/union-landing
  name: Union Landing
  categories:
  - meal-program
  address: {street: 4712 Flat Shoals Rd, city: Union City, state: ga, zip: '30291'}
  description: Free summer meals for kids and teens (2026 season) — sponsored by City of Atlanta - Vended.
  place: '1378324'
  geo: {lat: 33.58401, lng: -84.54273}
  phone: (404) 641-0278
  external_ids: {usda_master: Cycle 05_GA_SFSP_0058}
  sources:
  - usda/summer-meal-sites
  verified: {'on': '2026-07-19', method: api}
