- id: ga/wrightsville/community-health-care-systems-inc
  name: COMMUNITY HEALTH CARE SYSTEMS, INC.
  categories:
  - community-health-center
  address:
    street: 2251 W Elm St
    city: Wrightsville
    state: ga
    zip: '31096'
  place: '1384512'
  geo:
    lat: 32.72935
    lng: -82.7298
  phone: 478-864-2600
  website: https://www.chcsga.org
  external_ids:
    bphc: BPS-H80-004922
  sources:
  - hrsa/health-center-sites
  verified:
    'on': '2026-07-19'
    method: api
- id: ga/wrightsville/community-health-care-systems-inc-johnson-county
  name: Community Health Care Systems, Inc. Johnson County Schools
  categories:
  - community-health-center
  address:
    street: 2160 W Elm St
    city: Wrightsville
    state: ga
    zip: '31096'
  place: '1384512'
  geo:
    lat: 32.72827
    lng: -82.73299
  phone: 478-864-2600
  website: https://www.chcsga.org
  external_ids:
    bphc: BPS-H80-018194
  sources:
  - hrsa/health-center-sites
  verified:
    'on': '2026-07-19'
    method: api
- id: ga/wrightsville/housing-authority-of-the-city-of-wrightsville
  name: Housing Authority Of The City Of Wrightsville
  categories:
  - housing-assistance
  address:
    street: 100 Fulghum Dr
    city: Wrightsville
    state: ga
    zip: '31096'
  description: Public housing (Low-Rent) agency
  place: '1384512'
  geo:
    lat: 32.72706
    lng: -82.73011
  phone: 478-864-2033
  sources:
  - hud/resource-locator
  verified:
    'on': '2026-07-19'
    method: api
- id: ga/wrightsville/jces-bgc
  name: Jces Bgc
  categories:
  - meal-program
  address:
    street: 2160 West Elm Street
    city: Wrightsville
    state: ga
    zip: '31096'
  description: Free summer meals for kids and teens (2026 season) — sponsored by Johnson County.
  place: '1384512'
  geo:
    lat: 32.72828
    lng: -82.73311
  phone: (478) 864-2030
  external_ids:
    usda_master: Cycle 03_GA_SSO_0085
  sources:
  - usda/summer-meal-sites
  verified:
    'on': '2026-07-19'
    method: api
- id: ga/wrightsville/johnson-county
  name: Johnson County
  categories:
  - child-care
  address:
    street: 80 Oglethorpe St
    city: Wrightsville
    state: ga
    zip: '31096'
  place: '1384512'
  geo:
    lat: 32.72133
    lng: -82.72459
  phone: 478-864-1400
  sources:
  - acf/head-start-locations
  verified:
    'on': '2026-07-19'
    method: api
- id: ga/wrightsville/non-congregate-curb-side-pickup
  name: Non Congregate Curb Side Pickup
  categories:
  - meal-program
  address:
    street: 150 Hershel Walker Drive
    city: Wrightsville
    state: ga
    zip: '31096'
  description: Free summer meals for kids and teens (2026 season) — sponsored by Johnson County.
  place: '1384512'
  geo:
    lat: 32.72572
    lng: -82.72851
  phone: (478) 864-2030
  external_ids:
    usda_master: Cycle 04_GA_SSO_1108
  sources:
  - usda/summer-meal-sites
  verified:
    'on': '2026-07-19'
    method: api
