- id: mi/adrian/adrian-corps
  name: Adrian Corps
  categories:
  - seniors
  - utility-assistance
  - financial
  - food-pantry
  - family-youth
  description: Salvation Army community center
  address: {street: 217 W. Church St., city: Adrian, state: mi, zip: '49221'}
  geo: {lat: 41.89799, lng: -84.039}
  place: '2600440'
  phone: 517-265-2038
  website: https://www.salvationarmyusa.org/mi/adrian/w-church-st-corps/
  services:
  - Adult Program Services
  - Worship and Spiritual Programs
  - Senior Services
  - Utility Rent Assistance
  - Giving Back
  - Holiday Giving
  - Poverty
  - Hunger
  - Disaster Relief
  - Youth Services
  - Thrift Stores
  external_ids: {gdos: 402818763d5b8722013d5b8d6a410177}
  sources:
  - salvationarmy/location-finder
  verified: {'on': '2026-07-20', method: api}
- id: mi/adrian/adrian-first-church-of-the-nazarene
  name: Adrian First Church of the Nazarene
  org: mi/south-michigan-food-bank
  categories:
  - food-pantry
  address: {street: 50 Industrial Drive, city: Adrian, state: mi, zip: '49221'}
  place: '2600440'
  phone: 517-263-1579
  sources:
  - foodbank/mi-south-michigan-food-bank
  verified: {'on': '2026-07-21', method: scrape}
  geo: {lat: 41.89839, lng: -84.06855}
- id: mi/adrian/adrian-first-united-methodist-church-little-free
  name: Adrian First United Methodist Church Little Free Pantry
  categories:
  - food-pantry
  place: '2600440'
  geo: {lat: 41.9044, lng: -84.0594}
  website: https://mapping.littlefreepantry.org/pantry/3185
  external_ids: {lfp: '3185'}
  sources:
  - littlefreepantry/map
  verified: {'on': '2026-07-19', method: scrape}
- id: mi/adrian/adrian-high-school
  name: Adrian High School
  categories:
  - community-health-center
  cost: sliding-scale
  address: {street: 785 Riverside Ave, city: Adrian, state: mi, zip: '49221'}
  place: '2600440'
  geo: {lat: 41.91041, lng: -84.04771}
  phone: 517-263-1800
  external_ids: {bphc: BPS-H80-039195}
  sources:
  - hrsa/health-center-sites
  verified: {'on': '2026-07-19', method: api}
- id: mi/adrian/adrian-va-clinic
  name: Adrian VA Clinic
  categories:
  - va-facility
  - health
  description: Primary Care CBOC
  address: {street: 770 Riverside Avenue, city: Adrian, state: mi, zip: '49221'}
  place: '2600440'
  geo: {lat: 41.91275, lng: -84.04781}
  phone: 734-222-7160
  website: https://www.va.gov/ann-arbor-health-care/locations/adrian-va-clinic/
  hours:
  - {days: [mon, tue, wed, thu, fri], open: '07:30', close: '16:00'}
  services:
  - COVID-19 vaccines
  - Laboratory and pathology
  - Mental health care
  - Nutrition, food, and dietary care
  - Primary care
  - Social work
  - Telehealth
  - Women Veteran care
  external_ids: {va: vha_506GF}
  sources:
  - va/facilities-api
  verified: {'on': '2026-07-19', method: api}
- id: mi/adrian/alexander-elementary-school-460100046
  name: Alexander Elementary School - 460100046
  categories:
  - meal-program
  address: {street: 520 Cherry St, city: Adrian, state: mi, zip: '49221'}
  description: Free summer meals for kids and teens (2026 season) — sponsored by Adrian Public Schools
    - 46010.
  place: '2600440'
  geo: {lat: 41.90639, lng: -84.04277}
  phone: (517) 264-6640
  external_ids: {usda_master: Cycle 08_MI_SFSP_0018}
  sources:
  - usda/summer-meal-sites
  verified: {'on': '2026-07-19', method: api}
- id: mi/adrian/aps-head-start-drager
  name: APS Head Start - Drager
  categories:
  - child-care
  address: {street: 340 E Church St, city: Adrian, state: mi, zip: '49221'}
  description: Head Start early childhood program — 113 funded slots; operated by Adrian Public Schools.
  place: '2600440'
  geo: {lat: 41.8964, lng: -84.03281}
  phone: 517-263-2468
  sources:
  - acf/head-start-locations
  verified: {'on': '2026-07-19', method: api}
- id: mi/adrian/aps-head-start-michener
  name: APS Head Start - Michener
  categories:
  - child-care
  address: {street: 104 Dawes Ave, city: Adrian, state: mi, zip: '49221'}
  description: Head Start early childhood program — 18 funded slots; operated by Adrian Public Schools.
  place: '2600440'
  geo: {lat: 41.88194, lng: -84.03689}
  phone: 517-266-4505
  sources:
  - acf/head-start-locations
  verified: {'on': '2026-07-19', method: api}
- id: mi/adrian/aps-head-start-prairie
  name: APS Head Start - Prairie
  categories:
  - child-care
  address: {street: 2568 Airport Rd, city: Adrian, state: mi, zip: '49221'}
  description: Head Start early childhood program — 18 funded slots; operated by Adrian Public Schools.
  place: '2600440'
  geo: {lat: 41.88115, lng: -84.06877}
  phone: 517-266-4523
  sources:
  - acf/head-start-locations
  verified: {'on': '2026-07-19', method: api}
- id: mi/adrian/boys-girls-club-of-lenawee
  name: Boys & Girls Club of Lenawee
  categories:
  - family-youth
  description: Boys & Girls Club
  address: {street: '340 E CHURCH ST

      Suite A Suite A', city: Adrian, state: mi, zip: '49221'}
  geo: {lat: 41.89539, lng: -84.03235}
  place: '2600440'
  phone: 517-266-9775
  website: http://www.bgclenawee.org
  services:
  - Teen center
  - Summer programs
  - Meals
  external_ids: {bgca_site: '3536', bgca_org: '11174'}
  sources:
  - bgca/find-a-club
  verified: {'on': '2026-07-21', method: api}
- id: mi/adrian/community-action-agency-jackson-lenawee-hillsdal
  name: Community Action Agency Jackson-Lenawee-Hillsdale
  categories:
  - utility-assistance
  description: LIHEAP intake office serving Lenawee County
  address: {street: 400 W. South Street, city: Adrian, state: mi, zip: '49221'}
  place: '2600440'
  phone: 517-784-4800
  website: https://www.caajlh.org/
  sources:
  - acf/liheap-clearinghouse
  verified: {'on': '2026-07-19', method: scrape}
  geo: {lat: 41.88624, lng: -84.04106}
- id: mi/adrian/daily-bread-of-lenawee
  name: Daily Bread of Lenawee
  org: mi/south-michigan-food-bank
  categories:
  - meal-program
  address: {street: 302 S Tecumseh St, city: Adrian, state: mi, zip: '49221'}
  place: '2600440'
  sources:
  - foodbank/mi-south-michigan-food-bank
  verified: {'on': '2026-07-21', method: scrape}
  geo: {lat: 41.89523, lng: -84.02685}
- id: mi/adrian/drager-early-education-center-460103186
  name: Drager Early Education Center - 460103186
  categories:
  - meal-program
  address: {street: 340 E Church St, city: Adrian, state: mi, zip: '49221'}
  description: Free summer meals for kids and teens (2026 season) — sponsored by Adrian Public Schools
    - 46010.
  place: '2600440'
  geo: {lat: 41.89641, lng: -84.03238}
  phone: (517) 264-6640
  external_ids: {usda_master: Cycle 08_MI_SFSP_0317}
  sources:
  - usda/summer-meal-sites
  verified: {'on': '2026-07-19', method: api}
- id: mi/adrian/drager-head-start
  name: Drager Head Start
  categories:
  - community-health-center
  cost: sliding-scale
  address: {street: 340 E Church St, city: Adrian, state: mi, zip: '49221'}
  place: '2600440'
  geo: {lat: 41.89648, lng: -84.03266}
  phone: 517-263-1800
  external_ids: {bphc: BPS-H80-039198}
  sources:
  - hrsa/health-center-sites
  verified: {'on': '2026-07-19', method: api}
- id: mi/adrian/family-medical-center-of-mi-adrian
  name: Family Medical Center of MI - Adrian
  categories:
  - community-health-center
  cost: sliding-scale
  address: {street: 1200 N Main St, city: Adrian, state: mi, zip: '49221'}
  place: '2600440'
  geo: {lat: 41.90958, lng: -84.02828}
  phone: 517-263-1800
  website: https://www.familymedicalmi.org
  external_ids: {bphc: BPS-H80-014082}
  sources:
  - hrsa/health-center-sites
  verified: {'on': '2026-07-19', method: api}
- id: mi/adrian/family-medical-center-of-mi-madison-schools
  name: Family Medical Center of MI  - Madison Schools
  categories:
  - community-health-center
  cost: sliding-scale
  address: {street: 3498 Treat Hwy RM 35, city: Adrian, state: mi, zip: '49221'}
  place: '2600440'
  geo: {lat: 41.8685, lng: -84.02281}
  phone: 517-263-1800
  external_ids: {bphc: BPS-H80-030074}
  sources:
  - hrsa/health-center-sites
  verified: {'on': '2026-07-19', method: api}
- id: mi/adrian/family-medical-center-of-mi-madison-schools-2
  name: Family Medical Center of MI - Madison Schools
  categories:
  - community-health-center
  cost: sliding-scale
  address: {street: 3498 Treat Hwy, city: Adrian, state: mi, zip: '49221'}
  place: '2600440'
  geo: {lat: 41.8685, lng: -84.02281}
  phone: 517-263-1800
  external_ids: {bphc: BPS-H80-021021}
  sources:
  - hrsa/health-center-sites
  verified: {'on': '2026-07-19', method: api}
- id: mi/adrian/lenawee-county-department-of-veterans-affairs
  name: Lenawee County Department of Veterans Affairs
  categories:
  - veterans
  description: Veteran service office location listed in the Michigan Veterans Affairs Agency (MVAA) office
    locator. Accredited veteran service officers assist veterans and their families with VA benefit claims.
  address: {street: '1040 S. Winter St., Suite 3017', city: Adrian, state: mi, zip: '49221'}
  geo: {lat: 41.88295, lng: -84.04016}
  place: '2600440'
  phone: 517-264-5335
  external_ids: {mvaa: a7bd6eb3-a8fa-4a4a-a098-fe05cf7905e9}
  sources:
  - stateveterans/mi
  verified: {'on': '2026-07-20', method: api}
- id: mi/adrian/lisd-tech-center-46m000021
  name: Lisd Tech Center - 46M000021
  categories:
  - meal-program
  address: {street: 1352 N Main St, city: Adrian, state: mi, zip: '49221'}
  description: Free summer meals for kids and teens (2026 season) — sponsored by Adrian Public Schools
    - 46010.
  place: '2600440'
  geo: {lat: 41.91267, lng: -84.02653}
  phone: (517) 264-6640
  external_ids: {usda_master: Cycle 08_MI_SFSP_0712}
  sources:
  - usda/summer-meal-sites
  verified: {'on': '2026-07-19', method: api}
- id: mi/adrian/little-free-pantry
  name: Little Free Pantry
  categories:
  - food-pantry
  place: '2600440'
  geo: {lat: 41.90242, lng: -84.05981}
  website: https://mapping.littlefreepantry.org/pantry/689
  external_ids: {lfp: '689'}
  sources:
  - littlefreepantry/map
  verified: {'on': '2026-07-19', method: scrape}
- id: mi/adrian/little-free-pantry-first-christian-church
  name: Little Free Pantry, First Christian Church
  categories:
  - food-pantry
  place: '2600440'
  geo: {lat: 41.9209, lng: -84.03514}
  website: https://mapping.littlefreepantry.org/pantry/138
  external_ids: {lfp: '138'}
  sources:
  - littlefreepantry/map
  verified: {'on': '2026-07-19', method: scrape}
- id: mi/adrian/parkside-family-counseling-llc
  name: Parkside Family Counseling LLC
  categories:
  - su-treatment
  - mh-treatment
  address: {street: 805 West Maumee Street, city: Adrian, state: mi, zip: '49221'}
  place: '2600440'
  geo: {lat: 41.8997, lng: -84.04912}
  phone: 517-266-8880
  website: https://www.parksideforfamilies.com
  services:
  - Outpatient
  - Clients who have experienced trauma
  - Persons with eating disorders
  eligibility: Serves children/adolescents, young adults, adults, seniors.
  cost: varies
  sources:
  - samhsa/findtreatment
  verified: {'on': '2026-07-19', method: api}
- id: mi/adrian/salvation-army-adrian
  name: Salvation Army Adrian
  org: mi/south-michigan-food-bank
  categories:
  - food-pantry
  address: {street: 217 W Church St, city: Adrian, state: mi, zip: '49221'}
  place: '2600440'
  phone: 517-265-2038
  sources:
  - foodbank/mi-south-michigan-food-bank
  verified: {'on': '2026-07-21', method: scrape}
  geo: {lat: 41.89794, lng: -84.03904}
- id: mi/adrian/salvation-army-soup-kitchen
  name: Salvation Army Soup Kitchen
  org: mi/south-michigan-food-bank
  categories:
  - meal-program
  address: {street: 217 W Church St, city: Adrian, state: mi, zip: '49221'}
  place: '2600440'
  sources:
  - foodbank/mi-south-michigan-food-bank
  verified: {'on': '2026-07-21', method: scrape}
  geo: {lat: 41.89794, lng: -84.03904}
- id: mi/adrian/st-joseph-conference-svdp
  name: St. Joseph Conference SVDP
  org: mi/south-michigan-food-bank
  categories:
  - food-pantry
  address: {street: 415 Ormsby, city: Adrian, state: mi, zip: '49221'}
  place: '2600440'
  sources:
  - foodbank/mi-south-michigan-food-bank
  verified: {'on': '2026-07-21', method: scrape}
  geo: {lat: 41.89956, lng: -84.02642}
- id: mi/adrian/st-mary-s-of-good-counsel-christian-service
  name: St. Mary's of Good Counsel Christian Service
  org: mi/south-michigan-food-bank
  categories:
  - food-pantry
  address: {street: 305 Division St, city: Adrian, state: mi, zip: '49221'}
  place: '2600440'
  sources:
  - foodbank/mi-south-michigan-food-bank
  verified: {'on': '2026-07-21', method: scrape}
  geo: {lat: 41.89518, lng: -84.03388}
- id: mi/adrian/svdp-st-joseph-conference
  name: SVdP — St. Joseph Conference
  org: mi/south-michigan-food-bank
  categories:
  - food-pantry
  address: {street: 415 Ormsby St, city: Adrian, state: mi, zip: '49221'}
  place: '2600440'
  sources:
  - foodbank/mi-south-michigan-food-bank
  verified: {'on': '2026-07-21', method: scrape}
  geo: {lat: 41.89956, lng: -84.02642}
