- id: mi/adrian/adrian-first-united-methodist-church-little-free
  name: Adrian First United Methodist Church Little Free Pantry
  categories:
  - food-pantry
  place: '2600440'
  geo:
    lat: 41.9044
    lng: -84.0594
  external_ids:
    lfp: '3185'
  sources:
  - littlefreepantry/map
  verified:
    'on': '2026-07-19'
    method: scrape
- id: mi/adrian/adrian-high-school
  name: Adrian High School
  categories:
  - community-health-center
  address:
    street: 785 Riverside Ave
    city: Adrian
    state: mi
    zip: '49221'
  place: '2600440'
  geo:
    lat: 41.91041
    lng: -84.04771
  phone: 517-263-1800
  external_ids:
    bphc: BPS-H80-039195
  sources:
  - hrsa/health-center-sites
  verified:
    'on': '2026-07-19'
    method: api
- id: mi/adrian/aps-head-start-drager
  name: APS Head Start - Drager
  categories:
  - child-care
  address:
    street: 340 E Church St
    city: Adrian
    state: mi
    zip: '49221'
  place: '2600440'
  geo:
    lat: 41.8964
    lng: -84.03281
  phone: 517-263-2468
  sources:
  - acf/head-start-locations
  verified:
    'on': '2026-07-19'
    method: api
- id: mi/adrian/aps-head-start-michener
  name: APS Head Start - Michener
  categories:
  - child-care
  address:
    street: 104 Dawes Ave
    city: Adrian
    state: mi
    zip: '49221'
  place: '2600440'
  geo:
    lat: 41.88194
    lng: -84.03689
  phone: 517-266-4505
  sources:
  - acf/head-start-locations
  verified:
    'on': '2026-07-19'
    method: api
- id: mi/adrian/aps-head-start-prairie
  name: APS Head Start - Prairie
  categories:
  - child-care
  address:
    street: 2568 Airport Rd
    city: Adrian
    state: mi
    zip: '49221'
  place: '2600440'
  geo:
    lat: 41.88115
    lng: -84.06877
  phone: 517-266-4523
  sources:
  - acf/head-start-locations
  verified:
    'on': '2026-07-19'
    method: api
- id: mi/adrian/drager-head-start
  name: Drager Head Start
  categories:
  - community-health-center
  address:
    street: 340 E Church St
    city: Adrian
    state: mi
    zip: '49221'
  place: '2600440'
  geo:
    lat: 41.89648
    lng: -84.03266
  phone: 517-263-1800
  external_ids:
    bphc: BPS-H80-039198
  sources:
  - hrsa/health-center-sites
  verified:
    'on': '2026-07-19'
    method: api
- id: mi/adrian/family-medical-center-of-mi-adrian
  name: Family Medical Center of MI - Adrian
  categories:
  - community-health-center
  address:
    street: 1200 N Main St
    city: Adrian
    state: mi
    zip: '49221'
  place: '2600440'
  geo:
    lat: 41.90958
    lng: -84.02828
  phone: 517-263-1800
  website: https://www.familymedicalmi.org
  external_ids:
    bphc: BPS-H80-014082
  sources:
  - hrsa/health-center-sites
  verified:
    'on': '2026-07-19'
    method: api
- id: mi/adrian/family-medical-center-of-mi-madison-schools
  name: Family Medical Center of MI  - Madison Schools
  categories:
  - community-health-center
  address:
    street: 3498 Treat Hwy RM 35
    city: Adrian
    state: mi
    zip: '49221'
  place: '2600440'
  geo:
    lat: 41.8685
    lng: -84.02281
  phone: 517-263-1800
  external_ids:
    bphc: BPS-H80-030074
  sources:
  - hrsa/health-center-sites
  verified:
    'on': '2026-07-19'
    method: api
- id: mi/adrian/family-medical-center-of-mi-madison-schools-2
  name: Family Medical Center of MI - Madison Schools
  categories:
  - community-health-center
  address:
    street: 3498 Treat Hwy
    city: Adrian
    state: mi
    zip: '49221'
  place: '2600440'
  geo:
    lat: 41.8685
    lng: -84.02281
  phone: 517-263-1800
  external_ids:
    bphc: BPS-H80-021021
  sources:
  - hrsa/health-center-sites
  verified:
    'on': '2026-07-19'
    method: api
- id: mi/adrian/little-free-pantry
  name: Little Free Pantry
  categories:
  - food-pantry
  place: '2600440'
  geo:
    lat: 41.90242
    lng: -84.05981
  external_ids:
    lfp: '689'
  sources:
  - littlefreepantry/map
  verified:
    'on': '2026-07-19'
    method: scrape
- id: mi/adrian/little-free-pantry-first-christian-church
  name: Little Free Pantry, First Christian Church
  categories:
  - food-pantry
  place: '2600440'
  geo:
    lat: 41.9209
    lng: -84.03514
  external_ids:
    lfp: '138'
  sources:
  - littlefreepantry/map
  verified:
    'on': '2026-07-19'
    method: scrape
- id: mi/adrian/parkside-family-counseling-llc
  name: Parkside Family Counseling LLC
  categories:
  - su-treatment
  - mh-treatment
  address:
    street: 805 West Maumee Street
    city: Adrian
    state: mi
    zip: '49221'
  place: '2600440'
  geo:
    lat: 41.8997
    lng: -84.04912
  phone: 517-266-8880
  website: https://www.parksideforfamilies.com
  sources:
  - samhsa/findtreatment
  verified:
    'on': '2026-07-19'
    method: api
