- id: mi/bay-city/alice-jack-wirt-public-library
  name: Alice & Jack Wirt Public Library
  categories:
  - meal-program
  address:
    street: 500 Center Ave
    city: Bay City
    state: mi
    zip: '48708'
  description: Free summer meals for kids and teens (2026 season) — sponsored by Bay City School District.
  place: '2606020'
  geo:
    lat: 43.59783
    lng: -83.88559
  phone: (989) 686-9700
  external_ids:
    usda_master: Cycle 05_MI_SFSP_0005
  sources:
  - usda/summer-meal-sites
  verified:
    'on': '2026-07-19'
    method: api
- id: mi/bay-city/alice-jack-wirt-public-library-09m000001
  name: Alice & Jack Wirt Public Library - 09M000001
  categories:
  - meal-program
  address:
    street: 500 Center Ave
    city: Bay City
    state: mi
    zip: '48708'
  description: Free summer meals for kids and teens (2026 season) — sponsored by Bay City School District
    - 09010.
  place: '2606020'
  geo:
    lat: 43.59783
    lng: -83.88559
  phone: (989) 686-9700
  external_ids:
    usda_master: Cycle 07_MI_SFSP_0027
  sources:
  - usda/summer-meal-sites
  verified:
    'on': '2026-07-19'
    method: api
- id: mi/bay-city/art-through-chaos
  name: Art Through Chaos
  categories:
  - food-pantry
  place: '2606020'
  geo:
    lat: 43.60867
    lng: -83.8961
  external_ids:
    lfp: '5839'
  sources:
  - littlefreepantry/map
  verified:
    'on': '2026-07-19'
    method: scrape
- id: mi/bay-city/bangor-downs
  name: Bangor Downs
  categories:
  - meal-program
  address:
    street: 3325 Alarie Dr
    city: Bay City
    state: mi
    zip: '48706'
  description: Free summer meals for kids and teens (2026 season) — sponsored by Bay City School District.
  place: '2606020'
  geo:
    lat: 43.62778
    lng: -83.92022
  phone: (989) 686-9700
  external_ids:
    usda_master: Cycle 05_MI_SFSP_0006
  sources:
  - usda/summer-meal-sites
  verified:
    'on': '2026-07-19'
    method: api
- id: mi/bay-city/bangor-downs-09m000002
  name: Bangor Downs - 09M000002
  categories:
  - meal-program
  address:
    street: 3325 Alarie Dr
    city: Bay City
    state: mi
    zip: '48706'
  description: Free summer meals for kids and teens (2026 season) — sponsored by Bay City School District
    - 09010.
  place: '2606020'
  geo:
    lat: 43.62778
    lng: -83.92022
  phone: (989) 686-9700
  external_ids:
    usda_master: Cycle 07_MI_SFSP_0028
  sources:
  - usda/summer-meal-sites
  verified:
    'on': '2026-07-19'
    method: api
- id: mi/bay-city/bangor-west-central-school
  name: Bangor West Central School
  categories:
  - meal-program
  address:
    street: 3175 Wilder Rd
    city: Bay City
    state: mi
    zip: '48706'
  description: Free summer meals for kids and teens (2026 season) — sponsored by Bangor Township Schools.
  place: '2606020'
  geo:
    lat: 43.62396
    lng: -83.92505
  phone: (989) 684-8121
  external_ids:
    usda_master: Cycle 05_MI_SFSP_0004
  sources:
  - usda/summer-meal-sites
  verified:
    'on': '2026-07-19'
    method: api
- id: mi/bay-city/bangor-west-central-school-090300194
  name: Bangor West Central School - 090300194
  categories:
  - meal-program
  address:
    street: 3175 Wilder Rd
    city: Bay City
    state: mi
    zip: '48706'
  description: Free summer meals for kids and teens (2026 season) — sponsored by Bangor Township Schools
    - 09030.
  place: '2606020'
  geo:
    lat: 43.62396
    lng: -83.92505
  phone: (989) 684-8121
  external_ids:
    usda_master: Cycle 07_MI_SFSP_0016
  sources:
  - usda/summer-meal-sites
  verified:
    'on': '2026-07-19'
    method: api
- id: mi/bay-city/bay-city-central-high-school
  name: Bay City Central High School
  categories:
  - meal-program
  address:
    street: 1624 Columbus Ave
    city: Bay City
    state: mi
    zip: '48708'
  description: Free summer meals for kids and teens (2026 season) — sponsored by Bay City School District.
  place: '2606020'
  geo:
    lat: 43.58936
    lng: -83.87401
  phone: (989) 686-9700
  external_ids:
    usda_master: Cycle 05_MI_SFSP_0007
  sources:
  - usda/summer-meal-sites
  verified:
    'on': '2026-07-19'
    method: api
- id: mi/bay-city/bay-city-central-high-school-090100227
  name: Bay City Central High School - 090100227
  categories:
  - meal-program
  address:
    street: 1624 Columbus Ave
    city: Bay City
    state: mi
    zip: '48708'
  description: Free summer meals for kids and teens (2026 season) — sponsored by Bay City School District
    - 09010.
  place: '2606020'
  geo:
    lat: 43.58936
    lng: -83.87401
  phone: (989) 686-9700
  external_ids:
    usda_master: Cycle 07_MI_SFSP_0029
  sources:
  - usda/summer-meal-sites
  verified:
    'on': '2026-07-19'
    method: api
- id: mi/bay-city/bay-city-ecc
  name: Bay City ECC
  categories:
  - child-care
  address:
    street: 1201 4th St
    city: Bay City
    state: mi
    zip: '48708'
  place: '2606020'
  geo:
    lat: 43.59931
    lng: -83.8777
  phone: 989-893-9380
  sources:
  - acf/head-start-locations
  verified:
    'on': '2026-07-19'
    method: api
- id: mi/bay-city/bay-city-housing-commission
  name: Bay City Housing Commission
  categories:
  - housing-assistance
  address:
    street: 315 14th St
    city: Bay City
    state: mi
    zip: '48708'
  description: Public housing (Low-Rent) agency
  place: '2606020'
  geo:
    lat: 43.58791
    lng: -83.88953
  phone: 989-892-9581
  sources:
  - hud/resource-locator
  verified:
    'on': '2026-07-19'
    method: api
- id: mi/bay-city/bay-city-linsday-ecc
  name: Bay City Linsday ECC
  categories:
  - child-care
  address:
    street: 607 Lasalle St
    city: Bay City
    state: mi
    zip: '48706'
  place: '2606020'
  geo:
    lat: 43.61774
    lng: -83.88716
  phone: 989-684-6484
  sources:
  - acf/head-start-locations
  verified:
    'on': '2026-07-19'
    method: api
- id: mi/bay-city/bay-city-public-schools-transportation-09m000041
  name: Bay City Public Schools Transportation - 09M000041
  categories:
  - meal-program
  address:
    street: 480 Midland Rd
    city: Bay City
    state: mi
    zip: '48706'
  description: Free summer meals for kids and teens (2026 season) — sponsored by Bay City School District
    - 09010.
  place: '2606020'
  geo:
    lat: 43.60346
    lng: -84.03274
  phone: (989) 686-9700
  external_ids:
    usda_master: Cycle 07_MI_SFSP_0030
  sources:
  - usda/summer-meal-sites
  verified:
    'on': '2026-07-19'
    method: api
- id: mi/bay-city/bay-city-recreation-area
  name: Bay City Recreation Area
  categories:
  - meal-program
  address:
    street: 3582 State Park Dr
    city: Bay City
    state: mi
    zip: '48706'
  description: Free summer meals for kids and teens (2026 season) — sponsored by Bay City School District.
  place: '2606020'
  geo:
    lat: 43.66618
    lng: -83.90612
  phone: (989) 686-9700
  external_ids:
    usda_master: Cycle 05_MI_SFSP_0008
  sources:
  - usda/summer-meal-sites
  verified:
    'on': '2026-07-19'
    method: api
- id: mi/bay-city/bay-city-recreation-area-09m000031
  name: Bay City Recreation Area - 09M000031
  categories:
  - meal-program
  address:
    street: 3582 State Park Dr
    city: Bay City
    state: mi
    zip: '48706'
  description: Free summer meals for kids and teens (2026 season) — sponsored by Bay City School District
    - 09010.
  place: '2606020'
  geo:
    lat: 43.66618
    lng: -83.90612
  phone: (989) 686-9700
  external_ids:
    usda_master: Cycle 07_MI_SFSP_0031
  sources:
  - usda/summer-meal-sites
  verified:
    'on': '2026-07-19'
    method: api
- id: mi/bay-city/bay-county-community-center
  name: Bay County Community Center
  categories:
  - meal-program
  address:
    street: 800 Jf Kennedy Dr
    city: Bay City
    state: mi
    zip: '48706'
  description: Free summer meals for kids and teens (2026 season) — sponsored by Bay City School District.
  place: '2606020'
  geo:
    lat: 43.59208
    lng: -83.89954
  phone: (989) 686-9700
  external_ids:
    usda_master: Cycle 05_MI_SFSP_0009
  sources:
  - usda/summer-meal-sites
  verified:
    'on': '2026-07-19'
    method: api
- id: mi/bay-city/bay-county-community-center-09m000033
  name: Bay County Community Center - 09M000033
  categories:
  - meal-program
  address:
    street: 800 Jf Kennedy Dr
    city: Bay City
    state: mi
    zip: '48706'
  description: Free summer meals for kids and teens (2026 season) — sponsored by Bay City School District
    - 09010.
  place: '2606020'
  geo:
    lat: 43.59208
    lng: -83.89954
  phone: (989) 686-9700
  external_ids:
    usda_master: Cycle 07_MI_SFSP_0032
  sources:
  - usda/summer-meal-sites
  verified:
    'on': '2026-07-19'
    method: api
- id: mi/bay-city/blessing-box
  name: Blessing box
  categories:
  - food-pantry
  place: '2606020'
  geo:
    lat: 43.58187
    lng: -83.88943
  external_ids:
    lfp: '5000'
  sources:
  - littlefreepantry/map
  verified:
    'on': '2026-07-19'
    method: scrape
- id: mi/bay-city/boys-and-girls-club-of-bay-city
  name: Boys And Girls Club Of Bay City
  categories:
  - meal-program
  address:
    street: 300 Lafayette Ave
    city: Bay City
    state: mi
    zip: '48706'
  description: Free summer meals for kids and teens (2026 season) — sponsored by Bay City School District.
  place: '2606020'
  geo:
    lat: 43.57964
    lng: -83.89784
  phone: (989) 686-9700
  external_ids:
    usda_master: Cycle 05_MI_SFSP_0010
  sources:
  - usda/summer-meal-sites
  verified:
    'on': '2026-07-19'
    method: api
- id: mi/bay-city/boys-and-girls-club-of-bay-city-09m000020
  name: Boys And Girls Club Of Bay City - 09M000020
  categories:
  - meal-program
  address:
    street: 300 Lafayette Ave
    city: Bay City
    state: mi
    zip: '48706'
  description: Free summer meals for kids and teens (2026 season) — sponsored by Bay City School District
    - 09010.
  place: '2606020'
  geo:
    lat: 43.57964
    lng: -83.89784
  phone: (989) 686-9700
  external_ids:
    usda_master: Cycle 07_MI_SFSP_0033
  sources:
  - usda/summer-meal-sites
  verified:
    'on': '2026-07-19'
    method: api
- id: mi/bay-city/dow-bay-area-family-ymca-09m000019
  name: Dow Bay Area Family Ymca - 09M000019
  categories:
  - meal-program
  address:
    street: 225 Washington Ave
    city: Bay City
    state: mi
    zip: '48708'
  description: Free summer meals for kids and teens (2026 season) — sponsored by Dow Bay Area Family YMCA
    - 09SPX0001.
  place: '2606020'
  geo:
    lat: 43.59179
    lng: -83.88876
  phone: (989) 895-8596
  external_ids:
    usda_master: Cycle 07_MI_SFSP_0112
  sources:
  - usda/summer-meal-sites
  verified:
    'on': '2026-07-19'
    method: api
- id: mi/bay-city/dow-bay-area-family-ymca-childcare-at-first-pres
  name: Dow Bay Area Family Ymca Childcare At First Presbyterian Church - 09M000038
  categories:
  - meal-program
  address:
    street: 805 Center Ave
    city: Bay City
    state: mi
    zip: '48708'
  description: Free summer meals for kids and teens (2026 season) — sponsored by Dow Bay Area Family YMCA
    - 09SPX0001.
  place: '2606020'
  geo:
    lat: 43.59759
    lng: -83.88182
  phone: (989) 895-8596
  external_ids:
    usda_master: Cycle 07_MI_SFSP_0113
  sources:
  - usda/summer-meal-sites
  verified:
    'on': '2026-07-19'
    method: api
- id: mi/bay-city/great-lakes-bay-health-centers-bay-city-central
  name: Great Lakes Bay Health Centers Bay City Central
  categories:
  - community-health-center
  address:
    street: 1624 Columbus Ave
    city: Bay City
    state: mi
    zip: '48708'
  place: '2606020'
  geo:
    lat: 43.58843
    lng: -83.874
  phone: 989-893-9541
  website: https://greatlakesbayhealthcenters.org
  external_ids:
    bphc: BPS-H80-038231
  sources:
  - hrsa/health-center-sites
  verified:
    'on': '2026-07-19'
    method: api
- id: mi/bay-city/great-lakes-bay-health-centers-bay-city-south
  name: Great Lakes Bay Health Centers Bay City South
  categories:
  - su-treatment
  - mh-treatment
  address:
    city: Bay City
    state: mi
    zip: '48708'
  place: '2606020'
  phone: 989-922-5700
  website: https://www.greatlakesbayhealthcenters.org/
  sources:
  - samhsa/findtreatment
  verified:
    'on': '2026-07-19'
    method: api
- id: mi/bay-city/great-lakes-bay-health-centers-bay-city-south-2
  name: Great Lakes Bay Health Centers Bay City South
  categories:
  - community-health-center
  address:
    street: 690 S Trumbull St
    city: Bay City
    state: mi
    zip: '48708'
  place: '2606020'
  geo:
    lat: 43.58383
    lng: -83.86763
  phone: 989-922-4900
  external_ids:
    bphc: BPS-H80-029716
  sources:
  - hrsa/health-center-sites
  verified:
    'on': '2026-07-19'
    method: api
- id: mi/bay-city/great-lakes-bay-health-centers-bayside
  name: Great Lakes Bay Health Centers Bayside
  categories:
  - community-health-center
  address:
    street: 3884 Monitor Rd
    city: Bay City
    state: mi
    zip: '48706'
  place: '2606020'
  geo:
    lat: 43.62732
    lng: -83.94817
  phone: 989-671-2000
  website: https://greatlakesbayhealthcenters.org
  external_ids:
    bphc: BPS-H80-003339
  sources:
  - hrsa/health-center-sites
  verified:
    'on': '2026-07-19'
    method: api
- id: mi/bay-city/great-lakes-bay-health-centers-washington-elemen
  name: Great Lakes Bay Health Centers  Washington Elementary
  categories:
  - community-health-center
  address:
    street: 1821 Mckinley St RM 214
    city: Bay City
    state: mi
    zip: '48708'
  place: '2606020'
  geo:
    lat: 43.59367
    lng: -83.87058
  phone: 989-894-2744
  website: https://greatlakesbayhealthcenters.org
  external_ids:
    bphc: BPS-H80-027163
  sources:
  - hrsa/health-center-sites
  verified:
    'on': '2026-07-19'
    method: api
- id: mi/bay-city/great-lakes-bay-health-centers-women-s-care-bay
  name: Great Lakes Bay Health Centers Women's Care Bay City
  categories:
  - community-health-center
  address:
    street: 3175 Professional Ct
    city: Bay City
    state: mi
    zip: '48706'
  place: '2606020'
  geo:
    lat: 43.60088
    lng: -83.92624
  phone: 989-667-3377
  website: https://greatlakesbayhealthcenters.org
  external_ids:
    bphc: BPS-H80-000281
  sources:
  - hrsa/health-center-sites
  verified:
    'on': '2026-07-19'
    method: api
- id: mi/bay-city/great-lakes-bay-vet-center
  name: Great Lakes Bay Vet Center
  categories:
  - vet-center
  address: {street: 6387 Westside Saginaw Road, city: Bay City, state: mi, zip: '48706'}
  place: '2606020'
  geo: {lat: 43.55525, lng: -83.95143}
  phone: 989-321-4650
  website: https://www.va.gov/saginaw-vet-center/
  hours:
  - {days: [mon, tue, wed, thu, fri], open: '08:00', close: '16:30'}
  services:
  - Addiction and substance use care
  - Community engagement
  - Couples and family counseling
  - Grief and bereavement counseling
  - Military sexual trauma care
  - PTSD care
  - Returning service member care
  - Suicide prevention
  - Veteran connections
  - Veteran readiness and employment programs
  external_ids: {va: vc_0433V}
  sources:
  - va/facilities-api
  verified: {'on': '2026-07-19', method: api}
- id: mi/bay-city/isd-local-programs
  name: Isd-Local Programs
  categories:
  - meal-program
  address:
    street: 4228 2 Mile Rd
    city: Bay City
    state: mi
    zip: '48706'
  description: Free summer meals for kids and teens (2026 season) — sponsored by Bay City School District.
  place: '2606020'
  geo:
    lat: 43.61924
    lng: -83.93182
  phone: (989) 686-9700
  external_ids:
    usda_master: Cycle 05_MI_SFSP_0011
  sources:
  - usda/summer-meal-sites
  verified:
    'on': '2026-07-19'
    method: api
- id: mi/bay-city/isd-local-programs-090009735
  name: Isd-Local Programs - 090009735
  categories:
  - meal-program
  address:
    street: 4228 2 Mile Rd
    city: Bay City
    state: mi
    zip: '48706'
  description: Free summer meals for kids and teens (2026 season) — sponsored by Bay City School District
    - 09010.
  place: '2606020'
  geo:
    lat: 43.61924
    lng: -83.93182
  phone: (989) 686-9700
  external_ids:
    usda_master: Cycle 07_MI_SFSP_0034
  sources:
  - usda/summer-meal-sites
  verified:
    'on': '2026-07-19'
    method: api
- id: mi/bay-city/list-psychological-services-plc
  name: List Psychological Services PLC
  categories:
  - su-treatment
  - mh-treatment
  address:
    street: 126 Washington Avenue
    city: Bay City
    state: mi
    zip: '48708'
  place: '2606020'
  geo:
    lat: 43.59028
    lng: -83.88885
  phone: 989-684-7977
  website: https://www.listpsych.com
  sources:
  - samhsa/findtreatment
  verified:
    'on': '2026-07-19'
    method: api
- id: mi/bay-city/marystreasurebox
  name: Marystreasurebox
  categories:
  - food-pantry
  place: '2606020'
  geo:
    lat: 43.58312
    lng: -83.8936
  external_ids:
    lfp: '4910'
  sources:
  - littlefreepantry/map
  verified:
    'on': '2026-07-19'
    method: scrape
- id: mi/bay-city/recovery-pathways-llc
  name: Recovery Pathways LLC
  categories:
  - su-treatment
  - mh-treatment
  address:
    street: 1009 Washington Avenue
    city: Bay City
    state: mi
    zip: '48708'
  place: '2606020'
  geo:
    lat: 43.60065
    lng: -83.8878
  phone: 989-928-3566
  website: https://www.recoverypathwaysllc.com
  sources:
  - samhsa/findtreatment
  verified:
    'on': '2026-07-19'
    method: api
- id: mi/bay-city/sacred-heart-rehabilitation-center
  name: Sacred Heart Rehabilitation Center
  categories:
  - su-treatment
  address:
    street: 1106 Washington Avenue
    city: Bay City
    state: mi
    zip: '48708'
  place: '2606020'
  geo:
    lat: 43.60137
    lng: -83.88693
  phone: 989-894-2991
  website: https://www.sacredheartcenter.com
  sources:
  - samhsa/findtreatment
  verified:
    'on': '2026-07-19'
    method: api
- id: mi/bay-city/sage-library
  name: Sage Library
  categories:
  - meal-program
  address:
    street: 100 E Midland St
    city: Bay City
    state: mi
    zip: '48706'
  description: Free summer meals for kids and teens (2026 season) — sponsored by Bay City School District.
  place: '2606020'
  geo:
    lat: 43.60195
    lng: -83.90469
  phone: (989) 686-9700
  external_ids:
    usda_master: Cycle 05_MI_SFSP_0012
  sources:
  - usda/summer-meal-sites
  verified:
    'on': '2026-07-19'
    method: api
- id: mi/bay-city/sage-library-09m000028
  name: Sage Library - 09M000028
  categories:
  - meal-program
  address:
    street: 100 E Midland St
    city: Bay City
    state: mi
    zip: '48706'
  description: Free summer meals for kids and teens (2026 season) — sponsored by Bay City School District
    - 09010.
  place: '2606020'
  geo:
    lat: 43.60195
    lng: -83.90469
  phone: (989) 686-9700
  external_ids:
    usda_master: Cycle 07_MI_SFSP_0035
  sources:
  - usda/summer-meal-sites
  verified:
    'on': '2026-07-19'
    method: api
- id: mi/bay-city/smith-food-pantry
  name: Smith food pantry
  categories:
  - food-pantry
  place: '2606020'
  geo:
    lat: 43.60306
    lng: -83.87087
  external_ids:
    lfp: '4906'
  sources:
  - littlefreepantry/map
  verified:
    'on': '2026-07-19'
    method: scrape
- id: mi/bay-city/smith-food-pantry-and-giving-box
  name: Smith food pantry and giving box
  categories:
  - food-pantry
  place: '2606020'
  geo:
    lat: 43.60306
    lng: -83.87087
  external_ids:
    lfp: '4231'
  sources:
  - littlefreepantry/map
  verified:
    'on': '2026-07-19'
    method: scrape
- id: mi/bay-city/state-street-academy-099028856
  name: State Street Academy - 099028856
  categories:
  - meal-program
  address:
    street: 1110 State St
    city: Bay City
    state: mi
    zip: '48706'
  description: Free summer meals for kids and teens (2026 season) — sponsored by State Street Academy
    - 09902.
  place: '2606020'
  geo:
    lat: 43.61807
    lng: -83.89445
  phone: (989) 684-6484
  external_ids:
    usda_master: Cycle 08_MI_SFSP_1138
  sources:
  - usda/summer-meal-sites
  verified:
    'on': '2026-07-19'
    method: api
- id: mi/bay-city/sun-and-moon-midland-st
  name: Sun and moon (midland st)
  categories:
  - food-pantry
  place: '2606020'
  geo:
    lat: 43.60218
    lng: -83.89893
  external_ids:
    lfp: '4978'
  sources:
  - littlefreepantry/map
  verified:
    'on': '2026-07-19'
    method: scrape
- id: mi/bay-city/the-compassion-cabinet
  name: The Compassion Cabinet
  categories:
  - food-pantry
  place: '2606020'
  geo:
    lat: 43.59376
    lng: -83.88217
  external_ids:
    lfp: '4369'
  sources:
  - littlefreepantry/map
  verified:
    'on': '2026-07-19'
    method: scrape
- id: mi/bay-city/wellspring-lutheran-services
  name: Wellspring Lutheran Services
  categories:
  - mh-treatment
  address:
    street: 6019 West Side Saginaw Road
    city: Bay City
    state: mi
    zip: '48707'
  place: '2606020'
  geo:
    lat: 43.56507
    lng: -83.93801
  phone: 989-448-8540
  website: https://www.wellspringlutheran.com/behavioral-health.com
  sources:
  - samhsa/findtreatment
  verified:
    'on': '2026-07-19'
    method: api
- id: mi/bay-city/wenona-park
  name: Wenona Park
  categories:
  - meal-program
  address:
    street: 101 Center Ave
    city: Bay City
    state: mi
    zip: '48708'
  description: Free summer meals for kids and teens (2026 season) — sponsored by Bay City School District.
  place: '2606020'
  geo:
    lat: 43.59822
    lng: -83.88965
  phone: (989) 686-9700
  external_ids:
    usda_master: Cycle 05_MI_SFSP_0013
  sources:
  - usda/summer-meal-sites
  verified:
    'on': '2026-07-19'
    method: api
- id: mi/bay-city/wenona-park-09m000029
  name: Wenona Park - 09M000029
  categories:
  - meal-program
  address:
    street: 101 Center Ave
    city: Bay City
    state: mi
    zip: '48708'
  description: Free summer meals for kids and teens (2026 season) — sponsored by Bay City School District
    - 09010.
  place: '2606020'
  geo:
    lat: 43.59822
    lng: -83.88965
  phone: (989) 686-9700
  external_ids:
    usda_master: Cycle 07_MI_SFSP_0036
  sources:
  - usda/summer-meal-sites
  verified:
    'on': '2026-07-19'
    method: api
- id: mi/bay-city/wicked-blessing-box
  name: WICKED BLESSING BOX
  categories:
  - food-pantry
  place: '2606020'
  geo:
    lat: 43.5739
    lng: -83.89338
  external_ids:
    lfp: '3735'
  sources:
  - littlefreepantry/map
  verified:
    'on': '2026-07-19'
    method: scrape
- id: mi/bay-city/zion-lutheran-school
  name: Zion Lutheran School
  categories:
  - meal-program
  address:
    street: 1707 S Kiesel St
    city: Bay City
    state: mi
    zip: '48706'
  description: Free summer meals for kids and teens (2026 season) — sponsored by Bay City School District.
  place: '2606020'
  geo:
    lat: 43.58372
    lng: -83.91114
  phone: (989) 686-9700
  external_ids:
    usda_master: Cycle 05_MI_SFSP_0014
  sources:
  - usda/summer-meal-sites
  verified:
    'on': '2026-07-19'
    method: api
- id: mi/bay-city/zion-lutheran-school-090104628
  name: Zion Lutheran School - 090104628
  categories:
  - meal-program
  address:
    street: 1707 S Kiesel St
    city: Bay City
    state: mi
    zip: '48706'
  description: Free summer meals for kids and teens (2026 season) — sponsored by Bay City School District
    - 09010.
  place: '2606020'
  geo:
    lat: 43.58372
    lng: -83.91114
  phone: (989) 686-9700
  external_ids:
    usda_master: Cycle 07_MI_SFSP_0037
  sources:
  - usda/summer-meal-sites
  verified:
    'on': '2026-07-19'
    method: api
