- id: mi/bay-city/art-through-chaos
  name: Art Through Chaos
  categories:
  - food-pantry
  place: '2606020'
  geo:
    lat: 43.60867
    lng: -83.8961
  external_ids:
    lfp: '5839'
  sources:
  - littlefreepantry/map
  verified:
    'on': '2026-07-19'
    method: scrape
- id: mi/bay-city/bay-city-ecc
  name: Bay City ECC
  categories:
  - child-care
  address:
    street: 1201 4th St
    city: Bay City
    state: mi
    zip: '48708'
  place: '2606020'
  geo:
    lat: 43.59931
    lng: -83.8777
  phone: 989-893-9380
  sources:
  - acf/head-start-locations
  verified:
    'on': '2026-07-19'
    method: api
- id: mi/bay-city/bay-city-housing-commission
  name: Bay City Housing Commission
  categories:
  - housing-assistance
  address: {street: 315 14th St, city: Bay City, state: mi, zip: '48708'}
  description: Public housing (Low-Rent) agency
  place: '2606020'
  geo: {lat: 43.58791, lng: -83.88953}
  phone: 989-892-9581
  sources:
  - hud/resource-locator
  verified: {'on': '2026-07-19', method: api}
- id: mi/bay-city/bay-city-linsday-ecc
  name: Bay City Linsday ECC
  categories:
  - child-care
  address:
    street: 607 Lasalle St
    city: Bay City
    state: mi
    zip: '48706'
  place: '2606020'
  geo:
    lat: 43.61774
    lng: -83.88716
  phone: 989-684-6484
  sources:
  - acf/head-start-locations
  verified:
    'on': '2026-07-19'
    method: api
- id: mi/bay-city/blessing-box
  name: Blessing box
  categories:
  - food-pantry
  place: '2606020'
  geo:
    lat: 43.58187
    lng: -83.88943
  external_ids:
    lfp: '5000'
  sources:
  - littlefreepantry/map
  verified:
    'on': '2026-07-19'
    method: scrape
- id: mi/bay-city/great-lakes-bay-health-centers-bay-city-central
  name: Great Lakes Bay Health Centers Bay City Central
  categories:
  - community-health-center
  address:
    street: 1624 Columbus Ave
    city: Bay City
    state: mi
    zip: '48708'
  place: '2606020'
  geo:
    lat: 43.58843
    lng: -83.874
  phone: 989-893-9541
  website: https://greatlakesbayhealthcenters.org
  external_ids:
    bphc: BPS-H80-038231
  sources:
  - hrsa/health-center-sites
  verified:
    'on': '2026-07-19'
    method: api
- id: mi/bay-city/great-lakes-bay-health-centers-bay-city-south
  name: Great Lakes Bay Health Centers Bay City South
  categories:
  - su-treatment
  - mh-treatment
  address:
    city: Bay City
    state: mi
    zip: '48708'
  place: '2606020'
  phone: 989-922-5700
  website: https://www.greatlakesbayhealthcenters.org/
  sources:
  - samhsa/findtreatment
  verified:
    'on': '2026-07-19'
    method: api
- id: mi/bay-city/great-lakes-bay-health-centers-bay-city-south-2
  name: Great Lakes Bay Health Centers Bay City South
  categories:
  - community-health-center
  address:
    street: 690 S Trumbull St
    city: Bay City
    state: mi
    zip: '48708'
  place: '2606020'
  geo:
    lat: 43.58383
    lng: -83.86763
  phone: 989-922-4900
  external_ids:
    bphc: BPS-H80-029716
  sources:
  - hrsa/health-center-sites
  verified:
    'on': '2026-07-19'
    method: api
- id: mi/bay-city/great-lakes-bay-health-centers-bayside
  name: Great Lakes Bay Health Centers Bayside
  categories:
  - community-health-center
  address:
    street: 3884 Monitor Rd
    city: Bay City
    state: mi
    zip: '48706'
  place: '2606020'
  geo:
    lat: 43.62732
    lng: -83.94817
  phone: 989-671-2000
  website: https://greatlakesbayhealthcenters.org
  external_ids:
    bphc: BPS-H80-003339
  sources:
  - hrsa/health-center-sites
  verified:
    'on': '2026-07-19'
    method: api
- id: mi/bay-city/great-lakes-bay-health-centers-washington-elemen
  name: Great Lakes Bay Health Centers  Washington Elementary
  categories:
  - community-health-center
  address:
    street: 1821 Mckinley St RM 214
    city: Bay City
    state: mi
    zip: '48708'
  place: '2606020'
  geo:
    lat: 43.59367
    lng: -83.87058
  phone: 989-894-2744
  website: https://greatlakesbayhealthcenters.org
  external_ids:
    bphc: BPS-H80-027163
  sources:
  - hrsa/health-center-sites
  verified:
    'on': '2026-07-19'
    method: api
- id: mi/bay-city/great-lakes-bay-health-centers-women-s-care-bay
  name: Great Lakes Bay Health Centers Women's Care Bay City
  categories:
  - community-health-center
  address:
    street: 3175 Professional Ct
    city: Bay City
    state: mi
    zip: '48706'
  place: '2606020'
  geo:
    lat: 43.60088
    lng: -83.92624
  phone: 989-667-3377
  website: https://greatlakesbayhealthcenters.org
  external_ids:
    bphc: BPS-H80-000281
  sources:
  - hrsa/health-center-sites
  verified:
    'on': '2026-07-19'
    method: api
- id: mi/bay-city/list-psychological-services-plc
  name: List Psychological Services PLC
  categories:
  - su-treatment
  - mh-treatment
  address:
    street: 126 Washington Avenue
    city: Bay City
    state: mi
    zip: '48708'
  place: '2606020'
  geo:
    lat: 43.59028
    lng: -83.88885
  phone: 989-684-7977
  website: https://www.listpsych.com
  sources:
  - samhsa/findtreatment
  verified:
    'on': '2026-07-19'
    method: api
- id: mi/bay-city/marystreasurebox
  name: Marystreasurebox
  categories:
  - food-pantry
  place: '2606020'
  geo:
    lat: 43.58312
    lng: -83.8936
  external_ids:
    lfp: '4910'
  sources:
  - littlefreepantry/map
  verified:
    'on': '2026-07-19'
    method: scrape
- id: mi/bay-city/recovery-pathways-llc
  name: Recovery Pathways LLC
  categories:
  - su-treatment
  - mh-treatment
  address:
    street: 1009 Washington Avenue
    city: Bay City
    state: mi
    zip: '48708'
  place: '2606020'
  geo:
    lat: 43.60065
    lng: -83.8878
  phone: 989-928-3566
  website: https://www.recoverypathwaysllc.com
  sources:
  - samhsa/findtreatment
  verified:
    'on': '2026-07-19'
    method: api
- id: mi/bay-city/sacred-heart-rehabilitation-center
  name: Sacred Heart Rehabilitation Center
  categories:
  - su-treatment
  address:
    street: 1106 Washington Avenue
    city: Bay City
    state: mi
    zip: '48708'
  place: '2606020'
  geo:
    lat: 43.60137
    lng: -83.88693
  phone: 989-894-2991
  website: https://www.sacredheartcenter.com
  sources:
  - samhsa/findtreatment
  verified:
    'on': '2026-07-19'
    method: api
- id: mi/bay-city/smith-food-pantry
  name: Smith food pantry
  categories:
  - food-pantry
  place: '2606020'
  geo:
    lat: 43.60306
    lng: -83.87087
  external_ids:
    lfp: '4906'
  sources:
  - littlefreepantry/map
  verified:
    'on': '2026-07-19'
    method: scrape
- id: mi/bay-city/smith-food-pantry-and-giving-box
  name: Smith food pantry and giving box
  categories:
  - food-pantry
  place: '2606020'
  geo:
    lat: 43.60306
    lng: -83.87087
  external_ids:
    lfp: '4231'
  sources:
  - littlefreepantry/map
  verified:
    'on': '2026-07-19'
    method: scrape
- id: mi/bay-city/sun-and-moon-midland-st
  name: Sun and moon (midland st)
  categories:
  - food-pantry
  place: '2606020'
  geo:
    lat: 43.60218
    lng: -83.89893
  external_ids:
    lfp: '4978'
  sources:
  - littlefreepantry/map
  verified:
    'on': '2026-07-19'
    method: scrape
- id: mi/bay-city/the-compassion-cabinet
  name: The Compassion Cabinet
  categories:
  - food-pantry
  place: '2606020'
  geo:
    lat: 43.59376
    lng: -83.88217
  external_ids:
    lfp: '4369'
  sources:
  - littlefreepantry/map
  verified:
    'on': '2026-07-19'
    method: scrape
- id: mi/bay-city/wellspring-lutheran-services
  name: Wellspring Lutheran Services
  categories:
  - mh-treatment
  address:
    street: 6019 West Side Saginaw Road
    city: Bay City
    state: mi
    zip: '48707'
  place: '2606020'
  geo:
    lat: 43.56507
    lng: -83.93801
  phone: 989-448-8540
  website: https://www.wellspringlutheran.com/behavioral-health.com
  sources:
  - samhsa/findtreatment
  verified:
    'on': '2026-07-19'
    method: api
- id: mi/bay-city/wicked-blessing-box
  name: WICKED BLESSING BOX
  categories:
  - food-pantry
  place: '2606020'
  geo:
    lat: 43.5739
    lng: -83.89338
  external_ids:
    lfp: '3735'
  sources:
  - littlefreepantry/map
  verified:
    'on': '2026-07-19'
    method: scrape
