- id: mi/belleville/belleville
  name: Belleville
  categories:
  - child-care
  address:
    street: 45201 Owen St
    city: Belleville
    state: mi
    zip: '48111'
  place: '2607020'
  geo:
    lat: 42.19664
    lng: -83.48128
  phone: 734-785-7708
  sources:
  - acf/head-start-locations
  verified:
    'on': '2026-07-19'
    method: api
- id: mi/belleville/community-corner
  name: Community Corner
  categories:
  - food-pantry
  place: '2607020'
  geo:
    lat: 42.16681
    lng: -83.49782
  external_ids:
    lfp: '4561'
  sources:
  - littlefreepantry/map
  verified:
    'on': '2026-07-19'
    method: scrape
- id: mi/belleville/community-cupboard
  name: Community Cupboard
  categories:
  - food-pantry
  place: '2607020'
  geo:
    lat: 42.20797
    lng: -83.48975
  external_ids:
    lfp: '887'
  sources:
  - littlefreepantry/map
  verified:
    'on': '2026-07-19'
    method: scrape
- id: mi/belleville/edgemont-neighborhood-community-cupboard
  name: Edgemont Neighborhood Community Cupboard
  categories:
  - food-pantry
  place: '2607020'
  geo:
    lat: 42.20636
    lng: -83.47453
  external_ids:
    lfp: '5225'
  sources:
  - littlefreepantry/map
  verified:
    'on': '2026-07-19'
    method: scrape
- id: mi/belleville/haggerty-sub-blessing-box
  name: Haggerty Sub Blessing Box
  categories:
  - food-pantry
  place: '2607020'
  geo:
    lat: 42.23177
    lng: -83.45329
  external_ids:
    lfp: '4341'
  sources:
  - littlefreepantry/map
  verified:
    'on': '2026-07-19'
    method: scrape
- id: mi/belleville/willis-gifting-pantry
  name: Willis Gifting Pantry
  categories:
  - food-pantry
  place: '2607020'
  geo:
    lat: 42.15855
    lng: -83.55892
  external_ids:
    lfp: '4629'
  sources:
  - littlefreepantry/map
  verified:
    'on': '2026-07-19'
    method: scrape
