- id: mi/belleville/belleville
  name: Belleville
  categories:
  - child-care
  address:
    street: 45201 Owen St
    city: Belleville
    state: mi
    zip: '48111'
  place: '2607020'
  geo:
    lat: 42.19664
    lng: -83.48128
  phone: 734-785-7708
  sources:
  - acf/head-start-locations
  verified:
    'on': '2026-07-19'
    method: api
- id: mi/belleville/belleville-high-school-824300264
  name: Belleville High School - 824300264
  categories:
  - meal-program
  address: {street: 501 W Columbia Ave, city: Belleville, state: mi, zip: '48111'}
  description: Free summer meals for kids and teens (2026 season) — sponsored by Van Buren Public Schools
    - 82430.
  place: '2607020'
  geo: {lat: 42.1987, lng: -83.49399}
  phone: (734) 697-1054
  external_ids: {usda_master: Cycle 08_MI_SFSP_0076}
  sources:
  - usda/summer-meal-sites
  verified: {'on': '2026-07-19', method: api}
- id: mi/belleville/community-corner
  name: Community Corner
  categories:
  - food-pantry
  place: '2607020'
  geo:
    lat: 42.16681
    lng: -83.49782
  website: https://mapping.littlefreepantry.org/pantry/4561
  external_ids:
    lfp: '4561'
  sources:
  - littlefreepantry/map
  verified:
    'on': '2026-07-19'
    method: scrape
- id: mi/belleville/community-cupboard
  name: Community Cupboard
  categories:
  - food-pantry
  place: '2607020'
  geo:
    lat: 42.20797
    lng: -83.48975
  website: https://mapping.littlefreepantry.org/pantry/887
  external_ids:
    lfp: '887'
  sources:
  - littlefreepantry/map
  verified:
    'on': '2026-07-19'
    method: scrape
- id: mi/belleville/edgemont-elementary-school-824301071
  name: Edgemont Elementary School - 824301071
  categories:
  - meal-program
  address: {street: 125 Edgemont St, city: Belleville, state: mi, zip: '48111'}
  description: Free summer meals for kids and teens (2026 season) — sponsored by Van Buren Public Schools
    - 82430.
  place: '2607020'
  geo: {lat: 42.20618, lng: -83.47432}
  phone: (734) 697-1054
  external_ids: {usda_master: Cycle 08_MI_SFSP_0350}
  sources:
  - usda/summer-meal-sites
  verified: {'on': '2026-07-19', method: api}
- id: mi/belleville/edgemont-neighborhood-community-cupboard
  name: Edgemont Neighborhood Community Cupboard
  categories:
  - food-pantry
  place: '2607020'
  geo:
    lat: 42.20636
    lng: -83.47453
  website: https://mapping.littlefreepantry.org/pantry/5225
  external_ids:
    lfp: '5225'
  sources:
  - littlefreepantry/map
  verified:
    'on': '2026-07-19'
    method: scrape
- id: mi/belleville/haggerty-sub-blessing-box
  name: Haggerty Sub Blessing Box
  categories:
  - food-pantry
  place: '2607020'
  geo:
    lat: 42.23177
    lng: -83.45329
  website: https://mapping.littlefreepantry.org/pantry/4341
  external_ids:
    lfp: '4341'
  sources:
  - littlefreepantry/map
  verified:
    'on': '2026-07-19'
    method: scrape
- id: mi/belleville/rawsonville-woods-81m000044
  name: Rawsonville Woods - 81M000044
  categories:
  - meal-program
  address: {street: 10825 Rawsonville Rd, city: Belleville, state: mi, zip: '48111'}
  description: Free summer meals for kids and teens (2026 season) — sponsored by Food Gatherers - 81SF05000.
  place: '2607020'
  geo: {lat: 42.13085, lng: -83.53474}
  phone: (734) 761-2796
  external_ids: {usda_master: Cycle 07_MI_SFSP_0154}
  sources:
  - usda/summer-meal-sites
  verified: {'on': '2026-07-19', method: api}
- id: mi/belleville/willis-gifting-pantry
  name: Willis Gifting Pantry
  categories:
  - food-pantry
  place: '2607020'
  geo:
    lat: 42.15855
    lng: -83.55892
  website: https://mapping.littlefreepantry.org/pantry/4629
  external_ids:
    lfp: '4629'
  sources:
  - littlefreepantry/map
  verified:
    'on': '2026-07-19'
    method: scrape
