- id: mi/benton-harbor/battle-creek-vamc-benton-harbor-cboc
  name: Battle Creek VAMC Benton Harbor CBOC
  categories:
  - su-treatment
  - mh-treatment
  address:
    street: 1275 Mall Drive
    city: Benton Harbor
    state: mi
    zip: '49022'
  place: '2607520'
  geo:
    lat: 42.08172
    lng: -86.4248
  phone: 269-934-9123
  website: https://www.va.gov/battle-creek-health-care/locations/benton-harbor-va-clinic/
  sources:
  - samhsa/findtreatment
  verified:
    'on': '2026-07-19'
    method: api
- id: mi/benton-harbor/benton-harbor-head-start
  name: Benton Harbor Head Start
  categories:
  - child-care
  address:
    street: 465 McCord
    city: Benton Harbor
    state: mi
    zip: '49022'
  place: '2607520'
  geo:
    lat: 42.12273
    lng: -86.44024
  phone: 269-757-0030
  sources:
  - acf/head-start-locations
  verified:
    'on': '2026-07-19'
    method: api
- id: mi/benton-harbor/benton-township-housing-commission
  name: Benton Township Housing Commission
  categories:
  - housing-assistance
  address: {street: 1216 Blossom Ln, city: Benton Harbor, state: mi, zip: '49022'}
  description: Public housing and Housing Choice Voucher agency
  place: '2607520'
  geo: {lat: 42.11463, lng: -86.42888}
  phone: 269-927-3541
  sources:
  - hud/resource-locator
  verified: {'on': '2026-07-19', method: api}
- id: mi/benton-harbor/berrien-mental-health-authority-dba-riverwood-ce
  name: Berrien Mental Health Authority DBA Riverwood Center
  categories:
  - su-treatment
  - mh-treatment
  address:
    street: 1485 M139
    city: Benton Harbor
    state: mi
    zip: '49022'
  place: '2607520'
  geo:
    lat: 42.09111
    lng: -86.43538
  phone: 269-925-0585
  website: https://www.riverwoodcenter.org
  sources:
  - samhsa/findtreatment
  verified:
    'on': '2026-07-19'
    method: api
- id: mi/benton-harbor/harbortown-treatment-center-pllc
  name: Harbortown Treatment Center PLLC
  categories:
  - su-treatment
  address:
    street: 1022 East Main Street
    city: Benton Harbor
    state: mi
    zip: '49022'
  place: '2607520'
  geo:
    lat: 42.11742
    lng: -86.43403
  phone: 269-926-0015 x110
  website: https://www.harbortownclinic.com
  sources:
  - samhsa/findtreatment
  verified:
    'on': '2026-07-19'
    method: api
- id: mi/benton-harbor/intercare-benton-harbor
  name: INTERCARE BENTON HARBOR
  categories:
  - community-health-center
  address:
    street: 800 M 139
    city: Benton Harbor
    state: mi
    zip: '49022'
  place: '2607520'
  geo:
    lat: 42.10228
    lng: -86.43601
  phone: 855-869-6900
  external_ids:
    bphc: BPS-H80-010896
  sources:
  - hrsa/health-center-sites
  verified:
    'on': '2026-07-19'
    method: api
- id: mi/benton-harbor/intercare-child-and-adolescent-health-center
  name: INTERCARE CHILD AND ADOLESCENT HEALTH CENTER
  categories:
  - community-health-center
  address:
    street: 870 Colfax Ave
    city: Benton Harbor
    state: mi
    zip: '49022'
  place: '2607520'
  geo:
    lat: 42.10248
    lng: -86.4568
  phone: 269-605-1277
  website: https://www.intercare.org
  external_ids:
    bphc: BPS-H80-007934
  sources:
  - hrsa/health-center-sites
  verified:
    'on': '2026-07-19'
    method: api
- id: mi/benton-harbor/intercare-community-health-network-intercare-ben
  name: InterCare Community Health Network InterCare Benton Harbor
  categories:
  - su-treatment
  - mh-treatment
  address:
    city: Benton Harbor
    state: mi
    zip: '49022'
  place: '2607520'
  phone: 855-869-6900
  website: https://www.intercare.org
  sources:
  - samhsa/findtreatment
  verified:
    'on': '2026-07-19'
    method: api
- id: mi/benton-harbor/intercare-women-s-health-center
  name: InterCare Women's Health Center
  categories:
  - community-health-center
  address:
    street: 796 M 139
    city: Benton Harbor
    state: mi
    zip: '49022'
  place: '2607520'
  geo:
    lat: 42.10356
    lng: -86.43564
  phone: 855-869-6900
  website: https://www.intercare.org
  external_ids:
    bphc: BPS-H80-017909
  sources:
  - hrsa/health-center-sites
  verified:
    'on': '2026-07-19'
    method: api
- id: mi/benton-harbor/kalamazoo-probation-enhancement-program
  name: Kalamazoo Probation Enhancement Program
  categories:
  - su-treatment
  - mh-treatment
  address:
    street: 497 Waukonda Avenue
    city: Benton Harbor
    state: mi
    zip: '49022'
  place: '2607520'
  geo:
    lat: 42.12426
    lng: -86.44581
  phone: 269-903-0525
  website: https://www.KPEP.com
  sources:
  - samhsa/findtreatment
  verified:
    'on': '2026-07-19'
    method: api
- id: mi/benton-harbor/millburg-campus
  name: Millburg Campus
  categories:
  - child-care
  address:
    street: 4821 North St
    city: Benton Harbor
    state: mi
    zip: '49022'
  place: '2607520'
  geo:
    lat: 42.12368
    lng: -86.34022
  phone: 269-849-8490
  sources:
  - acf/head-start-locations
  verified:
    'on': '2026-07-19'
    method: api
- id: mi/benton-harbor/spinks-corner-migrant-early-head-start
  name: Spinks Corner Migrant Early Head Start
  categories:
  - child-care
  address:
    street: 1720 S Park Rd
    city: Benton Harbor
    state: mi
    zip: '49022'
  place: '2607520'
  geo:
    lat: 42.09316
    lng: -86.32031
  phone: 269-944-4042
  sources:
  - acf/head-start-locations
  verified:
    'on': '2026-07-19'
    method: api
