- id: mi/brighton/brighton
  name: Brighton
  categories:
  - child-care
  address:
    street: 850 Spencer Rd
    city: Brighton
    state: mi
    zip: '48116'
  place: '2610620'
  geo:
    lat: 42.52755
    lng: -83.77331
  phone: 517-548-2100
  sources:
  - acf/head-start-locations
  verified:
    'on': '2026-07-19'
    method: api
- id: mi/brighton/brighton-center-inc
  name: Brighton Center Inc
  categories:
  - su-treatment
  address:
    street: 2512 Harte Drive
    city: Brighton
    state: mi
    zip: '48114'
  place: '2610620'
  geo:
    lat: 42.56541
    lng: -83.80685
  phone: 810-229-9220
  website: https://www.brightonctr.com
  sources:
  - samhsa/findtreatment
  verified:
    'on': '2026-07-19'
    method: api
- id: mi/brighton/complete-counseling-center-inc
  name: Complete Counseling Center Inc
  categories:
  - su-treatment
  address:
    street: 738 West Grand River Avenue
    city: Brighton
    state: mi
    zip: '48116'
  place: '2610620'
  geo:
    lat: 42.53501
    lng: -83.78317
  phone: 517-546-4445
  website: https://CompleteCounseling.org
  sources:
  - samhsa/findtreatment
  verified:
    'on': '2026-07-19'
    method: api
- id: mi/brighton/henry-ford-brighton-ctr-for-recovery-for-recover
  name: Henry Ford Brighton Ctr for Recovery for Recovery
  categories:
  - su-treatment
  address:
    street: 12851 Grand River Road
    city: Brighton
    state: mi
    zip: '48116'
  place: '2610620'
  geo:
    lat: 42.51968
    lng: -83.6957
  phone: 810-227-1211
  website: https://www.brightonrecovery.org
  sources:
  - samhsa/findtreatment
  verified:
    'on': '2026-07-19'
    method: api
- id: mi/brighton/life-stance-health
  name: Life Stance Health
  categories:
  - su-treatment
  - mh-treatment
  address:
    street: 2200 Genoa Business Park Drive
    city: Brighton
    state: mi
    zip: '48114'
  place: '2610620'
  geo:
    lat: 42.57064
    lng: -83.80677
  phone: 734-759-0000
  website: https://www.lifestance.com
  sources:
  - samhsa/findtreatment
  verified:
    'on': '2026-07-19'
    method: api
- id: mi/brighton/lifestance-health
  name: LifeStance Health
  categories:
  - su-treatment
  - mh-treatment
  address:
    street: 2200 Genoa Park Business Drive
    city: Brighton
    state: mi
    zip: '48114'
  place: '2610620'
  geo:
    lat: 42.55927
    lng: -83.83059
  phone: 810-220-2787
  website: https://www.lifestance.com
  sources:
  - samhsa/findtreatment
  verified:
    'on': '2026-07-19'
    method: api
- id: mi/brighton/sharing-is-caring
  name: Sharing is Caring
  categories:
  - food-pantry
  place: '2610620'
  geo:
    lat: 42.55093
    lng: -83.75992
  external_ids:
    lfp: '938'
  sources:
  - littlefreepantry/map
  verified:
    'on': '2026-07-19'
    method: scrape
- id: mi/brighton/spencer-free-pantry
  name: Spencer Free Pantry
  categories:
  - food-pantry
  place: '2610620'
  geo:
    lat: 42.53928
    lng: -83.73809
  external_ids:
    lfp: '4207'
  sources:
  - littlefreepantry/map
  verified:
    'on': '2026-07-19'
    method: scrape
