- id: mi/carleton/family-medical-center
  name: FAMILY MEDICAL CENTER
  categories:
  - community-health-center
  cost: sliding-scale
  address: {street: 130 Medical Center Dr, city: Carleton, state: mi, zip: '48117'}
  place: '2613220'
  geo: {lat: 42.05641, lng: -83.37921}
  phone: 734-654-2169
  website: https://www.familymedicalmi.org
  external_ids: {bphc: BPS-H80-000823}
  sources:
  - hrsa/health-center-sites
  verified: {'on': '2026-07-19', method: api}
- id: mi/carleton/family-medical-center-airport-school
  name: Family Medical Center - Airport School
  categories:
  - community-health-center
  cost: sliding-scale
  address: {street: 11330 Grafton Rd, city: Carleton, state: mi, zip: '48117'}
  place: '2613220'
  geo: {lat: 42.04036, lng: -83.37979}
  phone: 734-654-2169
  external_ids: {bphc: BPS-H80-021264}
  sources:
  - hrsa/health-center-sites
  verified: {'on': '2026-07-19', method: api}
- id: mi/carleton/family-medical-center-eyler-elementary
  name: Family Medical Center - Eyler Elementary
  categories:
  - community-health-center
  cost: sliding-scale
  address: {street: 1335 Carleton Rockwood Rd RM D, city: Carleton, state: mi, zip: '48117'}
  place: '2613220'
  geo: {lat: 42.06505, lng: -83.35296}
  phone: 734-654-2169
  external_ids: {bphc: BPS-H80-029863}
  sources:
  - hrsa/health-center-sites
  verified: {'on': '2026-07-19', method: api}
- id: mi/carleton/family-medical-center-neidermeier-elementary-sch
  name: Family Medical Center - Neidermeier Elementary School
  categories:
  - community-health-center
  cost: sliding-scale
  address: {street: 8400 Newport South  RM Speech, city: Carleton, state: mi, zip: '48117'}
  place: '2613220'
  geo: {lat: 42.05189, lng: -83.38534}
  phone: 734-654-2169
  external_ids: {bphc: BPS-H80-029862}
  sources:
  - hrsa/health-center-sites
  verified: {'on': '2026-07-19', method: api}
- id: mi/carleton/family-medical-center-ritter-elementary
  name: Family Medical Center - Ritter Elementary
  categories:
  - community-health-center
  cost: sliding-scale
  address: {street: Carleton Rockwood Rd, city: Carleton, state: mi, zip: '48117'}
  place: '2613220'
  geo: {lat: 42.06509, lng: -83.34768}
  phone: 734-654-2169
  external_ids: {bphc: BPS-H80-029979}
  sources:
  - hrsa/health-center-sites
  verified: {'on': '2026-07-19', method: api}
- id: mi/carleton/family-medical-center-sterling-elementary
  name: Family Medical Center - Sterling Elementary
  categories:
  - community-health-center
  cost: sliding-scale
  address: {street: 160 Fessner Rd RM 106, city: Carleton, state: mi, zip: '48117'}
  place: '2613220'
  geo: {lat: 42.04293, lng: -83.37846}
  phone: 734-654-2169
  external_ids: {bphc: BPS-H80-029978}
  sources:
  - hrsa/health-center-sites
  verified: {'on': '2026-07-19', method: api}
- id: mi/carleton/family-medical-center-wagar-middle-school
  name: Family Medical Center - Wagar Middle School
  categories:
  - community-health-center
  cost: sliding-scale
  address: {street: 11270 Grafton Rd RM 215, city: Carleton, state: mi, zip: '48117'}
  place: '2613220'
  geo: {lat: 42.03841, lng: -83.37973}
  phone: 734-654-2169
  external_ids: {bphc: BPS-H80-029904}
  sources:
  - hrsa/health-center-sites
  verified: {'on': '2026-07-19', method: api}
- id: mi/carleton/wagar-junior-high-school-580206362
  name: Wagar Junior High School - 580206362
  categories:
  - meal-program
  address: {street: 11200 Grafton Rd, city: Carleton, state: mi, zip: '48117'}
  description: Free summer meals for kids and teens (2026 season) — sponsored by Airport Community Schools
    - 58020.
  place: '2613220'
  geo: {lat: 42.0379, lng: -83.37973}
  phone: (734) 654-2414
  external_ids: {usda_master: Cycle 08_MI_SFSP_1226}
  sources:
  - usda/summer-meal-sites
  verified: {'on': '2026-07-19', method: api}
