- id: mi/cheboygan/alcona-health-center-cheboygan-campus
  name: Alcona Health Center Cheboygan Campus
  categories:
  - community-health-center
  address:
    street: 740 S Main St
    city: Cheboygan
    state: mi
    zip: '49721'
  place: '2615000'
  geo:
    lat: 45.63173
    lng: -84.48232
  phone: 231-627-3002
  external_ids:
    bphc: BPS-H80-031493
  sources:
  - hrsa/health-center-sites
  verified:
    'on': '2026-07-19'
    method: api
- id: mi/cheboygan/bear-river-outreach-outpatient
  name: Bear River Outreach Outpatient
  categories:
  - su-treatment
  address:
    street: 218 Water Street
    city: Cheboygan
    state: mi
    zip: '49721'
  place: '2615000'
  geo:
    lat: 45.64379
    lng: -84.47644
  phone: 231-751-0070
  website: https://www.bearriverhealth.com
  sources:
  - samhsa/findtreatment
  verified:
    'on': '2026-07-19'
    method: api
- id: mi/cheboygan/cheboygan-east-elementary-school
  name: CHEBOYGAN EAST ELEMENTARY SCHOOL
  categories:
  - community-health-center
  address:
    street: 440 Garfield Ave
    city: Cheboygan
    state: mi
    zip: '49721'
  place: '2615000'
  geo:
    lat: 45.63909
    lng: -84.46978
  phone: 231-627-5211
  external_ids:
    bphc: BPS-H80-014856
  sources:
  - hrsa/health-center-sites
  verified:
    'on': '2026-07-19'
    method: api
- id: mi/cheboygan/cheboygan-ecc
  name: Cheboygan  ECC
  categories:
  - child-care
  address:
    street: 512 Pine St
    city: Cheboygan
    state: mi
    zip: '49721'
  place: '2615000'
  geo:
    lat: 45.64462
    lng: -84.4818
  phone: 231-597-8287
  sources:
  - acf/head-start-locations
  verified:
    'on': '2026-07-19'
    method: api
- id: mi/cheboygan/cheboygan-high-school
  name: CHEBOYGAN HIGH SCHOOL
  categories:
  - community-health-center
  address:
    street: 801 W Lincoln Ave
    city: Cheboygan
    state: mi
    zip: '49721'
  place: '2615000'
  geo:
    lat: 45.63319
    lng: -84.49482
  phone: 231-627-7191
  external_ids:
    bphc: BPS-H80-021978
  sources:
  - hrsa/health-center-sites
  verified:
    'on': '2026-07-19'
    method: api
- id: mi/cheboygan/cheboygan-housing-commission
  name: Cheboygan Housing Commission
  categories:
  - housing-assistance
  address: {street: 659 Cuyler St, city: Cheboygan, state: mi, zip: '49721'}
  description: Public housing and Housing Choice Voucher agency
  place: '2615000'
  geo: {lat: 45.63488, lng: -84.48518}
  phone: 231-627-7189
  sources:
  - hud/resource-locator
  verified: {'on': '2026-07-19', method: api}
- id: mi/cheboygan/cheboygan-intermediate-school
  name: CHEBOYGAN INTERMEDIATE SCHOOL
  categories:
  - community-health-center
  address:
    street: 905 W Lincoln Ave
    city: Cheboygan
    state: mi
    zip: '49721'
  place: '2615000'
  geo:
    lat: 45.63193
    lng: -84.49692
  phone: 231-597-9585
  external_ids:
    bphc: BPS-H80-014458
  sources:
  - hrsa/health-center-sites
  verified:
    'on': '2026-07-19'
    method: api
- id: mi/cheboygan/cheboygan-inverness-academy
  name: CHEBOYGAN INVERNESS ACADEMY
  categories:
  - community-health-center
  address:
    street: 7461 N Straits Hwy
    city: Cheboygan
    state: mi
    zip: '49721'
  place: '2615000'
  geo:
    lat: 45.57139
    lng: -84.5241
  phone: 231-627-5613
  external_ids:
    bphc: BPS-H80-015262
  sources:
  - hrsa/health-center-sites
  verified:
    'on': '2026-07-19'
    method: api
- id: mi/cheboygan/cheboygan-outpatient-behavioral-and-family-servi
  name: Cheboygan Outpatient Behavioral and Family Services
  categories:
  - su-treatment
  address:
    street: 520 North Main Street
    city: Cheboygan
    state: mi
    zip: '49721'
  place: '2615000'
  geo:
    lat: 45.64731
    lng: -84.47393
  phone: 231-597-9235
  website: https://www.harborhall.com
  sources:
  - samhsa/findtreatment
  verified:
    'on': '2026-07-19'
    method: api
- id: mi/cheboygan/north-country-community-mh-doris-e-reed-center
  name: North Country Community MH  Doris E Reed Center
  categories:
  - su-treatment
  - mh-treatment
  address:
    street: 825 South Huron Street
    city: Cheboygan
    state: mi
    zip: '49721'
  place: '2615000'
  geo:
    lat: 45.63006
    lng: -84.48328
  phone: 231-627-5627
  website: https://www.norcocmh.org
  sources:
  - samhsa/findtreatment
  verified:
    'on': '2026-07-19'
    method: api
