- id: mi/delton/delton-early-head-start
  name: Delton Early Head Start
  categories:
  - child-care
  address:
    street: 10085 S M 43 Hwy
    city: Delton
    state: mi
    zip: '49046'
  description: Head Start early childhood program — 15 funded slots; operated by Community Action Agency
    of South Central Michigan.
  place: '2621560'
  geo:
    lat: 42.50656
    lng: -85.40884
  phone: 269-623-4461
  sources:
  - acf/head-start-locations
  verified:
    'on': '2026-07-19'
    method: api
- id: mi/delton/delton-kellogg-elem-school-080100901
  name: Delton Kellogg Elem. School - 080100901
  categories:
  - meal-program
  address:
    street: 327 N Grove St
    city: Delton
    state: mi
    zip: '49046'
  description: Free summer meals for kids and teens (2026 season) — sponsored by Delton Kellogg Schools
    - 08010.
  place: '2621560'
  geo:
    lat: 42.50189
    lng: -85.40844
  phone: (269) 623-1505
  external_ids:
    usda_master: Cycle 08_MI_SFSP_0283
  sources:
  - usda/summer-meal-sites
  verified:
    'on': '2026-07-19'
    method: api
- id: mi/delton/delton-kellogg-high-school-080100900
  name: Delton-Kellogg High School - 080100900
  categories:
  - meal-program
  address:
    street: 10425 Panther Pride
    city: Delton
    state: mi
    zip: '49046'
  description: Free summer meals for kids and teens (2026 season) — sponsored by Delton Kellogg Schools
    - 08010.
  place: '2621560'
  geo:
    lat: 42.50036
    lng: -85.41339
  phone: (269) 623-1505
  external_ids:
    usda_master: Cycle 08_MI_SFSP_0284
  sources:
  - usda/summer-meal-sites
  verified:
    'on': '2026-07-19'
    method: api
- id: mi/delton/mccallum-church
  name: McCallum Church
  org: mi/south-michigan-food-bank
  categories:
  - food-pantry
  address:
    street: 5505 Otis Lake Rd
    city: Delton
    state: mi
    zip: '49046'
  place: '2621560'
  sources:
  - foodbank/mi-south-michigan-food-bank
  verified:
    'on': '2026-07-20'
    method: scrape
  geo: {lat: 42.57385, lng: -85.42232}
- id: mi/delton/st-ambrose-church
  name: St. Ambrose Church
  org: mi/south-michigan-food-bank
  categories:
  - food-pantry
  address:
    street: 11137 Floria Rd
    city: Delton
    state: mi
    zip: '49046'
  place: '2621560'
  sources:
  - foodbank/mi-south-michigan-food-bank
  verified:
    'on': '2026-07-20'
    method: scrape
  geo: {lat: 42.48993, lng: -85.40905}
- id: mi/delton/united-methodist-church-food-pantry
  name: United Methodist Church Food Pantry
  org: mi/south-michigan-food-bank
  categories:
  - food-pantry
  address:
    street: 503 S Grove
    city: Delton
    state: mi
    zip: '49046'
  place: '2621560'
  phone: 269-948-9555
  sources:
  - foodbank/mi-south-michigan-food-bank
  verified:
    'on': '2026-07-20'
    method: scrape
  geo: {lat: 42.49616, lng: -85.40794}
