- id: mi/detroit/a-w-bright-beginnings
  name: A & W Bright Beginnings
  categories:
  - child-care
  address:
    street: 6565 Greenfield Rd
    city: Detroit
    state: mi
    zip: '48228'
  place: '2622000'
  geo:
    lat: 42.33929
    lng: -83.19647
  phone: 313-581-0665
  sources:
  - acf/head-start-locations
  verified:
    'on': '2026-07-19'
    method: api
- id: mi/detroit/advantage-health-centers-alexandrine
  name: Advantage Health Centers - Alexandrine
  categories:
  - community-health-center
  address:
    street: 101 E Alexandrine St
    city: Detroit
    state: mi
    zip: '48201'
  place: '2622000'
  geo:
    lat: 42.35162
    lng: -83.05863
  phone: 313-416-6251
  website: https://www.advantagehealth.org
  external_ids:
    bphc: BPS-H80-033478
  sources:
  - hrsa/health-center-sites
  verified:
    'on': '2026-07-19'
    method: api
- id: mi/detroit/advantage-health-centers-mcnichols
  name: Advantage health Centers-McNichols
  categories:
  - community-health-center
  address:
    street: 15400 W McNichols Rd
    city: Detroit
    state: mi
    zip: '48235'
  place: '2622000'
  geo:
    lat: 42.41627
    lng: -83.19849
  phone: 313-416-6262
  external_ids:
    bphc: BPS-H80-010295
  sources:
  - hrsa/health-center-sites
  verified:
    'on': '2026-07-19'
    method: api
- id: mi/detroit/advantage-health-centers-oakman
  name: Advantage Health Centers-Oakman
  categories:
  - community-health-center
  address:
    street: 1355 Oakman Blvd
    city: Detroit
    state: mi
    zip: '48238'
  place: '2622000'
  geo:
    lat: 42.39939
    lng: -83.12098
  phone: 313-416-6262
  website: https://www.ahcdetroit.org
  external_ids:
    bphc: BPS-H80-027245
  sources:
  - hrsa/health-center-sites
  verified:
    'on': '2026-07-19'
    method: api
- id: mi/detroit/agape-of-love-child-care-center
  name: Agape of Love Child Care Center
  categories:
  - child-care
  address:
    street: 16225 E Warren Ave
    city: Detroit
    state: mi
    zip: '48224'
  place: '2622000'
  geo:
    lat: 42.40234
    lng: -82.9407
  phone: 313-926-6987
  sources:
  - acf/head-start-locations
  verified:
    'on': '2026-07-19'
    method: api
- id: mi/detroit/all-well-being-services
  name: All Well Being Services
  categories:
  - su-treatment
  - mh-treatment
  address:
    street: 1413 Field Street
    city: Detroit
    state: mi
    zip: '48214'
  place: '2622000'
  geo:
    lat: 42.35274
    lng: -83.00389
  phone: 313-347-2070
  website: https://www.awbs.org
  sources:
  - samhsa/findtreatment
  verified:
    'on': '2026-07-19'
    method: api
- id: mi/detroit/american-indian-health-and-family-services-of-se
  name: American Indian Health and Family Services of SE Michigan
  categories:
  - su-treatment
  - mh-treatment
  address:
    street: 4880 Lawndale Street
    city: Detroit
    state: mi
    zip: '48210'
  place: '2622000'
  geo:
    lat: 42.32811
    lng: -83.14679
  phone: 313-846-3718
  website: https://www.aihfs.org
  sources:
  - samhsa/findtreatment
  verified:
    'on': '2026-07-19'
    method: api
- id: mi/detroit/angel-land-child-care-center
  name: Angel Land Child Care Center
  categories:
  - child-care
  address:
    street: 8641 Linwood St
    city: Detroit
    state: mi
    zip: '48206'
  place: '2622000'
  geo:
    lat: 42.36924
    lng: -83.10614
  phone: 313-506-9435
  sources:
  - acf/head-start-locations
  verified:
    'on': '2026-07-19'
    method: api
- id: mi/detroit/angel-s-of-essence-child-care-centre
  name: Angel's of Essence Child Care Centre
  categories:
  - child-care
  address:
    street: 19322 Wyoming St
    city: Detroit
    state: mi
    zip: '48221'
  place: '2622000'
  geo:
    lat: 42.4335
    lng: -83.16075
  phone: 313-341-4740
  sources:
  - acf/head-start-locations
  verified:
    'on': '2026-07-19'
    method: api
- id: mi/detroit/bibleway-i
  name: Bibleway I
  categories:
  - child-care
  address:
    street: 16431 Plymouth Rd
    city: Detroit
    state: mi
    zip: '48227'
  place: '2622000'
  geo:
    lat: 42.37217
    lng: -83.20801
  phone: 313-659-0142
  sources:
  - acf/head-start-locations
  verified:
    'on': '2026-07-19'
    method: api
- id: mi/detroit/bibleway-ii
  name: Bibleway II
  categories:
  - child-care
  address:
    street: 16401 Plymouth Rd
    city: Detroit
    state: mi
    zip: '48227'
  place: '2622000'
  geo:
    lat: 42.37214
    lng: -83.2073
  phone: 313-272-2048
  sources:
  - acf/head-start-locations
  verified:
    'on': '2026-07-19'
    method: api
- id: mi/detroit/blessed-beginnings
  name: Blessed Beginnings
  categories:
  - child-care
  address:
    street: 14050 E 8 Mile Rd
    city: Detroit
    state: mi
    zip: '48205'
  place: '2622000'
  geo:
    lat: 42.44921
    lng: -82.97951
  phone: 313-434-6669
  sources:
  - acf/head-start-locations
  verified:
    'on': '2026-07-19'
    method: api
- id: mi/detroit/burns-elementary-school
  name: Burns Elementary School
  categories:
  - community-health-center
  address:
    street: 14350 Terry St
    city: Detroit
    state: mi
    zip: '48227'
  place: '2622000'
  geo:
    lat: 42.39359
    lng: -83.19106
  phone: 734-654-2169
  external_ids:
    bphc: BPS-H80-038630
  sources:
  - hrsa/health-center-sites
  verified:
    'on': '2026-07-19'
    method: api
- id: mi/detroit/c-a-r-e-village
  name: C.A.R.E. Village
  categories:
  - child-care
  address:
    street: 11148 Harper Ave
    city: Detroit
    state: mi
    zip: '48213'
  place: '2622000'
  geo:
    lat: 42.39602
    lng: -82.99124
  phone: 313-285-1921
  sources:
  - acf/head-start-locations
  verified:
    'on': '2026-07-19'
    method: api
- id: mi/detroit/cecil
  name: Cecil
  categories:
  - child-care
  address:
    street: 5716 Cecil St
    city: Detroit
    state: mi
    zip: '48210'
  place: '2622000'
  geo:
    lat: 42.33847
    lng: -83.13706
  phone: 734-713-9740
  sources:
  - acf/head-start-locations
  verified:
    'on': '2026-07-19'
    method: api
- id: mi/detroit/cecil-2
  name: Cecil
  categories:
  - child-care
  address:
    street: 5690 Cecil St
    city: Detroit
    state: mi
    zip: '48210'
  place: '2622000'
  geo:
    lat: 42.33792
    lng: -83.13702
  phone: 313-897-3310
  sources:
  - acf/head-start-locations
  verified:
    'on': '2026-07-19'
    method: api
- id: mi/detroit/center-for-children
  name: Center for Children
  categories:
  - child-care
  address:
    street: 1550 Oakman Blvd
    city: Detroit
    state: mi
    zip: '48238'
  place: '2622000'
  geo:
    lat: 42.39915
    lng: -83.1251
  phone: 313-494-4400
  sources:
  - acf/head-start-locations
  verified:
    'on': '2026-07-19'
    method: api
- id: mi/detroit/centers-for-family-development-inc-hope
  name: Centers for Family Development Inc HOPE
  categories:
  - su-treatment
  - mh-treatment
  address:
    street: 2995 East Grand Boulevard
    city: Detroit
    state: mi
    zip: '48202'
  place: '2622000'
  geo:
    lat: 42.37124
    lng: -83.06916
  phone: 313-758-0150
  website: https://www.centersforfamilydevelopment.org/
  sources:
  - samhsa/findtreatment
  verified:
    'on': '2026-07-19'
    method: api
- id: mi/detroit/centers-for-family-development-inc-hope-2
  name: Centers for Family Development Inc HOPE
  categories:
  - su-treatment
  - mh-treatment
  address:
    street: 5555 Conner Street
    city: Detroit
    state: mi
    zip: '48213'
  place: '2622000'
  geo:
    lat: 42.39032
    lng: -82.98199
  phone: 313-758-0150
  website: https://www.centersforfamilydevelopment.org/
  sources:
  - samhsa/findtreatment
  verified:
    'on': '2026-07-19'
    method: api
- id: mi/detroit/central-ave
  name: Central Ave
  categories:
  - child-care
  address:
    street: 4330 Central St
    city: Detroit
    state: mi
    zip: '48210'
  place: '2622000'
  geo:
    lat: 42.32766
    lng: -83.13445
  phone: 844-849-5437
  sources:
  - acf/head-start-locations
  verified:
    'on': '2026-07-19'
    method: api
- id: mi/detroit/central-city-health
  name: Central City Health
  categories:
  - su-treatment
  - mh-treatment
  address:
    street: 10 Peterboro Street
    city: Detroit
    state: mi
    zip: '48201'
  place: '2622000'
  geo:
    lat: 42.34542
    lng: -83.05699
  phone: 313-831-3160
  website: https://www.centralcityhealth.com/
  sources:
  - samhsa/findtreatment
  verified:
    'on': '2026-07-19'
    method: api
- id: mi/detroit/central-city-health-3rd-ave
  name: Central City Health 3rd Ave
  categories:
  - community-health-center
  address:
    street: 1240 3rd St
    city: Detroit
    state: mi
    zip: '48226'
  place: '2622000'
  geo:
    lat: 42.33009
    lng: -83.05593
  phone: 313-578-6123
  external_ids:
    bphc: BPS-H80-037527
  sources:
  - hrsa/health-center-sites
  verified:
    'on': '2026-07-19'
    method: api
- id: mi/detroit/central-city-health-abbott
  name: Central City Health Abbott
  categories:
  - community-health-center
  address:
    street: 613 Abbott St
    city: Detroit
    state: mi
    zip: '48226'
  place: '2622000'
  geo:
    lat: 42.33034
    lng: -83.05537
  phone: 313-831-3160
  external_ids:
    bphc: BPS-H80-040017
  sources:
  - hrsa/health-center-sites
  verified:
    'on': '2026-07-19'
    method: api
- id: mi/detroit/central-city-health-mobile-van
  name: Central City Health Mobile Van
  categories:
  - community-health-center
  address:
    street: 10 Peterboro St
    city: Detroit
    state: mi
    zip: '48201'
  place: '2622000'
  geo:
    lat: 42.34543
    lng: -83.05708
  phone: 331-831-3160
  website: https://www.centralcityhealth.com/
  external_ids:
    bphc: BPS-H80-038923
  sources:
  - hrsa/health-center-sites
  verified:
    'on': '2026-07-19'
    method: api
- id: mi/detroit/cesar-chavez-health-services-center
  name: Cesar Chavez Health Services Center
  categories:
  - community-health-center
  address:
    street: 1761 Waterman St
    city: Detroit
    state: mi
    zip: '48209'
  place: '2622000'
  geo:
    lat: 42.31273
    lng: -83.11435
  phone: 313-849-3920
  website: https://www.chasscenter.org
  external_ids:
    bphc: BPS-H80-039626
  sources:
  - hrsa/health-center-sites
  verified:
    'on': '2026-07-19'
    method: api
- id: mi/detroit/chass-mack
  name: CHASS Mack
  categories:
  - community-health-center
  address:
    street: 3426 Mack Ave
    city: Detroit
    state: mi
    zip: '48207'
  place: '2622000'
  geo:
    lat: 42.35967
    lng: -83.02537
  phone: 313-849-3920
  website: https://www.chasscenter.org
  external_ids:
    bphc: BPS-H80-038815
  sources:
  - hrsa/health-center-sites
  verified:
    'on': '2026-07-19'
    method: api
- id: mi/detroit/chass-oakman
  name: CHASS Oakman
  categories:
  - community-health-center
  address:
    street: 882 Oakman Blvd
    city: Detroit
    state: mi
    zip: '48238'
  place: '2622000'
  geo:
    lat: 42.4029
    lng: -83.11405
  phone: 313-849-3920
  website: https://www.chasscenter.org
  external_ids:
    bphc: BPS-H80-033480
  sources:
  - hrsa/health-center-sites
  verified:
    'on': '2026-07-19'
    method: api
- id: mi/detroit/chass-pfc
  name: CHASS PFC
  categories:
  - community-health-center
  address:
    street: 2915 W Hancock St
    city: Detroit
    state: mi
    zip: '48208'
  place: '2622000'
  geo:
    lat: 42.3453
    lng: -83.09436
  phone: 313-849-3920
  website: https://www.chasscenter.org
  external_ids:
    bphc: BPS-H80-040495
  sources:
  - hrsa/health-center-sites
  verified:
    'on': '2026-07-19'
    method: api
- id: mi/detroit/chass-pope-francis-center
  name: CHASS Pope Francis Center
  categories:
  - su-treatment
  - mh-treatment
  address:
    street: 2915 West Hancock Street
    city: Detroit
    state: mi
    zip: '48208'
  place: '2622000'
  geo:
    lat: 42.34549
    lng: -83.09474
  phone: 313-524-2739
  website: https://www.chasscenter.org
  sources:
  - samhsa/findtreatment
  verified:
    'on': '2026-07-19'
    method: api
- id: mi/detroit/chass-southwest
  name: CHASS Southwest
  categories:
  - su-treatment
  - mh-treatment
  address:
    street: 5635 West Fort Street
    city: Detroit
    state: mi
    zip: '48209'
  place: '2622000'
  geo:
    lat: 42.30886
    lng: -83.09694
  phone: 313-849-3920
  website: https://www.chasscenter.org
  sources:
  - samhsa/findtreatment
  verified:
    'on': '2026-07-19'
    method: api
- id: mi/detroit/chass-woodward
  name: CHASS Woodward
  categories:
  - community-health-center
  address:
    street: 8600 Woodward Ave
    city: Detroit
    state: mi
    zip: '48202'
  place: '2622000'
  geo:
    lat: 42.37916
    lng: -83.07883
  phone: 313-849-3920
  external_ids:
    bphc: BPS-H80-036986
  sources:
  - hrsa/health-center-sites
  verified:
    'on': '2026-07-19'
    method: api
- id: mi/detroit/child-star-development-i
  name: Child Star Development I
  categories:
  - child-care
  address:
    street: 10340 W 7 Mile Rd
    city: Detroit
    state: mi
    zip: '48221'
  place: '2622000'
  geo:
    lat: 42.43133
    lng: -83.16465
  phone: 313-345-1410
  sources:
  - acf/head-start-locations
  verified:
    'on': '2026-07-19'
    method: api
- id: mi/detroit/childrens-center-of-wayne-county
  name: Childrens Center of Wayne County
  categories:
  - su-treatment
  - mh-treatment
  address:
    street: 79 West Alexandrine Street
    city: Detroit
    state: mi
    zip: '48201'
  place: '2622000'
  geo:
    lat: 42.34982
    lng: -83.06119
  phone: 313-831-5535
  website: https://www.thechildrenscenter.com
  sources:
  - samhsa/findtreatment
  verified:
    'on': '2026-07-19'
    method: api
- id: mi/detroit/childrens-center-of-wayne-county-2
  name: Childrens Center of Wayne County
  categories:
  - su-treatment
  - mh-treatment
  address:
    street: 90 Selden Street
    city: Detroit
    state: mi
    zip: '48201'
  place: '2622000'
  geo:
    lat: 42.3491
    lng: -83.06113
  phone: 313-831-5535
  website: https://www.thechildrenscenter.com
  sources:
  - samhsa/findtreatment
  verified:
    'on': '2026-07-19'
    method: api
- id: mi/detroit/citadel
  name: Citadel
  categories:
  - child-care
  address:
    street: 14595 Heyden St
    city: Detroit
    state: mi
    zip: '48223'
  place: '2622000'
  geo:
    lat: 42.3948
    lng: -83.23964
  phone: 313-533-3947
  sources:
  - acf/head-start-locations
  verified:
    'on': '2026-07-19'
    method: api
- id: mi/detroit/coalition-on-temporary-shelter-cots
  name: Coalition on Temporary Shelter (COTS)
  categories:
  - child-care
  address:
    street: 16630 Wyoming St
    city: Detroit
    state: mi
    zip: '48221'
  place: '2622000'
  geo:
    lat: 42.41418
    lng: -83.15967
  phone: 313-341-9568
  sources:
  - acf/head-start-locations
  verified:
    'on': '2026-07-19'
    method: api
- id: mi/detroit/community-health-and-social-services-chass
  name: COMMUNITY HEALTH AND SOCIAL SERVICES (CHASS)
  categories:
  - community-health-center
  address:
    street: 5635 W Fort St
    city: Detroit
    state: mi
    zip: '48209'
  place: '2622000'
  geo:
    lat: 42.30891
    lng: -83.09693
  phone: 313-849-3920
  website: https://www.chasscenter.org
  external_ids:
    bphc: BPS-H80-003073
  sources:
  - hrsa/health-center-sites
  verified:
    'on': '2026-07-19'
    method: api
- id: mi/detroit/corpus-christi
  name: Corpus Christi
  categories:
  - child-care
  address:
    street: 19900 Evergreen Rd
    city: Detroit
    state: mi
    zip: '48219'
  place: '2622000'
  geo:
    lat: 42.43765
    lng: -83.23778
  phone: 313-326-4238
  sources:
  - acf/head-start-locations
  verified:
    'on': '2026-07-19'
    method: api
- id: mi/detroit/cots-peggy-s-place
  name: COTS Peggy's Place
  categories:
  - child-care
  address:
    street: 16630 Wyoming St
    city: Detroit
    state: mi
    zip: '48221'
  place: '2622000'
  geo:
    lat: 42.41419
    lng: -83.15959
  phone: 313-530-2233
  sources:
  - acf/head-start-locations
  verified:
    'on': '2026-07-19'
    method: api
- id: mi/detroit/covenant-17625-joy-road
  name: Covenant 17625 Joy Road
  categories:
  - community-health-center
  address:
    street: 17625 Joy Rd
    city: Detroit
    state: mi
    zip: '48228'
  place: '2622000'
  geo:
    lat: 42.35748
    lng: -83.21433
  phone: 313-446-8800
  website: https://www.covenantcommunitycare.org
  external_ids:
    bphc: BPS-H80-024554
  sources:
  - hrsa/health-center-sites
  verified:
    'on': '2026-07-19'
    method: api
- id: mi/detroit/covenant-community-care-inc
  name: COVENANT COMMUNITY CARE INC.
  categories:
  - community-health-center
  address:
    street: 559 W Grand Blvd
    city: Detroit
    state: mi
    zip: '48216'
  place: '2622000'
  geo:
    lat: 42.32443
    lng: -83.09086
  phone: 313-554-1095
  external_ids:
    bphc: BPS-H80-002928
  sources:
  - hrsa/health-center-sites
  verified:
    'on': '2026-07-19'
    method: api
- id: mi/detroit/covenant-community-care-inc-2
  name: Covenant Community Care, Inc.
  categories:
  - community-health-center
  address:
    street: 1700 Waterman St
    city: Detroit
    state: mi
    zip: '48209'
  place: '2622000'
  geo:
    lat: 42.31236
    lng: -83.11334
  phone: 313-841-1699
  external_ids:
    bphc: BPS-H80-001836
  sources:
  - hrsa/health-center-sites
  verified:
    'on': '2026-07-19'
    method: api
- id: mi/detroit/covenant-house
  name: Covenant House
  categories:
  - child-care
  address:
    street: 1450 25th St
    city: Detroit
    state: mi
    zip: '48216'
  place: '2622000'
  geo:
    lat: 42.32053
    lng: -83.08554
  phone: 734-713-9760
  sources:
  - acf/head-start-locations
  verified:
    'on': '2026-07-19'
    method: api
- id: mi/detroit/covenant-michigan-avenue-clinic-suites-1100-2100
  name: 'Covenant Michigan Avenue Clinic: Suites 1100, 2100, 2300, 5728'
  categories:
  - community-health-center
  address:
    street: 5716 Michigan Ave
    city: Detroit
    state: mi
    zip: '48210'
  place: '2622000'
  geo:
    lat: 42.33139
    lng: -83.11372
  phone: 313-554-1095
  external_ids:
    bphc: BPS-H80-010460
  sources:
  - hrsa/health-center-sites
  verified:
    'on': '2026-07-19'
    method: api
- id: mi/detroit/covenant-mobile-medical-vehicle
  name: Covenant Mobile Medical Vehicle
  categories:
  - community-health-center
  address:
    street: 559 W Grand Blvd
    city: Detroit
    state: mi
    zip: '48216'
  place: '2622000'
  geo:
    lat: 42.32443
    lng: -83.09086
  phone: 313-554-0485
  external_ids:
    bphc: BPS-H80-022120
  sources:
  - hrsa/health-center-sites
  verified:
    'on': '2026-07-19'
    method: api
- id: mi/detroit/creative-learning-children-s-college
  name: Creative Learning Children's College
  categories:
  - child-care
  address:
    street: 20111 Greenfield Rd
    city: Detroit
    state: mi
    zip: '48235'
  place: '2622000'
  geo:
    lat: 42.44033
    lng: -83.20076
  phone: 313-653-2300
  sources:
  - acf/head-start-locations
  verified:
    'on': '2026-07-19'
    method: api
- id: mi/detroit/detroit-central-city-administrative-site
  name: Detroit Central City Administrative Site
  categories:
  - community-health-center
  address:
    street: 10 Peterboro St
    city: Detroit
    state: mi
    zip: '48201'
  place: '2622000'
  geo:
    lat: 42.34543
    lng: -83.05708
  phone: 313-831-3160
  external_ids:
    bphc: BPS-H80-014084
  sources:
  - hrsa/health-center-sites
  verified:
    'on': '2026-07-19'
    method: api
- id: mi/detroit/detroit-central-city-health-center
  name: Detroit Central City Health Center
  categories:
  - community-health-center
  address:
    street: 3427 Woodward Ave
    city: Detroit
    state: mi
    zip: '48201'
  place: '2622000'
  geo:
    lat: 42.34554
    lng: -83.057
  phone: 313-831-3160
  website: https://www.centralcityhealth.com
  external_ids:
    bphc: BPS-H80-029750
  sources:
  - hrsa/health-center-sites
  verified:
    'on': '2026-07-19'
    method: api
- id: mi/detroit/detroit-community-health-connection-woodward-cor
  name: Detroit Community Health Connection Woodward Corridor
  categories:
  - mh-treatment
  address:
    street: 611 Martin Luther King Blvd
    city: Detroit
    state: mi
    zip: '48201'
  place: '2622000'
  geo:
    lat: 42.34445
    lng: -83.06358
  phone: 313-832-6300
  website: https://www.dchcquality.org
  sources:
  - samhsa/findtreatment
  verified:
    'on': '2026-07-19'
    method: api
- id: mi/detroit/detroit-health-care-for-the-homeless-dba-advanta
  name: Detroit Health Care for the Homeless dba Advantage Health Centers Administrative Site
  categories:
  - community-health-center
  address:
    street: '100 River Place Dr, #450'
    city: Detroit
    state: mi
    zip: '48207'
  place: '2622000'
  geo:
    lat: 42.33607
    lng: -83.01621
  phone: 313-416-6262
  website: https://www.ahcdetroit.org
  external_ids:
    bphc: BPS-H80-030421
  sources:
  - hrsa/health-center-sites
  verified:
    'on': '2026-07-19'
    method: api
- id: mi/detroit/detroit-housing-commission
  name: Detroit Housing Commission
  categories:
  - housing-assistance
  address: {street: 1301 E Jefferson Ave, city: Detroit, state: mi, zip: '48207'}
  description: Public housing and Housing Choice Voucher agency
  place: '2622000'
  geo: {lat: 42.33377, lng: -83.03336}
  phone: 313-877-8000
  sources:
  - hud/resource-locator
  verified: {'on': '2026-07-19', method: api}
- id: mi/detroit/detroit-recovery-project-health-and-wellness-rec
  name: Detroit Recovery Project Health and Wellness Recov Resource
  categories:
  - su-treatment
  - mh-treatment
  address:
    street: 1145 West Grand Boulevard
    city: Detroit
    state: mi
    zip: '48208'
  place: '2622000'
  geo:
    lat: 42.33499
    lng: -83.1015
  phone: 313-324-8900
  website: https://www.recovery4detroit.com
  sources:
  - samhsa/findtreatment
  verified:
    'on': '2026-07-19'
    method: api
- id: mi/detroit/detroit-rescue-mission-ministries-christian-guid
  name: Detroit Rescue Mission Ministries Christian Guidance Center
  categories:
  - su-treatment
  address:
    street: 19211 Anglin Street
    city: Detroit
    state: mi
    zip: '48234'
  place: '2622000'
  geo:
    lat: 42.43467
    lng: -83.07601
  phone: 313-263-0077 x4013
  website: https://www.drmm.org
  sources:
  - samhsa/findtreatment
  verified:
    'on': '2026-07-19'
    method: api
- id: mi/detroit/development-centers-inc-adult-services
  name: Development Centers Inc Adult Services
  categories:
  - su-treatment
  - mh-treatment
  address:
    street: 24424 West McNichols Road
    city: Detroit
    state: mi
    zip: '48219'
  place: '2622000'
  geo:
    lat: 42.4147
    lng: -83.28144
  phone: 313-531-2500
  website: https://www.miside.org
  sources:
  - samhsa/findtreatment
  verified:
    'on': '2026-07-19'
    method: api
- id: mi/detroit/development-centers-inc-mckenny-center
  name: Development Centers Inc McKenny Center
  categories:
  - su-treatment
  - mh-treatment
  address:
    street: 19750 Burt Road
    city: Detroit
    state: mi
    zip: '48219'
  place: '2622000'
  geo:
    lat: 42.43568
    lng: -83.24806
  phone: 313-255-0900
  website: https://www.miside.org
  sources:
  - samhsa/findtreatment
  verified:
    'on': '2026-07-19'
    method: api
- id: mi/detroit/development-centers-inc-youth-and-fam-servs-acce
  name: Development Centers Inc Youth and Fam Servs/Access Dept
  categories:
  - su-treatment
  - mh-treatment
  address:
    street: 17321 Telegraph Road
    city: Detroit
    state: mi
    zip: '48219'
  place: '2622000'
  geo:
    lat: 42.41728
    lng: -83.27782
  phone: 313-255-0900
  website: https://www.develctrs.org
  sources:
  - samhsa/findtreatment
  verified:
    'on': '2026-07-19'
    method: api
- id: mi/detroit/dr-feleta-wilson-health-center
  name: Dr. Feleta Wilson Health Center
  categories:
  - community-health-center
  address:
    street: 6550 W Warren Ave
    city: Detroit
    state: mi
    zip: '48210'
  place: '2622000'
  geo:
    lat: 42.34524
    lng: -83.13497
  phone: 313-897-7700
  website: https://www.dchcquality.org
  external_ids:
    bphc: BPS-H80-005491
  sources:
  - hrsa/health-center-sites
  verified:
    'on': '2026-07-19'
    method: api
- id: mi/detroit/dr-sophie-womack-health-center
  name: Dr. Sophie Womack Health Center
  categories:
  - community-health-center
  address:
    street: 7900 Kercheval St
    city: Detroit
    state: mi
    zip: '48214'
  place: '2622000'
  geo:
    lat: 42.35772
    lng: -83.00053
  phone: 313-921-5500
  website: https://www.dchcquality.org
  external_ids:
    bphc: BPS-H80-005215
  sources:
  - hrsa/health-center-sites
  verified:
    'on': '2026-07-19'
    method: api
- id: mi/detroit/durfee-innovation-society
  name: Durfee Innovation Society
  categories:
  - child-care
  address:
    street: 2470 Collingwood St
    city: Detroit
    state: mi
    zip: '48206'
  place: '2622000'
  geo:
    lat: 42.38227
    lng: -83.11086
  phone: 313-494-4423
  sources:
  - acf/head-start-locations
  verified:
    'on': '2026-07-19'
    method: api
- id: mi/detroit/east-jefferson-avenue
  name: East Jefferson Avenue
  categories:
  - community-health-center
  address:
    street: 7633 E Jefferson Ave, Ste 340
    city: Detroit
    state: mi
    zip: '48214'
  place: '2622000'
  geo:
    lat: 42.34925
    lng: -82.99823
  phone: 313-822-9801
  external_ids:
    bphc: BPS-LAL-009710
  sources:
  - hrsa/health-center-sites
  verified:
    'on': '2026-07-19'
    method: api
- id: mi/detroit/east-riverside-health-center
  name: East Riverside Health Center
  categories:
  - community-health-center
  address:
    street: 13901 E Jefferson Ave
    city: Detroit
    state: mi
    zip: '48215'
  place: '2622000'
  geo:
    lat: 42.37169
    lng: -82.94831
  phone: 313-822-0900
  website: https://www.dchcquality.org
  external_ids:
    bphc: BPS-H80-001835
  sources:
  - hrsa/health-center-sites
  verified:
    'on': '2026-07-19'
    method: api
- id: mi/detroit/edison-elementary-school
  name: Edison Elementary School
  categories:
  - community-health-center
  address:
    street: 17405 Grand River Ave
    city: Detroit
    state: mi
    zip: '48227'
  place: '2622000'
  geo:
    lat: 42.3988
    lng: -83.21381
  phone: 734-654-2169
  external_ids:
    bphc: BPS-H80-038631
  sources:
  - hrsa/health-center-sites
  verified:
    'on': '2026-07-19'
    method: api
- id: mi/detroit/elmhurst-home-recovery-housing-and-outpatient
  name: Elmhurst Home Recovery Housing and Outpatient
  categories:
  - su-treatment
  - mh-treatment
  address:
    street: 12019 Linwood Street
    city: Detroit
    state: mi
    zip: '48206'
  place: '2622000'
  geo:
    lat: 42.38473
    lng: -83.11668
  phone: 313-867-1090
  website: https://www.ehinc.org
  sources:
  - samhsa/findtreatment
  verified:
    'on': '2026-07-19'
    method: api
- id: mi/detroit/emmanuel-house-inc
  name: Emmanuel House Inc
  categories:
  - su-treatment
  address:
    city: Detroit
    state: mi
    zip: '48221'
  place: '2622000'
  phone: 313-618-7215
  website: https://www.emmanuelhouseforvets.org
  sources:
  - samhsa/findtreatment
  verified:
    'on': '2026-07-19'
    method: api
- id: mi/detroit/family-medical-center-barton-elementary
  name: Family Medical Center - Barton Elementary
  categories:
  - community-health-center
  address:
    street: 8530 Joy Rd
    city: Detroit
    state: mi
    zip: '48204'
  place: '2622000'
  geo:
    lat: 42.35911
    lng: -83.15415
  phone: 313-873-9952
  external_ids:
    bphc: BPS-H80-037815
  sources:
  - hrsa/health-center-sites
  verified:
    'on': '2026-07-19'
    method: api
- id: mi/detroit/family-medical-center-bates-academy
  name: Family Medical Center - Bates Academy
  categories:
  - community-health-center
  address:
    street: 19701 Wyoming St
    city: Detroit
    state: mi
    zip: '48221'
  place: '2622000'
  geo:
    lat: 42.43798
    lng: -83.16121
  phone: 313-494-7000
  external_ids:
    bphc: BPS-H80-037948
  sources:
  - hrsa/health-center-sites
  verified:
    'on': '2026-07-19'
    method: api
- id: mi/detroit/family-medical-center-carstens-school
  name: Family Medical Center - Carstens School
  categories:
  - community-health-center
  address:
    street: 13000 Essex Ave RM 211
    city: Detroit
    state: mi
    zip: '48215'
  place: '2622000'
  geo:
    lat: 42.36424
    lng: -82.9482
  phone: 734-654-2169
  external_ids:
    bphc: BPS-H80-024603
  sources:
  - hrsa/health-center-sites
  verified:
    'on': '2026-07-19'
    method: api
- id: mi/detroit/family-medical-center-cass-tech
  name: Family Medical Center - Cass Tech
  categories:
  - community-health-center
  address:
    street: 2501 2nd Ave FL 2
    city: Detroit
    state: mi
    zip: '48201'
  place: '2622000'
  geo:
    lat: 42.33899
    lng: -83.0596
  phone: 313-263-2000
  external_ids:
    bphc: BPS-H80-037816
  sources:
  - hrsa/health-center-sites
  verified:
    'on': '2026-07-19'
    method: api
- id: mi/detroit/family-medical-center-detroit-lions-academy
  name: Family Medical Center - Detroit Lions Academy
  categories:
  - community-health-center
  address:
    street: 2001 W Warren Ave
    city: Detroit
    state: mi
    zip: '48208'
  place: '2622000'
  geo:
    lat: 42.34948
    lng: -83.08361
  phone: 734-654-2169
  external_ids:
    bphc: BPS-H80-038085
  sources:
  - hrsa/health-center-sites
  verified:
    'on': '2026-07-19'
    method: api
- id: mi/detroit/family-medical-center-duke-ellington
  name: Family Medical Center - Duke Ellington
  categories:
  - community-health-center
  address:
    street: 9860 Park Dr
    city: Detroit
    state: mi
    zip: '48213'
  place: '2622000'
  geo:
    lat: 42.40787
    lng: -82.97991
  phone: 734-654-2169
  external_ids:
    bphc: BPS-H80-033940
  sources:
  - hrsa/health-center-sites
  verified:
    'on': '2026-07-19'
    method: api
- id: mi/detroit/family-medical-center-durfee-innovations-society
  name: Family Medical Center - Durfee Innovations Society
  categories:
  - community-health-center
  address:
    street: 2740 Collingwood St
    city: Detroit
    state: mi
    zip: '48206'
  place: '2622000'
  geo:
    lat: 42.37956
    lng: -83.11582
  phone: 734-654-2169
  external_ids:
    bphc: BPS-H80-030514
  sources:
  - hrsa/health-center-sites
  verified:
    'on': '2026-07-19'
    method: api
- id: mi/detroit/family-medical-center-durfee-school
  name: Family Medical Center - Durfee School
  categories:
  - community-health-center
  address:
    street: 2425 Tuxedo St RM 115
    city: Detroit
    state: mi
    zip: '48206'
  place: '2622000'
  geo:
    lat: 42.38472
    lng: -83.11267
  phone: 734-654-2169
  external_ids:
    bphc: BPS-H80-027384
  sources:
  - hrsa/health-center-sites
  verified:
    'on': '2026-07-19'
    method: api
- id: mi/detroit/family-medical-center-mackenzie-elementary-middl
  name: Family Medical Center - Mackenzie Elementary-Middle
  categories:
  - community-health-center
  address:
    street: 10147 W Chicago
    city: Detroit
    state: mi
    zip: '48204'
  place: '2622000'
  geo:
    lat: 42.36614
    lng: -83.15969
  phone: 313-416-6400
  external_ids:
    bphc: BPS-H80-037874
  sources:
  - hrsa/health-center-sites
  verified:
    'on': '2026-07-19'
    method: api
- id: mi/detroit/family-medical-center-mason-academy
  name: Family Medical Center - Mason Academy
  categories:
  - community-health-center
  address:
    street: 19955 Fenelon St
    city: Detroit
    state: mi
    zip: '48234'
  place: '2622000'
  geo:
    lat: 42.44226
    lng: -83.05379
  phone: 734-654-2169
  external_ids:
    bphc: BPS-H80-038628
  sources:
  - hrsa/health-center-sites
  verified:
    'on': '2026-07-19'
    method: api
- id: mi/detroit/family-medical-center-noble-elementary-middle-sc
  name: Family Medical Center - Noble Elementary-Middle School
  categories:
  - community-health-center
  address:
    street: 8646 Fullerton St
    city: Detroit
    state: mi
    zip: '48238'
  place: '2622000'
  geo:
    lat: 42.38084
    lng: -83.15602
  phone: 313-873-0377
  external_ids:
    bphc: BPS-H80-037872
  sources:
  - hrsa/health-center-sites
  verified:
    'on': '2026-07-19'
    method: api
- id: mi/detroit/family-medical-center-of-michigan-priest-element
  name: Family Medical Center of Michigan - Priest Elementary/Middle School
  categories:
  - community-health-center
  address:
    street: 7840 Wagner St
    city: Detroit
    state: mi
    zip: '48210'
  place: '2622000'
  geo:
    lat: 42.33636
    lng: -83.14373
  phone: 313-849-3750
  external_ids:
    bphc: BPS-H80-037878
  sources:
  - hrsa/health-center-sites
  verified:
    'on': '2026-07-19'
    method: api
- id: mi/detroit/family-medical-center-of-michigan-roberto-clemen
  name: Family Medical Center of Michigan - Roberto Clemente
  categories:
  - community-health-center
  address:
    street: 1551 Beard St
    city: Detroit
    state: mi
    zip: '48209'
  place: '2622000'
  geo:
    lat: 42.30987
    lng: -83.11537
  phone: 313-843-3489
  external_ids:
    bphc: BPS-H80-037875
  sources:
  - hrsa/health-center-sites
  verified:
    'on': '2026-07-19'
    method: api
- id: mi/detroit/family-medical-center-pasteur-elementary
  name: Family Medical Center - Pasteur Elementary
  categories:
  - community-health-center
  address:
    street: 19811 Stoepel St
    city: Detroit
    state: mi
    zip: '48221'
  place: '2622000'
  geo:
    lat: 42.43821
    lng: -83.14282
  phone: 313-484-7314
  external_ids:
    bphc: BPS-H80-037873
  sources:
  - hrsa/health-center-sites
  verified:
    'on': '2026-07-19'
    method: api
- id: mi/detroit/family-medical-center-pershing-high-school
  name: Family Medical Center - Pershing High School
  categories:
  - community-health-center
  address:
    street: 18875 Ryan Rd
    city: Detroit
    state: mi
    zip: '48234'
  place: '2622000'
  geo:
    lat: 42.43209
    lng: -83.06306
  phone: 313-866-7700
  external_ids:
    bphc: BPS-H80-037900
  sources:
  - hrsa/health-center-sites
  verified:
    'on': '2026-07-19'
    method: api
- id: mi/detroit/family-medical-center-sampson-webber-leadership
  name: Family Medical Center - Sampson-Webber Leadership Academy
  categories:
  - community-health-center
  address:
    street: 4700 Tireman St
    city: Detroit
    state: mi
    zip: '48204'
  place: '2622000'
  geo:
    lat: 42.35345
    lng: -83.11838
  phone: 313-596-4750
  external_ids:
    bphc: BPS-H80-037876
  sources:
  - hrsa/health-center-sites
  verified:
    'on': '2026-07-19'
    method: api
- id: mi/detroit/family-medical-center-thirkell-elementary-middle
  name: Family Medical Center - Thirkell Elementary-Middle School
  categories:
  - community-health-center
  address:
    street: 7724 14th St
    city: Detroit
    state: mi
    zip: '48206'
  place: '2622000'
  geo:
    lat: 42.36642
    lng: -83.09717
  phone: 734-654-2169
  external_ids:
    bphc: BPS-H80-038629
  sources:
  - hrsa/health-center-sites
  verified:
    'on': '2026-07-19'
    method: api
- id: mi/detroit/family-medical-center-thurgood-marshall-school
  name: Family Medical Center - Thurgood Marshall School
  categories:
  - community-health-center
  address:
    street: 15531 Linwood St
    city: Detroit
    state: mi
    zip: '48238'
  place: '2622000'
  geo:
    lat: 42.40601
    lng: -83.12817
  phone: 734-654-2169
  external_ids:
    bphc: BPS-H80-024655
  sources:
  - hrsa/health-center-sites
  verified:
    'on': '2026-07-19'
    method: api
- id: mi/detroit/family-medical-center-wayne-elementary
  name: Family Medical Center - Wayne Elementary
  categories:
  - community-health-center
  address:
    street: 10633 Courville St
    city: Detroit
    state: mi
    zip: '48224'
  place: '2622000'
  geo:
    lat: 42.41616
    lng: -82.95614
  phone: 734-654-2169
  external_ids:
    bphc: BPS-H80-038816
  sources:
  - hrsa/health-center-sites
  verified:
    'on': '2026-07-19'
    method: api
- id: mi/detroit/fiore
  name: Fiore
  categories:
  - child-care
  address:
    street: 3950 Toledo St
    city: Detroit
    state: mi
    zip: '48216'
  place: '2622000'
  geo:
    lat: 42.32523
    lng: -83.0938
  phone: 313-297-7739
  sources:
  - acf/head-start-locations
  verified:
    'on': '2026-07-19'
    method: api
- id: mi/detroit/focus-hope-homebased
  name: 'Focus: HOPE Homebased'
  categories:
  - child-care
  address:
    street: 1550 Oakman Blvd
    city: Detroit
    state: mi
    zip: '48238'
  place: '2622000'
  geo:
    lat: 42.39915
    lng: -83.1251
  phone: 313-494-4400
  sources:
  - acf/head-start-locations
  verified:
    'on': '2026-07-19'
    method: api
- id: mi/detroit/ford-memorial
  name: Ford Memorial
  categories:
  - child-care
  address:
    street: 16400 W Warren Ave
    city: Detroit
    state: mi
    zip: '48228'
  place: '2622000'
  geo:
    lat: 42.34419
    lng: -83.20583
  phone: 313-581-6760
  sources:
  - acf/head-start-locations
  verified:
    'on': '2026-07-19'
    method: api
- id: mi/detroit/fort-head-start
  name: Fort Head Start
  categories:
  - child-care
  address:
    street: 2237 S Fort St
    city: Detroit
    state: mi
    zip: '48217'
  place: '2622000'
  geo:
    lat: 42.2736
    lng: -83.15682
  phone: 734-713-9790
  sources:
  - acf/head-start-locations
  verified:
    'on': '2026-07-19'
    method: api
- id: mi/detroit/franklin-wright
  name: Franklin Wright
  categories:
  - child-care
  address:
    street: 7375 Woodward Ave
    street2: Ste A
    city: Detroit
    state: mi
    zip: '48202'
  place: '2622000'
  geo:
    lat: 42.37106
    lng: -83.07426
  phone: 313-579-1000
  sources:
  - acf/head-start-locations
  verified:
    'on': '2026-07-19'
    method: api
- id: mi/detroit/glazer-elementary
  name: Glazer Elementary
  categories:
  - child-care
  address:
    street: 2001 La Belle St
    city: Detroit
    state: mi
    zip: '48238'
  place: '2622000'
  geo:
    lat: 42.39957
    lng: -83.11665
  phone: 313-852-1500
  sources:
  - acf/head-start-locations
  verified:
    'on': '2026-07-19'
    method: api
- id: mi/detroit/glendale-pantry
  name: Glendale Pantry
  categories:
  - food-pantry
  place: '2622000'
  geo:
    lat: 42.38684
    lng: -83.1298
  external_ids:
    lfp: '4513'
  sources:
  - littlefreepantry/map
  verified:
    'on': '2026-07-19'
    method: scrape
- id: mi/detroit/greater-burnette
  name: Greater Burnette
  categories:
  - child-care
  address:
    street: 16801 Schoolcraft St
    city: Detroit
    state: mi
    zip: '48227'
  place: '2622000'
  geo:
    lat: 42.38674
    lng: -83.2115
  phone: 313-273-6020
  sources:
  - acf/head-start-locations
  verified:
    'on': '2026-07-19'
    method: api
- id: mi/detroit/greater-ebenezer-missionary-baptist-church
  name: Greater Ebenezer Missionary Baptist Church
  categories:
  - child-care
  address:
    street: 18751 Fenkell St
    city: Detroit
    state: mi
    zip: '48223'
  place: '2622000'
  geo:
    lat: 42.40045
    lng: -83.22636
  phone: 313-273-3970
  sources:
  - acf/head-start-locations
  verified:
    'on': '2026-07-19'
    method: api
- id: mi/detroit/greater-grace-temple
  name: Greater Grace Temple
  categories:
  - child-care
  address:
    street: 23500 W 7 Mile Rd
    city: Detroit
    state: mi
    zip: '48219'
  place: '2622000'
  geo:
    lat: 42.42975
    lng: -83.27084
  phone: 313-543-4400
  sources:
  - acf/head-start-locations
  verified:
    'on': '2026-07-19'
    method: api
- id: mi/detroit/growing-minds-learning-center
  name: Growing Minds Learning Center
  categories:
  - child-care
  address:
    street: 16361 Mack Ave
    city: Detroit
    state: mi
    zip: '48224'
  place: '2622000'
  geo:
    lat: 42.39159
    lng: -82.9312
  phone: 313-886-4769
  sources:
  - acf/head-start-locations
  verified:
    'on': '2026-07-19'
    method: api
- id: mi/detroit/guidance-center-kids-talk-ferry-location
  name: Guidance Center Kids Talk Ferry Location
  categories:
  - su-treatment
  - mh-treatment
  address:
    street: 40 East Ferry Street
    city: Detroit
    state: mi
    zip: '48202'
  place: '2622000'
  geo:
    lat: 42.36101
    lng: -83.06609
  phone: 313-833-2970
  website: https://www.guidance-center.org
  sources:
  - samhsa/findtreatment
  verified:
    'on': '2026-07-19'
    method: api
- id: mi/detroit/harper-gratiot
  name: Harper Gratiot
  categories:
  - child-care
  address:
    street: 9641 Harper Ave
    city: Detroit
    state: mi
    zip: '48213'
  place: '2622000'
  geo:
    lat: 42.39362
    lng: -83.00739
  phone: 313-432-1010
  sources:
  - acf/head-start-locations
  verified:
    'on': '2026-07-19'
    method: api
- id: mi/detroit/hartford-7-mile
  name: Hartford/7 Mile
  categories:
  - child-care
  address:
    street: 13735 W 7 Mile Rd
    city: Detroit
    state: mi
    zip: '48235'
  place: '2622000'
  geo:
    lat: 42.43072
    lng: -83.18221
  phone: 313-307-7000
  sources:
  - acf/head-start-locations
  verified:
    'on': '2026-07-19'
    method: api
- id: mi/detroit/henry-ford-behavioral-health-services-partial-ho
  name: Henry Ford Behavioral Health Services Partial Hospitalization Program
  categories:
  - su-treatment
  - mh-treatment
  address:
    street: 1 Ford Place
    city: Detroit
    state: mi
    zip: '48202'
  place: '2622000'
  phone: 313-640-2637
  website: https://www.henryford.com/php
  sources:
  - samhsa/findtreatment
  verified:
    'on': '2026-07-19'
    method: api
- id: mi/detroit/home-base
  name: Home Base
  categories:
  - child-care
  address:
    street: 1148 Harper
    city: Detroit
    state: mi
    zip: '48213'
  place: '2622000'
  geo:
    lat: 42.36935
    lng: -83.05914
  phone: 313-285-1905
  sources:
  - acf/head-start-locations
  verified:
    'on': '2026-07-19'
    method: api
- id: mi/detroit/hope-family-health-center
  name: Hope Family Health Center
  categories:
  - community-health-center
  address:
    street: 12121 Broadstreet Ave
    city: Detroit
    state: mi
    zip: '48204'
  place: '2622000'
  geo:
    lat: 42.3793
    lng: -83.13534
  phone: 313-824-1000
  website: https://authorityhealth.org/
  external_ids:
    bphc: BPS-LAL-040940
  sources:
  - hrsa/health-center-sites
  verified:
    'on': '2026-07-19'
    method: api
- id: mi/detroit/infinity-i
  name: Infinity I
  categories:
  - child-care
  address:
    street: 9208 Gratiot Ave
    city: Detroit
    state: mi
    zip: '48213'
  place: '2622000'
  geo:
    lat: 42.38958
    lng: -83.00711
  phone: 313-285-1926
  sources:
  - acf/head-start-locations
  verified:
    'on': '2026-07-19'
    method: api
- id: mi/detroit/infinity-ii
  name: Infinity II
  categories:
  - child-care
  address:
    street: 8900 Gratiot Ave
    city: Detroit
    state: mi
    zip: '48213'
  place: '2622000'
  geo:
    lat: 42.38745
    lng: -83.00854
  phone: 313-285-1927
  sources:
  - acf/head-start-locations
  verified:
    'on': '2026-07-19'
    method: api
- id: mi/detroit/institute-for-population-health-family-health-ce
  name: Institute for Population Health Family Health Center
  categories:
  - community-health-center
  address:
    street: 19830 James Couzens Fwy
    city: Detroit
    state: mi
    zip: '48235'
  place: '2622000'
  geo:
    lat: 42.43753
    lng: -83.19332
  phone: 313-309-9350
  website: https://www.ipophealth.org
  external_ids:
    bphc: BPS-H80-029541
  sources:
  - hrsa/health-center-sites
  verified:
    'on': '2026-07-19'
    method: api
- id: mi/detroit/institute-for-population-health-family-health-ce-2
  name: Institute for Population Health Family Health Center
  categories:
  - community-health-center
  address:
    street: 9053 WoodwardDetroit, MI   48202
    city: Detroit
    state: mi
    zip: '48202'
  place: '2622000'
  geo:
    lat: 42.37361
    lng: -83.07926
  phone: 313-309-9350
  website: https://www.ipophealth.org
  external_ids:
    bphc: BPS-H80-029537
  sources:
  - hrsa/health-center-sites
  verified:
    'on': '2026-07-19'
    method: api
- id: mi/detroit/institute-for-population-health-mobile-clinic
  name: Institute for Population Health Mobile Clinic
  categories:
  - community-health-center
  address:
    street: 19830 James Couzens Fwy
    city: Detroit
    state: mi
    zip: '48235'
  place: '2622000'
  geo:
    lat: 42.43753
    lng: -83.19332
  phone: 313-309-9350
  external_ids:
    bphc: BPS-H80-039896
  sources:
  - hrsa/health-center-sites
  verified:
    'on': '2026-07-19'
    method: api
- id: mi/detroit/institute-for-population-health-school-health-ce
  name: Institute for Population Health School Health Center
  categories:
  - community-health-center
  address:
    street: 15491 Maddelein St
    city: Detroit
    state: mi
    zip: '48205'
  place: '2622000'
  geo:
    lat: 42.43731
    lng: -82.96179
  phone: 313-309-9350
  website: https://www.ipophealth.org
  external_ids:
    bphc: BPS-H80-029534
  sources:
  - hrsa/health-center-sites
  verified:
    'on': '2026-07-19'
    method: api
- id: mi/detroit/institute-of-supportive-services-inc
  name: Institute of Supportive Services Inc
  categories:
  - su-treatment
  address:
    street: 19940 Conant Street
    city: Detroit
    state: mi
    zip: '48234'
  place: '2622000'
  geo:
    lat: 42.44115
    lng: -83.0793
  phone: 313-733-4528
  website: https://issdetroit.com
  sources:
  - samhsa/findtreatment
  verified:
    'on': '2026-07-19'
    method: api
- id: mi/detroit/jefferson-house
  name: Jefferson House
  categories:
  - su-treatment
  address:
    city: Detroit
    state: mi
    zip: '48214'
  place: '2622000'
  phone: 313-331-8900
  website: https://www.cskdetroit.org
  sources:
  - samhsa/findtreatment
  verified:
    'on': '2026-07-19'
    method: api
- id: mi/detroit/john-evans-academy
  name: John Evans Academy
  categories:
  - child-care
  address:
    street: 16825 Wyoming St
    city: Detroit
    state: mi
    zip: '48221'
  place: '2622000'
  geo:
    lat: 42.41507
    lng: -83.16042
  phone: 313-863-5582
  sources:
  - acf/head-start-locations
  verified:
    'on': '2026-07-19'
    method: api
- id: mi/detroit/kids-in-zion
  name: Kids-In-Zion
  categories:
  - child-care
  address:
    street: 15600 Evanston St
    city: Detroit
    state: mi
    zip: '48224'
  place: '2622000'
  geo:
    lat: 42.40851
    lng: -82.95281
  phone: 313-647-4252
  sources:
  - acf/head-start-locations
  verified:
    'on': '2026-07-19'
    method: api
- id: mi/detroit/kidz-in-action
  name: Kidz In Action
  categories:
  - child-care
  address:
    street: 15888 Archdale St
    city: Detroit
    state: mi
    zip: '48227'
  place: '2622000'
  geo:
    lat: 42.40782
    lng: -83.21601
  phone: 313-867-0500
  sources:
  - acf/head-start-locations
  verified:
    'on': '2026-07-19'
    method: api
- id: mi/detroit/kim-logan-communication-clinic-inc
  name: Kim Logan Communication Clinic Inc
  categories:
  - su-treatment
  - mh-treatment
  address:
    street: 3011 West Grand Boulevard
    city: Detroit
    state: mi
    zip: '48202'
  place: '2622000'
  geo:
    lat: 42.36932
    lng: -83.07752
  phone: 313-664-4900
  website: https://www.drkiminspires.com
  sources:
  - samhsa/findtreatment
  verified:
    'on': '2026-07-19'
    method: api
- id: mi/detroit/kristy-s-early-childhood-development-center
  name: Kristy's early Childhood Development center
  categories:
  - child-care
  address:
    street: 21501 W 7 Mile Rd
    city: Detroit
    state: mi
    zip: '48219'
  place: '2622000'
  geo:
    lat: 42.42892
    lng: -83.25501
  phone: 313-933-0300
  sources:
  - acf/head-start-locations
  verified:
    'on': '2026-07-19'
    method: api
- id: mi/detroit/l-a-c-c-i-child-care-academy
  name: L.A.C.C. I Child Care Academy
  categories:
  - child-care
  address:
    street: 16619 Wyoming St
    city: Detroit
    state: mi
    zip: '48221'
  place: '2622000'
  geo:
    lat: 42.41379
    lng: -83.16035
  phone: 313-345-3744
  sources:
  - acf/head-start-locations
  verified:
    'on': '2026-07-19'
    method: api
- id: mi/detroit/lakewood-manor
  name: Lakewood Manor
  categories:
  - child-care
  address:
    street: 14200 Kercheval St
    city: Detroit
    state: mi
    zip: '48215'
  place: '2622000'
  geo:
    lat: 42.37781
    lng: -82.9496
  phone: 313-285-1929
  sources:
  - acf/head-start-locations
  verified:
    'on': '2026-07-19'
    method: api
- id: mi/detroit/latino-family-services-inc
  name: Latino Family Services Inc
  categories:
  - su-treatment
  address:
    street: 1145 Lawndale Street
    city: Detroit
    state: mi
    zip: '48209'
  place: '2622000'
  geo:
    lat: 42.30127
    lng: -83.12732
  phone: 313-279-3232
  website: https://www.latinofamilyservices.org
  sources:
  - samhsa/findtreatment
  verified:
    'on': '2026-07-19'
    method: api
- id: mi/detroit/life-challenge-mental-health-services-health-ser
  name: Life Challenge Mental Health Services Health Services
  categories:
  - su-treatment
  address:
    street: 17667 Pierson Street
    city: Detroit
    state: mi
    zip: '48219'
  place: '2622000'
  geo:
    lat: 42.42146
    lng: -83.24755
  phone: 313-531-0111
  website: https://lcm.life
  sources:
  - samhsa/findtreatment
  verified:
    'on': '2026-07-19'
    method: api
- id: mi/detroit/manuel-reyes
  name: Manuel Reyes
  categories:
  - child-care
  address:
    street: 8500 W Vernor Hwy
    city: Detroit
    state: mi
    zip: '48209'
  place: '2622000'
  geo:
    lat: 42.30995
    lng: -83.13162
  phone: 313-842-2722
  sources:
  - acf/head-start-locations
  verified:
    'on': '2026-07-19'
    method: api
- id: mi/detroit/mariners-inn
  name: Mariners Inn
  categories:
  - su-treatment
  - mh-treatment
  address:
    street: 445 Ledyard Street
    city: Detroit
    state: mi
    zip: '48201'
  place: '2622000'
  geo:
    lat: 42.33978
    lng: -83.05841
  phone: 313-962-9446 x224
  website: https://www.marinersinn.org
  sources:
  - samhsa/findtreatment
  verified:
    'on': '2026-07-19'
    method: api
- id: mi/detroit/mariners-inn-2
  name: Mariners Inn
  categories:
  - su-treatment
  address:
    street: 457 Ledyard Street
    city: Detroit
    state: mi
    zip: '48201'
  place: '2622000'
  geo:
    lat: 42.33981
    lng: -83.05877
  phone: 313-962-9446 x222
  website: https://www.marinersinn.org
  sources:
  - samhsa/findtreatment
  verified:
    'on': '2026-07-19'
    method: api
- id: mi/detroit/mark-twain-school-for-scholars
  name: Mark Twain School For Scholars
  categories:
  - community-health-center
  address:
    street: 12800 Visger St
    city: Detroit
    state: mi
    zip: '48217'
  place: '2622000'
  geo:
    lat: 42.26885
    lng: -83.16244
  phone: 734-654-2169
  external_ids:
    bphc: BPS-H80-039955
  sources:
  - hrsa/health-center-sites
  verified:
    'on': '2026-07-19'
    method: api
- id: mi/detroit/marygrove-early-education-center
  name: Marygrove Early Education Center
  categories:
  - child-care
  address:
    street: 8425 W McNichols Rd
    city: Detroit
    state: mi
    zip: '48221'
  place: '2622000'
  geo:
    lat: 42.41543
    lng: -83.15553
  phone: 734-728-3400
  sources:
  - acf/head-start-locations
  verified:
    'on': '2026-07-19'
    method: api
- id: mi/detroit/mcclellan-early-childhood-center
  name: McClellan Early Childhood Center
  categories:
  - child-care
  address:
    street: 1021 Clairpointe St
    city: Detroit
    state: mi
    zip: '48215'
  place: '2622000'
  geo:
    lat: 42.3667
    lng: -82.95864
  phone: 313-285-1893
  sources:
  - acf/head-start-locations
  verified:
    'on': '2026-07-19'
    method: api
- id: mi/detroit/mckenney
  name: McKenney
  categories:
  - child-care
  address:
    street: 19740 Burt Rd
    city: Detroit
    state: mi
    zip: '48219'
  place: '2622000'
  geo:
    lat: 42.43549
    lng: -83.24883
  phone: 313-977-9550
  sources:
  - acf/head-start-locations
  verified:
    'on': '2026-07-19'
    method: api
- id: mi/detroit/mckenny
  name: Mckenny
  categories:
  - child-care
  address:
    street: 19750 Burt Rd
    city: Detroit
    state: mi
    zip: '48219'
  place: '2622000'
  geo:
    lat: 42.43575
    lng: -83.24834
  phone: 313-591-4178
  sources:
  - acf/head-start-locations
  verified:
    'on': '2026-07-19'
    method: api
- id: mi/detroit/mckenny-annex
  name: Mckenny Annex
  categories:
  - child-care
  address:
    street: 19750 Burt Rd
    city: Detroit
    state: mi
    zip: '48219'
  place: '2622000'
  geo:
    lat: 42.43575
    lng: -83.24834
  sources:
  - acf/head-start-locations
  verified:
    'on': '2026-07-19'
    method: api
- id: mi/detroit/metro-east-clinics
  name: Metro East Clinics
  categories:
  - su-treatment
  - mh-treatment
  address:
    street: 13929 Harper Avenue
    city: Detroit
    state: mi
    zip: '48213'
  place: '2622000'
  geo:
    lat: 42.40359
    lng: -82.96906
  phone: 313-371-0055
  website: https://www.metro-east.org
  sources:
  - samhsa/findtreatment
  verified:
    'on': '2026-07-19'
    method: api
- id: mi/detroit/mt-calvary
  name: Mt. Calvary
  categories:
  - child-care
  address:
    street: 17100 Chalmers St
    city: Detroit
    state: mi
    zip: '48205'
  place: '2622000'
  geo:
    lat: 42.42705
    lng: -82.97504
  phone: 313-372-9055
  sources:
  - acf/head-start-locations
  verified:
    'on': '2026-07-19'
    method: api
- id: mi/detroit/nardin-park-recovery-center-nprc
  name: Nardin Park Recovery Center NPRC
  categories:
  - su-treatment
  address:
    street: 9605 West Grand River Avenue
    city: Detroit
    state: mi
    zip: '48204'
  place: '2622000'
  geo:
    lat: 42.36735
    lng: -83.13597
  phone: 313-834-5930 x108
  website: https://www.rehab.com/nprc-nardin-park-recovery-center-detroit
  sources:
  - samhsa/findtreatment
  verified:
    'on': '2026-07-19'
    method: api
- id: mi/detroit/national-council-on-alcoholism-and-drug-dep-gda
  name: National Council on Alcoholism and Drug Dep GDA Vantage Point West
  categories:
  - su-treatment
  address:
    street: 16647 Wyoming Avenue
    city: Detroit
    state: mi
    zip: '48221'
  place: '2622000'
  geo:
    lat: 42.41431
    lng: -83.1605
  phone: 313-342-3606
  website: https://www.ncadd-detroit.org
  sources:
  - samhsa/findtreatment
  verified:
    'on': '2026-07-19'
    method: api
- id: mi/detroit/neighborhood-services-organization
  name: Neighborhood Services Organization
  categories:
  - su-treatment
  - mh-treatment
  address:
    street: 882 Oakman Boulevard
    city: Detroit
    state: mi
    zip: '48238'
  place: '2622000'
  geo:
    lat: 42.40281
    lng: -83.11358
  phone: 888-360-9355
  website: https://www.nso-mi.org
  sources:
  - samhsa/findtreatment
  verified:
    'on': '2026-07-19'
    method: api
- id: mi/detroit/neighborhood-services-organization-2
  name: Neighborhood Services Organization
  categories:
  - su-treatment
  - mh-treatment
  address:
    street: 8600 Woodward Avenue
    city: Detroit
    state: mi
    zip: '48202'
  place: '2622000'
  geo:
    lat: 42.37925
    lng: -83.07887
  phone: 888-360-9355
  website: https://www.nso-mi.org
  sources:
  - samhsa/findtreatment
  verified:
    'on': '2026-07-19'
    method: api
- id: mi/detroit/new-beginning
  name: New Beginning
  categories:
  - child-care
  address:
    street: 13110 14th St
    city: Detroit
    state: mi
    zip: '48238'
  place: '2622000'
  geo:
    lat: 42.39323
    lng: -83.1145
  phone: 313-867-0318
  sources:
  - acf/head-start-locations
  verified:
    'on': '2026-07-19'
    method: api
- id: mi/detroit/new-westside
  name: New Westside
  categories:
  - child-care
  address:
    street: 19840 W Chicago St
    city: Detroit
    state: mi
    zip: '48228'
  place: '2622000'
  geo:
    lat: 42.36498
    lng: -83.23534
  phone: 313-836-4330
  sources:
  - acf/head-start-locations
  verified:
    'on': '2026-07-19'
    method: api
- id: mi/detroit/north-end-free-little-pantry
  name: North End Free Little Pantry
  categories:
  - food-pantry
  place: '2622000'
  geo:
    lat: 42.37668
    lng: -83.09527
  external_ids:
    lfp: '1417'
  sources:
  - littlefreepantry/map
  verified:
    'on': '2026-07-19'
    method: scrape
- id: mi/detroit/northrop
  name: Northrop
  categories:
  - child-care
  address:
    street: 19176 Northrop St
    city: Detroit
    state: mi
    zip: '48219'
  place: '2622000'
  geo:
    lat: 42.42977
    lng: -83.26148
  phone: 313-246-6060
  sources:
  - acf/head-start-locations
  verified:
    'on': '2026-07-19'
    method: api
- id: mi/detroit/oscar-paskal-health-center
  name: Oscar Paskal Health Center
  categories:
  - community-health-center
  address:
    street: 12800 E Warren Ave
    city: Detroit
    state: mi
    zip: '48215'
  place: '2622000'
  geo:
    lat: 42.39161
    lng: -82.96863
  phone: 313-343-2887
  website: https://www.dchcquality.org
  external_ids:
    bphc: BPS-H80-010486
  sources:
  - hrsa/health-center-sites
  verified:
    'on': '2026-07-19'
    method: api
- id: mi/detroit/pathways-to-promise-early-childhood-learning-cen
  name: Pathways to Promise Early Childhood Learning Center at CDC
  categories:
  - child-care
  address:
    street: 1550 Taylor St
    city: Detroit
    state: mi
    zip: '48206'
  place: '2622000'
  geo:
    lat: 42.37694
    lng: -83.09584
  phone: 313-873-0064
  sources:
  - acf/head-start-locations
  verified:
    'on': '2026-07-19'
    method: api
- id: mi/detroit/plymouth
  name: Plymouth
  categories:
  - child-care
  address:
    street: 4600 Russell St
    city: Detroit
    state: mi
    zip: '48207'
  place: '2622000'
  geo:
    lat: 42.35912
    lng: -83.04853
  phone: 313-285-1890
  sources:
  - acf/head-start-locations
  verified:
    'on': '2026-07-19'
    method: api
- id: mi/detroit/popoff-family-health-center
  name: Popoff Family Health Center
  categories:
  - community-health-center
  address:
    street: 10809 Mack Ave
    city: Detroit
    state: mi
    zip: '48214'
  place: '2622000'
  geo:
    lat: 42.37708
    lng: -82.98367
  phone: 313-824-1000
  website: https://authorityhealth.org/
  external_ids:
    bphc: BPS-LAL-040946
  sources:
  - hrsa/health-center-sites
  verified:
    'on': '2026-07-19'
    method: api
- id: mi/detroit/quality-behavioral-health
  name: Quality Behavioral Health
  categories:
  - su-treatment
  address:
    street: 6821 Medbury Street
    city: Detroit
    state: mi
    zip: '48211'
  place: '2622000'
  geo:
    lat: 42.38039
    lng: -83.02714
  phone: 313-922-2222 x4111
  website: https://www.qbhrecovery.org
  sources:
  - samhsa/findtreatment
  verified:
    'on': '2026-07-19'
    method: api
- id: mi/detroit/quality-behavioral-health-2
  name: Quality Behavioral Health
  categories:
  - su-treatment
  address:
    street: 751 East Grand Boulevard
    city: Detroit
    state: mi
    zip: '48207'
  place: '2622000'
  geo:
    lat: 42.36327
    lng: -83.01307
  phone: 313-922-2222
  website: https://www.qbhrecovery.org
  sources:
  - samhsa/findtreatment
  verified:
    'on': '2026-07-19'
    method: api
- id: mi/detroit/ready-2-learn-child-care-center
  name: Ready 2 Learn Child Care Center
  categories:
  - child-care
  address:
    street: 17300 Schaefer Hwy
    city: Detroit
    state: mi
    zip: '48235'
  place: '2622000'
  geo:
    lat: 42.41864
    lng: -83.17944
  phone: 313-467-9470
  sources:
  - acf/head-start-locations
  verified:
    'on': '2026-07-19'
    method: api
- id: mi/detroit/ready-2-learn-east
  name: Ready 2 Learn East
  categories:
  - child-care
  address:
    street: 18020 Hoover St
    city: Detroit
    state: mi
    zip: '48205'
  place: '2622000'
  geo:
    lat: 42.42759
    lng: -83.00404
  phone: 313-468-9470
  sources:
  - acf/head-start-locations
  verified:
    'on': '2026-07-19'
    method: api
- id: mi/detroit/regent-park-early-learning-center
  name: Regent Park Early Learning Center
  categories:
  - child-care
  address:
    street: 16257 Bringard Dr
    city: Detroit
    state: mi
    zip: '48205'
  place: '2622000'
  geo:
    lat: 42.44695
    lng: -82.952
  phone: 313-499-1074
  sources:
  - acf/head-start-locations
  verified:
    'on': '2026-07-19'
    method: api
- id: mi/detroit/romancare-health-services
  name: Romancare Health Services
  categories:
  - su-treatment
  address:
    street: 9600 Dexter Avenue
    city: Detroit
    state: mi
    zip: '48206'
  place: '2622000'
  geo:
    lat: 42.3731
    lng: -83.11921
  phone: 248-218-1199
  website: https://
  sources:
  - samhsa/findtreatment
  verified:
    'on': '2026-07-19'
    method: api
- id: mi/detroit/salvation-army
  name: Salvation Army
  categories:
  - child-care
  address:
    street: 3737 Humboldt St
    city: Detroit
    state: mi
    zip: '48208'
  place: '2622000'
  geo:
    lat: 42.33928
    lng: -83.08889
  phone: 313-236-2966
  sources:
  - acf/head-start-locations
  verified:
    'on': '2026-07-19'
    method: api
- id: mi/detroit/salvation-army-harbor-light-subst-abuse-ctr-wome
  name: Salvation Army Harbor Light Subst Abuse Ctr/Women/Men
  categories:
  - su-treatment
  address:
    street: 3737 Humboldt Street
    city: Detroit
    state: mi
    zip: '48208'
  place: '2622000'
  geo:
    lat: 42.33911
    lng: -83.08858
  phone: 313-361-6136
  website: https://www.centralusa.salvationarmy.org/emi/
  sources:
  - samhsa/findtreatment
  verified:
    'on': '2026-07-19'
    method: api
- id: mi/detroit/salvation-army-harbor-light-system-subst-abuse-c
  name: Salvation Army Harbor Light System Subst Abuse Ctr/Women/Children/Men
  categories:
  - su-treatment
  address:
    street: 3737 Lawton Street
    city: Detroit
    state: mi
    zip: '48208'
  place: '2622000'
  geo:
    lat: 42.33823
    lng: -83.09013
  phone: 313-361-6136
  website: https://www.salvationarmy.org/
  sources:
  - samhsa/findtreatment
  verified:
    'on': '2026-07-19'
    method: api
- id: mi/detroit/samaritan
  name: Samaritan
  categories:
  - child-care
  address:
    street: 5555 Conner St
    city: Detroit
    state: mi
    zip: '48213'
  place: '2622000'
  geo:
    lat: 42.3902
    lng: -82.98196
  phone: 313-285-1928
  sources:
  - acf/head-start-locations
  verified:
    'on': '2026-07-19'
    method: api
- id: mi/detroit/samaritan-behavioral-center-inpatient
  name: Samaritan Behavioral Center Inpatient
  categories:
  - su-treatment
  - mh-treatment
  address:
    street: 5555 Connor Street
    city: Detroit
    state: mi
    zip: '48213'
  place: '2622000'
  geo:
    lat: 42.39032
    lng: -82.98199
  phone: 313-344-7730
  website: https://www.samaritanbc.com
  sources:
  - samhsa/findtreatment
  verified:
    'on': '2026-07-19'
    method: api
- id: mi/detroit/self-help-addiction-rehab-shar-main
  name: Self Help Addiction Rehab (SHAR) Main
  categories:
  - su-treatment
  address:
    street: 1852 West Grand Boulevard
    city: Detroit
    state: mi
    zip: '48208'
  place: '2622000'
  geo:
    lat: 42.35362
    lng: -83.1098
  phone: 313-894-8444
  website: https://www.sharinc.org
  sources:
  - samhsa/findtreatment
  verified:
    'on': '2026-07-19'
    method: api
- id: mi/detroit/sobriety-house-inc
  name: Sobriety House Inc
  categories:
  - su-treatment
  address:
    street: 2081 West Grand Boulevard
    city: Detroit
    state: mi
    zip: '48208'
  place: '2622000'
  geo:
    lat: 42.35787
    lng: -83.10757
  phone: 313-895-0500
  website: https://sobrietyhouse.net
  sources:
  - samhsa/findtreatment
  verified:
    'on': '2026-07-19'
    method: api
- id: mi/detroit/southwest-detroit
  name: Southwest Detroit
  place: '2622000'
  geo:
    lat: 42.31448
    lng: -83.0979
  provisional: true
  sources:
  - mutualaidhub/firestore
  verified:
    'on': '2026-07-19'
    method: api
  categories:
  - community-fridge
  - food-pantry
- id: mi/detroit/spectrum-child-and-family-services
  name: Spectrum Child and Family Services
  categories:
  - su-treatment
  - mh-treatment
  address:
    street: 3031 West Grand Boulevard
    city: Detroit
    state: mi
    zip: '48202'
  place: '2622000'
  geo:
    lat: 42.36935
    lng: -83.07607
  phone: 313-456-6000
  website: https://www.spectrumhuman.org
  sources:
  - samhsa/findtreatment
  verified:
    'on': '2026-07-19'
    method: api
- id: mi/detroit/spiritual-israels-comm-outreach-prog-choice-comm
  name: Spiritual Israels Comm Outreach Prog Choice Comm Housing/Outreach Agency
  categories:
  - su-treatment
  address:
    street: 2727 2nd Avenue
    city: Detroit
    state: mi
    zip: '48201'
  place: '2622000'
  geo:
    lat: 42.34011
    lng: -83.0615
  phone: 313-965-7880
  website: https://recovered.org/rehabs/spiritual-israels-comm-outreach-prog-detroit-mi
  sources:
  - samhsa/findtreatment
  verified:
    'on': '2026-07-19'
    method: api
- id: mi/detroit/st-john
  name: St. John
  categories:
  - child-care
  address:
    street: 4950 Oakman Blvd
    city: Detroit
    state: mi
    zip: '48204'
  place: '2622000'
  geo:
    lat: 42.3646
    lng: -83.15483
  phone: 313-933-3980
  sources:
  - acf/head-start-locations
  verified:
    'on': '2026-07-19'
    method: api
- id: mi/detroit/st-stephen
  name: St. Stephen
  categories:
  - child-care
  address:
    street: 1235 Lawndale St
    city: Detroit
    state: mi
    zip: '48209'
  place: '2622000'
  geo:
    lat: 42.30169
    lng: -83.12758
  phone: 313-841-6254
  sources:
  - acf/head-start-locations
  verified:
    'on': '2026-07-19'
    method: api
- id: mi/detroit/st-suzanne
  name: St. Suzanne
  categories:
  - child-care
  address:
    street: 19321 W Chicago St
    city: Detroit
    state: mi
    zip: '48228'
  place: '2622000'
  geo:
    lat: 42.3641
    lng: -83.23027
  phone: 313-651-5056
  sources:
  - acf/head-start-locations
  verified:
    'on': '2026-07-19'
    method: api
- id: mi/detroit/star-center-inc
  name: Star Center Inc
  categories:
  - su-treatment
  address:
    street: 13575 Lesure Street
    city: Detroit
    state: mi
    zip: '48227'
  place: '2622000'
  geo:
    lat: 42.38637
    lng: -83.18037
  phone: 313-493-4410
  website: https://www.starcenterinc.org
  sources:
  - samhsa/findtreatment
  verified:
    'on': '2026-07-19'
    method: api
- id: mi/detroit/stonecrest-center
  name: StoneCrest Center
  categories:
  - mh-treatment
  address:
    street: 15000 Gratiot Avenue
    city: Detroit
    state: mi
    zip: '48205'
  place: '2622000'
  geo:
    lat: 42.4436
    lng: -82.97115
  phone: 313-245-0619
  website: https://www.stonecrestcenter.com
  sources:
  - samhsa/findtreatment
  verified:
    'on': '2026-07-19'
    method: api
- id: mi/detroit/summer-preschool-early-learning
  name: Summer Preschool Early Learning
  categories:
  - child-care
  address:
    street: 3121 W McNichols Rd
    city: Detroit
    state: mi
    zip: '48221'
  place: '2622000'
  geo:
    lat: 42.41705
    lng: -83.13213
  phone: 313-345-5111
  sources:
  - acf/head-start-locations
  verified:
    'on': '2026-07-19'
    method: api
- id: mi/detroit/tabernacle
  name: Tabernacle
  categories:
  - child-care
  address:
    street: 2080 W Grand Blvd
    city: Detroit
    state: mi
    zip: '48208'
  place: '2622000'
  geo:
    lat: 42.35691
    lng: -83.10757
  phone: 313-285-1917
  sources:
  - acf/head-start-locations
  verified:
    'on': '2026-07-19'
    method: api
- id: mi/detroit/team-east-clinic
  name: Team East Clinic
  categories:
  - su-treatment
  - mh-treatment
  address:
    street: 11105 Jefferson Avenue
    city: Detroit
    state: mi
    zip: '48214'
  place: '2622000'
  geo:
    lat: 42.36634
    lng: -82.97292
  phone: 313-396-5300
  website: https://www.teamwellnesscenter.com
  sources:
  - samhsa/findtreatment
  verified:
    'on': '2026-07-19'
    method: api
- id: mi/detroit/team-wellness-center
  name: Team Wellness Center
  categories:
  - su-treatment
  - mh-treatment
  address:
    street: 2925 Russell Street
    city: Detroit
    state: mi
    zip: '48207'
  place: '2622000'
  geo:
    lat: 42.34823
    lng: -83.0421
  phone: 313-396-5300
  website: https://www.teamwellnesscenter.com
  sources:
  - samhsa/findtreatment
  verified:
    'on': '2026-07-19'
    method: api
- id: mi/detroit/the-nest-child-care-center
  name: The Nest Child Care Center
  categories:
  - child-care
  address:
    street: 5000 Conner St
    city: Detroit
    state: mi
    zip: '48213'
  place: '2622000'
  geo:
    lat: 42.38973
    lng: -82.97582
  phone: 313-331-1444
  sources:
  - acf/head-start-locations
  verified:
    'on': '2026-07-19'
    method: api
- id: mi/detroit/the-wellness-plan-east-medical-center
  name: The Wellness Plan, East Medical Center
  categories:
  - community-health-center
  address:
    street: 4909 E Outer Dr
    city: Detroit
    state: mi
    zip: '48234'
  place: '2622000'
  geo:
    lat: 42.44095
    lng: -83.017
  phone: 313-369-3910
  website: https://www.wellplan.com
  external_ids:
    bphc: BPS-H80-011552
  sources:
  - hrsa/health-center-sites
  verified:
    'on': '2026-07-19'
    method: api
- id: mi/detroit/the-wellness-plan-gateway-medical-center
  name: The Wellness Plan, Gateway Medical Center
  categories:
  - community-health-center
  address:
    street: 2888 W Grand Blvd
    city: Detroit
    state: mi
    zip: '48202'
  place: '2622000'
  geo:
    lat: 42.36697
    lng: -83.08086
  phone: 313-875-5932
  website: https://www.wellplan.com
  external_ids:
    bphc: BPS-H80-011571
  sources:
  - hrsa/health-center-sites
  verified:
    'on': '2026-07-19'
    method: api
- id: mi/detroit/third-new-hope
  name: Third New Hope
  categories:
  - child-care
  address:
    street: 12850 Plymouth Rd
    city: Detroit
    state: mi
    zip: '48227'
  place: '2622000'
  geo:
    lat: 42.37351
    lng: -83.17022
  phone: 313-931-1834
  sources:
  - acf/head-start-locations
  verified:
    'on': '2026-07-19'
    method: api
- id: mi/detroit/tott-s-early-learning-center
  name: Tott's Early Learning Center
  categories:
  - child-care
  address:
    street: 20000 W Chicago St
    city: Detroit
    state: mi
    zip: '48228'
  place: '2622000'
  geo:
    lat: 42.36494
    lng: -83.2364
  sources:
  - acf/head-start-locations
  verified:
    'on': '2026-07-19'
    method: api
- id: mi/detroit/united-children-and-family-head-start-administra
  name: United Children and Family Head Start Administrative Office
  categories:
  - child-care
  address:
    street: 9641 Harper Ave
    city: Detroit
    state: mi
    zip: '48213'
  place: '2622000'
  geo:
    lat: 42.39355
    lng: -83.00735
  phone: 313-432-1000
  sources:
  - acf/head-start-locations
  verified:
    'on': '2026-07-19'
    method: api
- id: mi/detroit/unity-center
  name: Unity Center
  categories:
  - child-care
  address:
    street: 7500 Tireman St
    city: Detroit
    state: mi
    zip: '48204'
  place: '2622000'
  geo:
    lat: 42.35209
    lng: -83.14422
  phone: 313-491-3070
  sources:
  - acf/head-start-locations
  verified:
    'on': '2026-07-19'
    method: api
- id: mi/detroit/university-health-center-st-antoine
  name: University Health Center - St. Antoine
  categories:
  - community-health-center
  address:
    street: 4201 Saint Antoine St STE 7A
    city: Detroit
    state: mi
    zip: '48201'
  place: '2622000'
  geo:
    lat: 42.35428
    lng: -83.05363
  phone: 313-745-4091
  external_ids:
    bphc: BPS-LAL-009712
  sources:
  - hrsa/health-center-sites
  verified:
    'on': '2026-07-19'
    method: api
- id: mi/detroit/verinsha-s-little-ladybugs
  name: Verinsha's Little Ladybugs
  categories:
  - child-care
  address:
    street: 9150 Linwood St
    city: Detroit
    state: mi
    zip: '48206'
  place: '2622000'
  geo:
    lat: 42.37368
    lng: -83.10861
  phone: 313-659-8369
  sources:
  - acf/head-start-locations
  verified:
    'on': '2026-07-19'
    method: api
- id: mi/detroit/village-of-shiny-stars
  name: Village of Shiny Stars
  categories:
  - child-care
  address:
    street: 20507 Fenkell St
    city: Detroit
    state: mi
    zip: '48223'
  place: '2622000'
  geo:
    lat: 42.40035
    lng: -83.2428
  phone: 313-387-8720
  sources:
  - acf/head-start-locations
  verified:
    'on': '2026-07-19'
    method: api
- id: mi/detroit/voyageur-college-prep-high-school
  name: Voyageur College Prep High School
  categories:
  - community-health-center
  address:
    street: 4366 Military St
    city: Detroit
    state: mi
    zip: '48210'
  place: '2622000'
  geo:
    lat: 42.33224
    lng: -83.11962
  phone: 734-654-2169
  external_ids:
    bphc: BPS-H80-040072
  sources:
  - hrsa/health-center-sites
  verified:
    'on': '2026-07-19'
    method: api
- id: mi/detroit/wayne-state-food-for-all
  name: Wayne State Food For All
  categories:
  - food-pantry
  place: '2622000'
  geo:
    lat: 42.35788
    lng: -83.07204
  external_ids:
    lfp: '259'
  sources:
  - littlefreepantry/map
  verified:
    'on': '2026-07-19'
    method: scrape
- id: mi/detroit/woodward-corridor-family-medical-center
  name: WOODWARD CORRIDOR FAMILY MEDICAL CENTER
  categories:
  - community-health-center
  address:
    street: 611 Martin Luther King Jr Blvd
    city: Detroit
    state: mi
    zip: '48201'
  place: '2622000'
  geo:
    lat: 42.34439
    lng: -83.06339
  phone: 313-832-6300
  website: https://www.dchcquality.org
  external_ids:
    bphc: BPS-H80-002352
  sources:
  - hrsa/health-center-sites
  verified:
    'on': '2026-07-19'
    method: api
