- id: mi/gaylord/aleda-e-lutz-vamc-gaylord-opc
  name: Aleda E Lutz VAMC Gaylord OPC
  categories:
  - su-treatment
  - mh-treatment
  address:
    street: 2782 South Otsego Avenue
    city: Gaylord
    state: mi
    zip: '49735'
  place: '2631720'
  geo:
    lat: 44.99159
    lng: -84.67779
  phone: 989-732-7525
  website: https://www.va.gov/saginaw-health-care/locations/
  sources:
  - samhsa/findtreatment
  verified:
    'on': '2026-07-19'
    method: api
- id: mi/gaylord/bear-river-health-outpatient
  name: Bear River Health Outpatient
  categories:
  - su-treatment
  address:
    street: 1325 South Otsego Avenue
    city: Gaylord
    state: mi
    zip: '49735'
  place: '2631720'
  geo:
    lat: 45.01244
    lng: -84.67697
  phone: 231-751-0070
  website: https://www.bearriverhealth.com
  sources:
  - samhsa/findtreatment
  verified:
    'on': '2026-07-19'
    method: api
- id: mi/gaylord/catholic-human-services-gaylord
  name: Catholic Human Services Gaylord
  categories:
  - su-treatment
  - mh-treatment
  address:
    street: 829 West Main Street
    city: Gaylord
    state: mi
    zip: '49735'
  place: '2631720'
  geo:
    lat: 45.02574
    lng: -84.68433
  phone: 989-732-6761
  website: https://www.catholichumanservices.org
  sources:
  - samhsa/findtreatment
  verified:
    'on': '2026-07-19'
    method: api
- id: mi/gaylord/gaylord-ecc
  name: Gaylord ECC
  categories:
  - child-care
  address:
    street: 615 S Elm Ave
    city: Gaylord
    state: mi
    zip: '49735'
  place: '2631720'
  geo:
    lat: 45.02102
    lng: -84.67158
  phone: 989-705-3016
  sources:
  - acf/head-start-locations
  verified:
    'on': '2026-07-19'
    method: api
- id: mi/gaylord/michigan-therapeutic-consultants-pc
  name: Michigan Therapeutic Consultants PC
  categories:
  - su-treatment
  address:
    street: 711 South Illinois Avenue
    city: Gaylord
    state: mi
    zip: '49735'
  place: '2631720'
  geo:
    lat: 45.01998
    lng: -84.67935
  phone: 989-732-4357
  website: https://www.bhgrecovery.com
  sources:
  - samhsa/findtreatment
  verified:
    'on': '2026-07-19'
    method: api
- id: mi/gaylord/nmsas-recovery-center
  name: NMSAS Recovery Center
  categories:
  - su-treatment
  address:
    street: 2136 West M32
    city: Gaylord
    state: mi
    zip: '49735'
  place: '2631720'
  geo:
    lat: 45.02851
    lng: -84.71856
  phone: 989-732-1791
  website: https://www.nmsasrecoverycenter.org/
  sources:
  - samhsa/findtreatment
  verified:
    'on': '2026-07-19'
    method: api
- id: mi/gaylord/north-country-community-mh-alpine-center
  name: North Country Community MH Alpine Center
  categories:
  - su-treatment
  - mh-treatment
  address:
    street: 800 Livingston Boulevard
    city: Gaylord
    state: mi
    zip: '49735'
  place: '2631720'
  geo:
    lat: 45.04559
    lng: -84.66839
  phone: 989-732-6292
  website: https://www.norcocmh.org
  sources:
  - samhsa/findtreatment
  verified:
    'on': '2026-07-19'
    method: api
- id: mi/gaylord/otsego-ehs
  name: Otsego EHS
  categories:
  - child-care
  address:
    street: 97 Livingston Blvd
    street2: Gaylord Head Start
    city: Gaylord
    state: mi
    zip: '49735'
  place: '2631720'
  geo:
    lat: 45.04594
    lng: -84.66886
  phone: 989-464-0051
  sources:
  - acf/head-start-locations
  verified:
    'on': '2026-07-19'
    method: api
- id: mi/gaylord/wellspring-lutheran-services-behavioral-health
  name: Wellspring Lutheran Services Behavioral Health
  categories:
  - mh-treatment
  address:
    street: 1260 South Otsego Avenue
    city: Gaylord
    state: mi
    zip: '49735'
  place: '2631720'
  geo:
    lat: 45.01332
    lng: -84.67822
  phone: 989-448-8540
  website: https://www.wellspringlutheran.com
  sources:
  - samhsa/findtreatment
  verified:
    'on': '2026-07-19'
    method: api
