- id: mi/hastings/barry-community-health-center
  name: Barry Community Health Center
  categories:
  - community-health-center
  address:
    street: 200 S Boltwood St
    city: Hastings
    state: mi
    zip: '49058'
  place: '2637120'
  geo:
    lat: 42.64797
    lng: -85.28558
  phone: 269-945-4220
  external_ids:
    bphc: BPS-H80-021387
  sources:
  - hrsa/health-center-sites
  verified:
    'on': '2026-07-19'
    method: api
- id: mi/hastings/barry-county-community-mental-health-community-m
  name: Barry County Community Mental Health Community Mental Health Authority
  categories:
  - su-treatment
  - mh-treatment
  address:
    street: 500 Barfield Drive
    city: Hastings
    state: mi
    zip: '49058'
  place: '2637120'
  geo:
    lat: 42.63426
    lng: -85.28047
  phone: 269-948-8041
  website: https://www.barrycountyrecovery.com/
  sources:
  - samhsa/findtreatment
  verified:
    'on': '2026-07-19'
    method: api
- id: mi/hastings/hastings-center
  name: Hastings Center
  categories:
  - child-care
  address:
    street: 220 S Market St
    city: Hastings
    state: mi
    zip: '49058'
  place: '2637120'
  geo:
    lat: 42.6471
    lng: -85.29565
  phone: 269-945-1920
  sources:
  - acf/head-start-locations
  verified:
    'on': '2026-07-19'
    method: api
- id: mi/hastings/pine-rest-christian-mental-hlth-servs-hastings-c
  name: Pine Rest Christian Mental Hlth Servs Hastings Clinic
  categories:
  - su-treatment
  - mh-treatment
  address:
    street: 450 Meadow Run
    city: Hastings
    state: mi
    zip: '49058'
  place: '2637120'
  geo:
    lat: 42.63117
    lng: -85.28208
  phone: 616-258-7467
  website: https://www.pinerest.org
  sources:
  - samhsa/findtreatment
  verified:
    'on': '2026-07-19'
    method: api
- id: mi/hastings/sue-drummond-head-start
  name: Sue Drummond Head Start
  categories:
  - child-care
  address:
    street: 2580 Nashville Rd
    city: Hastings
    state: mi
    zip: '49058'
  place: '2637120'
  geo:
    lat: 42.61527
    lng: -85.23956
  phone: 269-948-3610
  sources:
  - acf/head-start-locations
  verified:
    'on': '2026-07-19'
    method: api
