- id: mi/howell/community-mental-health-services-of-livingston-c
  name: Community Mental Health Services of Livingston County
  categories:
  - su-treatment
  - mh-treatment
  address:
    street: 622 East Grand River Avenue
    city: Howell
    state: mi
    zip: '48843'
  place: '2639540'
  geo:
    lat: 42.60541
    lng: -83.92358
  phone: 517-548-0081
  website: https://www.cmhliv.org
  sources:
  - samhsa/findtreatment
  verified:
    'on': '2026-07-19'
    method: api
- id: mi/howell/community-mental-health-services-of-livingston-c-2
  name: Community Mental Health Services of Livingston County
  categories:
  - su-treatment
  - mh-treatment
  address:
    street: 2280 East Grand River Avenue
    city: Howell
    state: mi
    zip: '48843'
  place: '2639540'
  geo:
    lat: 42.59927
    lng: -83.9083
  phone: 517-546-4126
  website: https://www.cmhliv.org
  sources:
  - samhsa/findtreatment
  verified:
    'on': '2026-07-19'
    method: api
- id: mi/howell/hartland-head-start
  name: Hartland Head Start
  categories:
  - child-care
  address:
    street: 9525 E Highland Rd
    city: Howell
    state: mi
    zip: '48843'
  place: '2639540'
  geo:
    lat: 42.63415
    lng: -83.76456
  phone: 517-548-2100
  sources:
  - acf/head-start-locations
  verified:
    'on': '2026-07-19'
    method: api
- id: mi/howell/howell-va-clinic
  name: Howell VA Clinic
  categories:
  - va-facility
  - health
  description: Primary Care CBOC
  address:
    street: 3399 East Grand River Avenue
    city: Howell
    state: mi
    zip: '48843'
  place: '2639540'
  geo:
    lat: 42.59146
    lng: -83.88687
  phone: 517-552-3700
  website: https://www.va.gov/ann-arbor-health-care/locations/howell-va-clinic/
  hours:
  - days:
    - mon
    - tue
    - wed
    - thu
    - fri
    open: 07:30
    close: '16:00'
  services:
  - COVID-19 vaccines
  - Mental health care
  - Nutrition, food, and dietary care
  - Primary care
  - Social work
  - Telehealth
  - Women Veteran care
  external_ids:
    va: vha_506GE
  sources:
  - va/facilities-api
  verified:
    'on': '2026-07-19'
    method: api
- id: mi/howell/key-development-center
  name: Key Development Center
  categories:
  - su-treatment
  - mh-treatment
  address:
    street: 2418 East Grand River Avenue
    city: Howell
    state: mi
    zip: '48843'
  place: '2639540'
  geo:
    lat: 42.59801
    lng: -83.90576
  phone: 810-220-8192
  website: https://www.keycenters.org
  sources:
  - samhsa/findtreatment
  verified:
    'on': '2026-07-19'
    method: api
- id: mi/howell/southeast-early-childhood-center
  name: Southeast Early Childhood Center
  categories:
  - child-care
  address:
    street: 861 E Sibley St
    city: Howell
    state: mi
    zip: '48843'
  place: '2639540'
  geo:
    lat: 42.60104
    lng: -83.92
  phone: 517-548-2100
  sources:
  - acf/head-start-locations
  verified:
    'on': '2026-07-19'
    method: api
