- id: mi/ishpeming/aspen-ridge-head-start
  name: Aspen Ridge Head Start
  categories:
  - child-care
  address:
    street: 350 Aspen Ridge School Rd
    city: Ishpeming
    state: mi
    zip: '49849'
  place: '2641220'
  geo:
    lat: 46.48054
    lng: -87.73397
  phone: 906-485-3176
  sources:
  - acf/head-start-locations
  verified:
    'on': '2026-07-19'
    method: api
- id: mi/ishpeming/freedom-recovery-center
  name: Freedom Recovery Center
  categories:
  - su-treatment
  address:
    street: 1000 Country Lane
    city: Ishpeming
    state: mi
    zip: '49849'
  place: '2641220'
  geo:
    lat: 46.50117
    lng: -87.6784
  phone: 517-599-4894
  website: https://www.freedomrecoverycenter.net
  sources:
  - samhsa/findtreatment
  verified:
    'on': '2026-07-19'
    method: api
- id: mi/ishpeming/greenwood-head-start-center
  name: Greenwood Head Start Center
  categories:
  - child-care
  address:
    street: 704 Greenwood St
    city: Ishpeming
    state: mi
    zip: '49849'
  place: '2641220'
  geo:
    lat: 46.48728
    lng: -87.68408
  phone: 906-485-2083
  sources:
  - acf/head-start-locations
  verified:
    'on': '2026-07-19'
    method: api
- id: mi/ishpeming/ishpeming-high-school-521801858
  name: Ishpeming High School - 521801858
  categories:
  - meal-program
  address: {street: 319 E Division St, city: Ishpeming, state: mi, zip: '49849'}
  description: Free summer meals for kids and teens (2026 season) — sponsored by Ishpeming Public School
    District No. 1 - 52180.
  place: '2641220'
  geo: {lat: 46.48856, lng: -87.66432}
  phone: (906) 485-5501
  external_ids: {usda_master: Cycle 08_MI_SFSP_0603}
  sources:
  - usda/summer-meal-sites
  verified: {'on': '2026-07-19', method: api}
- id: mi/ishpeming/ishpeming-housing-commission
  name: Ishpeming Housing Commission
  categories:
  - housing-assistance
  address:
    street: 111 Bluff St
    city: Ishpeming
    state: mi
    zip: '49849'
  description: Public housing (Low-Rent) agency
  place: '2641220'
  geo:
    lat: 46.48557
    lng: -87.66933
  phone: 906-485-4100
  sources:
  - hud/resource-locator
  verified:
    'on': '2026-07-19'
    method: api
- id: mi/ishpeming/phelps-early-childhood-center
  name: Phelps Early Childhood Center
  categories:
  - child-care
  address:
    street: 700 E North St
    city: Ishpeming
    state: mi
    zip: '49849'
  place: '2641220'
  geo:
    lat: 46.494
    lng: -87.66458
  phone: 906-485-4521
  sources:
  - acf/head-start-locations
  verified:
    'on': '2026-07-19'
    method: api
