- id: mi/kalkaska/blue-fish-early-learning-center
  name: Blue Fish Early Learning Center
  categories:
  - child-care
  address:
    street: 405 E Dresden St
    city: Kalkaska
    state: mi
    zip: '49646'
  place: '2642260'
  geo:
    lat: 44.73537
    lng: -85.18014
  phone: 231-384-6499
  sources:
  - acf/head-start-locations
  verified:
    'on': '2026-07-19'
    method: api
- id: mi/kalkaska/kalkaska-county-early-head-start
  name: Kalkaska County Early Head Start
  categories:
  - child-care
  address:
    street: 418 S Cedar St
    city: Kalkaska
    state: mi
    zip: '49646'
  place: '2642260'
  geo:
    lat: 44.73008
    lng: -85.17917
  phone: 231-947-3780
  sources:
  - acf/head-start-locations
  verified:
    'on': '2026-07-19'
    method: api
- id: mi/kalkaska/kalkaska-elementary-school-400406664
  name: Kalkaska Elementary School - 400406664
  categories:
  - meal-program
  address:
    street: 309 N Birch St
    city: Kalkaska
    state: mi
    zip: '49646'
  description: Free summer meals for kids and teens (2026 season) — sponsored by Kalkaska Public Schools
    - 40040.
  place: '2642260'
  geo:
    lat: 44.73823
    lng: -85.18464
  phone: (231) 258-9109
  external_ids:
    usda_master: Cycle 07_MI_SFSP_0233
  sources:
  - usda/summer-meal-sites
  verified:
    'on': '2026-07-19'
    method: api
- id: mi/kalkaska/kalkaska-memorial-intergenerational-center
  name: Kalkaska Memorial Intergenerational Center
  categories:
  - child-care
  address:
    street: 419 S Coral St
    city: Kalkaska
    state: mi
    zip: '49646'
  place: '2642260'
  geo:
    lat: 44.73174
    lng: -85.18308
  phone: 231-258-7509
  sources:
  - acf/head-start-locations
  verified:
    'on': '2026-07-19'
    method: api
- id: mi/kalkaska/nmcaa-preschool-kalkaska
  name: NMCAA Preschool - Kalkaska
  categories:
  - child-care
  address:
    street: 314 S Cherry St
    city: Kalkaska
    state: mi
    zip: '49646'
  place: '2642260'
  geo:
    lat: 44.73235
    lng: -85.18119
  phone: 231-258-4040
  sources:
  - acf/head-start-locations
  verified:
    'on': '2026-07-19'
    method: api
- id: mi/kalkaska/north-country-community-mh-kalkaska-county
  name: North Country Community MH Kalkaska County
  categories:
  - su-treatment
  - mh-treatment
  address:
    street: 515 South Birch Street
    city: Kalkaska
    state: mi
    zip: '49646'
  place: '2642260'
  geo:
    lat: 44.7294
    lng: -85.18652
  phone: 231-258-5133
  website: https://www.norcocmh.org
  sources:
  - samhsa/findtreatment
  verified:
    'on': '2026-07-19'
    method: api
