- id: mi/l-anse/cj-sullivan-elementary-school
  name: CJ Sullivan Elementary School
  categories:
  - child-care
  address:
    street: 201 N 4th St
    city: Lanse
    state: mi
    zip: '49946'
  place: '2645540'
  geo:
    lat: 46.75739
    lng: -88.44848
  phone: 906-524-7365
  sources:
  - acf/head-start-locations
  verified:
    'on': '2026-07-19'
    method: api
- id: mi/l-anse/keweenaw-bay-child-development-center
  name: Keweenaw Bay Child Development Center
  categories:
  - child-care
  address:
    street: 16489 Skanee Rd
    city: Lanse
    state: mi
    zip: '49946'
  place: '2645540'
  geo:
    lat: 46.79668
    lng: -88.36897
  phone: 906-524-6626
  sources:
  - acf/head-start-locations
  verified:
    'on': '2026-07-19'
    method: api
- id: mi/l-anse/l-anse-area-school-070404149
  name: L'Anse Area School - 070404149
  categories:
  - meal-program
  address: {street: 201 N 4Th St, city: Lanse, state: mi, zip: '49946'}
  description: Free summer meals for kids and teens (2026 season) — sponsored by L'Anse Area Schools -
    07040.
  place: '2645540'
  geo: {lat: 46.75839, lng: -88.44891}
  phone: (906) 524-6000
  external_ids: {usda_master: Cycle 08_MI_SFSP_0680}
  sources:
  - usda/summer-meal-sites
  verified: {'on': '2026-07-19', method: api}
- id: mi/l-anse/l-anse-child-development-center
  name: L'Anse Child Development Center
  categories:
  - child-care
  address:
    street: 303 Baraga Ave
    city: Lanse
    state: mi
    zip: '49946'
  place: '2645540'
  geo:
    lat: 46.75533
    lng: -88.45298
  phone: 906-524-7300
  sources:
  - acf/head-start-locations
  verified:
    'on': '2026-07-19'
    method: api
- id: mi/l-anse/l-anse-housing-commission
  name: L'Anse Housing Commission
  categories:
  - housing-assistance
  address:
    street: 110 6th St
    city: Lanse
    state: mi
    zip: '49946'
  description: Public housing (Low-Rent) agency
  place: '2645540'
  geo:
    lat: 46.75364
    lng: -88.45121
  phone: 906-524-6311
  sources:
  - hud/resource-locator
  verified:
    'on': '2026-07-19'
    method: api
