- id: mi/lansing/allen-community-health-center
  name: Allen Community Health Center
  categories:
  - community-health-center
  address:
    street: 1601 E Kalamazoo St
    city: Lansing
    state: mi
    zip: '48912'
  place: '2646000'
  geo:
    lat: 42.73027
    lng: -84.52704
  phone: 517-678-2880
  external_ids:
    bphc: BPS-H80-035155
  sources:
  - hrsa/health-center-sites
  verified:
    'on': '2026-07-19'
    method: api
- id: mi/lansing/battle-creek-vamc-lansing-cboc
  name: Battle Creek VAMC Lansing CBOC
  categories:
  - su-treatment
  - mh-treatment
  address:
    street: 5656 South Cedar Street
    city: Lansing
    state: mi
    zip: '48910'
  place: '2646000'
  geo:
    lat: 42.67473
    lng: -84.54804
  phone: 517-267-3625
  website: https://www.battlecreek.va.gov/
  sources:
  - samhsa/findtreatment
  verified:
    'on': '2026-07-19'
    method: api
- id: mi/lansing/bhg-lansing-treatment-center-michigan-therapeuti
  name: BHG Lansing Treatment Center Michigan Therapeutic Consultants
  categories:
  - su-treatment
  address:
    street: 913 West Holmes Road
    city: Lansing
    state: mi
    zip: '48910'
  place: '2646000'
  geo:
    lat: 42.69599
    lng: -84.56416
  phone: 517-272-4357
  website: https://www.bhgrecovery.com
  sources:
  - samhsa/findtreatment
  verified:
    'on': '2026-07-19'
    method: api
- id: mi/lansing/birch-community-health-center
  name: Birch Community Health Center
  categories:
  - community-health-center
  address:
    street: 812 E Jolly Rd, Suite 112
    city: Lansing
    state: mi
    zip: '48910'
  place: '2646000'
  geo:
    lat: 42.68249
    lng: -84.54106
  phone: 517-244-8030
  website: https://hd.ingham.org/chc
  external_ids:
    bphc: BPS-H80-015726
  sources:
  - hrsa/health-center-sites
  verified:
    'on': '2026-07-19'
    method: api
- id: mi/lansing/care-free-dental
  name: Care Free Dental
  categories:
  - community-health-center
  address:
    street: 1100 W Saginaw St
    city: Lansing
    state: mi
    zip: '48915'
  place: '2646000'
  geo:
    lat: 42.74136
    lng: -84.56758
  phone: 517-887-5922
  website: http://www.carefreemedical.com
  external_ids:
    bphc: BPS-LAL-039089
  sources:
  - hrsa/health-center-sites
  verified:
    'on': '2026-07-19'
    method: api
- id: mi/lansing/care-free-medical
  name: Care Free Medical
  categories:
  - community-health-center
  address:
    street: 1115 S Pennsylvania Ave, Suite 101
    city: Lansing
    state: mi
    zip: '48912'
  place: '2646000'
  geo:
    lat: 42.72194
    lng: -84.53699
  phone: 517-887-5922
  external_ids:
    bphc: BPS-LAL-041434
  sources:
  - hrsa/health-center-sites
  verified:
    'on': '2026-07-19'
    method: api
- id: mi/lansing/catholic-charities-of-ingham-counseling-services
  name: Catholic Charities of Ingham Counseling Services
  categories:
  - su-treatment
  address:
    street: 1717 North High Street
    city: Lansing
    state: mi
    zip: '48906'
  place: '2646000'
  geo:
    lat: 42.75359
    lng: -84.53919
  phone: 517-372-4700 x140
  website: https://www.catholiccharitiesiec.org
  sources:
  - samhsa/findtreatment
  verified:
    'on': '2026-07-19'
    method: api
- id: mi/lansing/cedar-community-health-center
  name: Cedar Community Health Center
  categories:
  - community-health-center
  address:
    street: 5303 S Cedar St
    city: Lansing
    state: mi
    zip: '48911'
  place: '2646000'
  geo:
    lat: 42.68094
    lng: -84.54508
  phone: 517-887-4305
  website: https://hd.ingham.org/chc
  external_ids:
    bphc: BPS-H80-008221
  sources:
  - hrsa/health-center-sites
  verified:
    'on': '2026-07-19'
    method: api
- id: mi/lansing/child-and-family-charities
  name: Child and Family Charities
  categories:
  - mh-treatment
  address:
    street: 407 West Greenlawn
    city: Lansing
    state: mi
    zip: '48910'
  place: '2646000'
  geo:
    lat: 42.70435
    lng: -84.5574
  phone: 517-882-4000 x151
  website: https://www.childandfamily.org
  sources:
  - samhsa/findtreatment
  verified:
    'on': '2026-07-19'
    method: api
- id: mi/lansing/cradles-to-crayons-mlk
  name: CRADLES TO CRAYONS-MLK
  categories:
  - child-care
  address:
    street: 4711 S Martin Luther King Blvd
    city: Lansing
    state: mi
    zip: '48911'
  place: '2646000'
  geo:
    lat: 42.68607
    lng: -84.56718
  phone: 517-657-3403
  sources:
  - acf/head-start-locations
  verified:
    'on': '2026-07-19'
    method: api
- id: mi/lansing/cradles-to-crayons-mlk-2
  name: CRADLES TO CRAYONS-MLK
  categories:
  - child-care
  address:
    street: 101 E Claremore Dr
    city: Lansing
    state: mi
    zip: '48911'
  place: '2646000'
  geo:
    lat: 42.67255
    lng: -84.55281
  phone: 517-528-6455
  sources:
  - acf/head-start-locations
  verified:
    'on': '2026-07-19'
    method: api
- id: mi/lansing/eastern-community-health-center
  name: Eastern Community Health Center
  categories:
  - community-health-center
  address:
    street: 626 Marshall St
    city: Lansing
    state: mi
    zip: '48912'
  place: '2646000'
  geo:
    lat: 42.73956
    lng: -84.52455
  phone: 517-244-8014
  external_ids:
    bphc: BPS-H80-028303
  sources:
  - hrsa/health-center-sites
  verified:
    'on': '2026-07-19'
    method: api
- id: mi/lansing/everett-community-health-center
  name: Everett Community Health Center
  categories:
  - community-health-center
  address:
    street: 3900 Stabler St RM 7
    city: Lansing
    state: mi
    zip: '48910'
  place: '2646000'
  geo:
    lat: 42.69337
    lng: -84.55562
  phone: 517-272-4104
  external_ids:
    bphc: BPS-H80-030002
  sources:
  - hrsa/health-center-sites
  verified:
    'on': '2026-07-19'
    method: api
- id: mi/lansing/first-nazarene-childcare-and-learning
  name: First Nazarene Childcare and Learning
  categories:
  - child-care
  address:
    street: 310 Elmwood Rd
    city: Lansing
    state: mi
    zip: '48917'
  place: '2646000'
  geo:
    lat: 42.73693
    lng: -84.6213
  phone: 517-321-4676
  sources:
  - acf/head-start-locations
  verified:
    'on': '2026-07-19'
    method: api
- id: mi/lansing/forest-community-health-center
  name: Forest Community Health Center
  categories:
  - community-health-center
  address:
    street: 2316 S Cedar St
    city: Lansing
    state: mi
    zip: '48910'
  place: '2646000'
  geo:
    lat: 42.70791
    lng: -84.54883
  phone: 517-887-4302
  website: https://hd.ingham.org/chc
  external_ids:
    bphc: BPS-H80-017558
  sources:
  - hrsa/health-center-sites
  verified:
    'on': '2026-07-19'
    method: api
- id: mi/lansing/gardner-community-health-center
  name: Gardner Community Health Center
  categories:
  - community-health-center
  address:
    street: 333 Dahlia Dr
    city: Lansing
    state: mi
    zip: '48911'
  place: '2646000'
  geo:
    lat: 42.68071
    lng: -84.55697
  phone: 517-272-4115
  external_ids:
    bphc: BPS-H80-029976
  sources:
  - hrsa/health-center-sites
  verified:
    'on': '2026-07-19'
    method: api
- id: mi/lansing/grand-river-head-start
  name: GRAND RIVER HEAD START
  categories:
  - child-care
  address:
    street: 1107 E Grand River Ave
    city: Lansing
    state: mi
    zip: '48906'
  place: '2646000'
  geo:
    lat: 42.74816
    lng: -84.53645
  phone: 517-999-2730
  sources:
  - acf/head-start-locations
  verified:
    'on': '2026-07-19'
    method: api
- id: mi/lansing/harley-franks-head-start
  name: HARLEY FRANKS HEAD START
  categories:
  - child-care
  address:
    street: 2924 Newark Ave
    city: Lansing
    state: mi
    zip: '48911'
  place: '2646000'
  geo:
    lat: 42.67122
    lng: -84.59183
  phone: 517-827-2282
  sources:
  - acf/head-start-locations
  verified:
    'on': '2026-07-19'
    method: api
- id: mi/lansing/itrs-outpatient-community-mental-health-cei
  name: ITRS Outpatient Community Mental Health CEI
  categories:
  - su-treatment
  - mh-treatment
  address:
    street: 405 W. Greenlawn
    city: Lansing
    state: mi
    zip: '48910'
  place: '2646000'
  geo:
    lat: 42.70435
    lng: -84.55576
  phone: 517-237-7231
  website: https://www.ceicmh.org
  sources:
  - samhsa/findtreatment
  verified:
    'on': '2026-07-19'
    method: api
- id: mi/lansing/jenison-early-head-start
  name: JENISON EARLY HEAD START
  categories:
  - child-care
  address:
    street: 727 N Jenison Ave
    city: Lansing
    state: mi
    zip: '48915'
  place: '2646000'
  geo:
    lat: 42.74177
    lng: -84.57321
  phone: 517-372-9411
  sources:
  - acf/head-start-locations
  verified:
    'on': '2026-07-19'
    method: api
- id: mi/lansing/jus-us-kidz
  name: Jus Us Kidz
  categories:
  - child-care
  address:
    street: 3200 Delta River Dr
    city: Lansing
    state: mi
    zip: '48906'
  place: '2646000'
  geo:
    lat: 42.7613
    lng: -84.59303
  phone: 517-862-4118
  sources:
  - acf/head-start-locations
  verified:
    'on': '2026-07-19'
    method: api
- id: mi/lansing/kendon-head-start
  name: KENDON HEAD START
  categories:
  - child-care
  address:
    street: 827 Kendon Dr
    city: Lansing
    state: mi
    zip: '48910'
  place: '2646000'
  geo:
    lat: 42.68681
    lng: -84.54085
  phone: 517-482-1504
  sources:
  - acf/head-start-locations
  verified:
    'on': '2026-07-19'
    method: api
- id: mi/lansing/lansing-housing-commission
  name: Lansing Housing Commission
  categories:
  - housing-assistance
  address: {street: 419 Cherry St, city: Lansing, state: mi, zip: '48933'}
  description: Public housing and Housing Choice Voucher agency
  place: '2646000'
  geo: {lat: 42.72864, lng: -84.54895}
  phone: 517-487-6550
  sources:
  - hud/resource-locator
  verified: {'on': '2026-07-19', method: api}
- id: mi/lansing/lansing-school-district-averill
  name: LANSING SCHOOL DISTRICT AVERILL
  categories:
  - child-care
  address:
    street: 3201 Averill Dr
    city: Lansing
    state: mi
    zip: '48911'
  place: '2646000'
  geo:
    lat: 42.70009
    lng: -84.59842
  phone: 517-482-1504
  sources:
  - acf/head-start-locations
  verified:
    'on': '2026-07-19'
    method: api
- id: mi/lansing/lansing-school-district-cumberland
  name: LANSING SCHOOL DISTRICT-CUMBERLAND
  categories:
  - child-care
  address:
    street: 2801 Cumberland Rd
    city: Lansing
    state: mi
    zip: '48906'
  place: '2646000'
  geo:
    lat: 42.75692
    lng: -84.58856
  phone: 517-482-1504
  sources:
  - acf/head-start-locations
  verified:
    'on': '2026-07-19'
    method: api
- id: mi/lansing/lansing-school-district-forestview
  name: LANSING SCHOOL DISTRICT FORESTVIEW
  categories:
  - child-care
  address:
    street: 3118 Stoneleigh Dr
    city: Lansing
    state: mi
    zip: '48910'
  place: '2646000'
  geo:
    lat: 42.69969
    lng: -84.51538
  phone: 517-482-1504
  sources:
  - acf/head-start-locations
  verified:
    'on': '2026-07-19'
    method: api
- id: mi/lansing/lansing-school-district-gier-park
  name: LANSING SCHOOL DISTRICT-GIER PARK
  categories:
  - child-care
  address:
    street: 401 E Gier St
    city: Lansing
    state: mi
    zip: '48906'
  place: '2646000'
  geo:
    lat: 42.75928
    lng: -84.54738
  phone: 517-482-1504
  sources:
  - acf/head-start-locations
  verified:
    'on': '2026-07-19'
    method: api
- id: mi/lansing/lansing-school-district-pleasant-view
  name: LANSING SCHOOL DISTRICT-PLEASANT VIEW
  categories:
  - child-care
  address:
    street: 4501 Pleasant Rd
    city: Lansing
    state: mi
    zip: '48910'
  place: '2646000'
  geo:
    lat: 42.68872
    lng: -84.58125
  phone: 517-482-1504
  sources:
  - acf/head-start-locations
  verified:
    'on': '2026-07-19'
    method: api
- id: mi/lansing/lifestance-health
  name: Lifestance Health
  categories:
  - su-treatment
  - mh-treatment
  address:
    street: 4136 Legacy Parkway
    city: Lansing
    state: mi
    zip: '48911'
  place: '2646000'
  geo:
    lat: 42.68114
    lng: -84.50915
  phone: 734-759-0000
  website: https://www.lifestance.com
  sources:
  - samhsa/findtreatment
  verified:
    'on': '2026-07-19'
    method: api
- id: mi/lansing/lifestance-health-2
  name: Lifestance Health
  categories:
  - su-treatment
  - mh-treatment
  address:
    street: 3475 Belle Chase Way
    city: Lansing
    state: mi
    zip: '48911'
  place: '2646000'
  geo:
    lat: 42.68158
    lng: -84.50882
  phone: 517-744-7389
  website: https://www.lifestance.com
  sources:
  - samhsa/findtreatment
  verified:
    'on': '2026-07-19'
    method: api
- id: mi/lansing/michigan-state-housing-development-authority
  name: Michigan State Housing Development Authority
  categories:
  - housing-assistance
  address: {street: 735 E Michigan Ave, city: Lansing, state: mi, zip: '48912'}
  description: Housing Choice Voucher (Section 8) agency
  place: '2646000'
  geo: {lat: 42.73375, lng: -84.54185}
  phone: 517-241-0809
  sources:
  - hud/resource-locator
  verified: {'on': '2026-07-19', method: api}
- id: mi/lansing/mid-michigan-recovery-services-glass-house
  name: Mid Michigan Recovery Services Glass House
  categories:
  - su-treatment
  address:
    street: 316 Moores River Drive
    city: Lansing
    state: mi
    zip: '48910'
  place: '2646000'
  phone: 517-887-0226
  website: https://www.midmichiganrecoveryservices.org/
  sources:
  - samhsa/findtreatment
  verified:
    'on': '2026-07-19'
    method: api
- id: mi/lansing/mid-michigan-recovery-services-outpatient
  name: Mid Michigan Recovery Services Outpatient
  categories:
  - su-treatment
  address:
    street: 913 West Holmes Road
    city: Lansing
    state: mi
    zip: '48910'
  place: '2646000'
  geo:
    lat: 42.69599
    lng: -84.56416
  phone: 517-887-0226
  website: https://www.midmichiganrecoveryservices.org/
  sources:
  - samhsa/findtreatment
  verified:
    'on': '2026-07-19'
    method: api
- id: mi/lansing/mid-michigan-recovery-services-outpatient-clinic
  name: Mid Michigan Recovery Services Outpatient Clinic
  categories:
  - su-treatment
  address:
    street: 316 Moores River Drive
    city: Lansing
    state: mi
    zip: '48910'
  place: '2646000'
  geo:
    lat: 42.71632
    lng: -84.55642
  phone: 517-887-0226
  website: https://www.midmichiganrecoveryservices.org
  sources:
  - samhsa/findtreatment
  verified:
    'on': '2026-07-19'
    method: api
- id: mi/lansing/miller-road
  name: MILLER ROAD
  categories:
  - child-care
  address:
    street: 3000 W Miller Rd
    city: Lansing
    state: mi
    zip: '48911'
  place: '2646000'
  geo:
    lat: 42.66965
    lng: -84.59073
  phone: 517-203-9069
  sources:
  - acf/head-start-locations
  verified:
    'on': '2026-07-19'
    method: api
- id: mi/lansing/mobile-dental-center
  name: Mobile Dental Center.
  categories:
  - community-health-center
  address:
    street: 2316 S Cedar St
    city: Lansing
    state: mi
    zip: '48910'
  place: '2646000'
  geo:
    lat: 42.70791
    lng: -84.54883
  phone: 517-887-4302
  website: https://hd.ingham.org/chc
  external_ids:
    bphc: BPS-H80-018051
  sources:
  - hrsa/health-center-sites
  verified:
    'on': '2026-07-19'
    method: api
- id: mi/lansing/pattengill-community-health-center
  name: Pattengill Community Health Center
  categories:
  - community-health-center
  address:
    street: 815 N Fairview Ave
    city: Lansing
    state: mi
    zip: '48912'
  place: '2646000'
  geo:
    lat: 42.74201
    lng: -84.52118
  phone: 517-887-4349
  external_ids:
    bphc: BPS-H80-030001
  sources:
  - hrsa/health-center-sites
  verified:
    'on': '2026-07-19'
    method: api
- id: mi/lansing/pine-street-head-start
  name: PINE STREET HEAD START
  categories:
  - child-care
  address:
    street: 600 W Maple St
    street2: Ste 1
    city: Lansing
    state: mi
    zip: '48906'
  place: '2646000'
  geo:
    lat: 42.74612
    lng: -84.55993
  phone: 517-485-7012
  sources:
  - acf/head-start-locations
  verified:
    'on': '2026-07-19'
    method: api
- id: mi/lansing/pinnacle-recovery-services
  name: Pinnacle Recovery Services
  categories:
  - su-treatment
  - mh-treatment
  address:
    street: 3410 Old Lansing Road
    city: Lansing
    state: mi
    zip: '48917'
  place: '2646000'
  geo:
    lat: 42.71917
    lng: -84.59657
  phone: 517-574-4456
  website: https://www.pinnaclerecoveryservicesmi.org
  sources:
  - samhsa/findtreatment
  verified:
    'on': '2026-07-19'
    method: api
- id: mi/lansing/prevention-and-training-services
  name: Prevention and Training Services
  categories:
  - su-treatment
  address:
    street: 252 South Waverly Road
    city: Lansing
    state: mi
    zip: '48917'
  place: '2646000'
  geo:
    lat: 42.73148
    lng: -84.6035
  phone: 517-323-8149
  website: https://www.patslansing.com
  sources:
  - samhsa/findtreatment
  verified:
    'on': '2026-07-19'
    method: api
- id: mi/lansing/reality-counseling-services
  name: Reality Counseling Services
  categories:
  - su-treatment
  address:
    street: 610 East Caesar E Chavez Avenue
    city: Lansing
    state: mi
    zip: '48906'
  place: '2646000'
  geo:
    lat: 42.74693
    lng: -84.54406
  phone: 517-484-4997
  website: https://Realitycs.com
  sources:
  - samhsa/findtreatment
  verified:
    'on': '2026-07-19'
    method: api
- id: mi/lansing/recovery-center-community-mental-health-cei
  name: Recovery Center Community Mental Health CEI
  categories:
  - su-treatment
  address:
    street: 812 East Jolly Road
    city: Lansing
    state: mi
    zip: '48910'
  place: '2646000'
  geo:
    lat: 42.68232
    lng: -84.54106
  phone: 269-426-1249
  website: https://www.ceicmh.org
  sources:
  - samhsa/findtreatment
  verified:
    'on': '2026-07-19'
    method: api
- id: mi/lansing/sexton-community-health-center
  name: Sexton Community Health Center
  categories:
  - community-health-center
  address:
    street: 102 McPherson Ave
    city: Lansing
    state: mi
    zip: '48915'
  place: '2646000'
  geo:
    lat: 42.7329
    lng: -84.57593
  phone: 517-244-8041
  website: https://hd.ingham.org/CHC
  external_ids:
    bphc: BPS-H80-018667
  sources:
  - hrsa/health-center-sites
  verified:
    'on': '2026-07-19'
    method: api
- id: mi/lansing/sycamore-creek-south-lansing-campus
  name: Sycamore Creek South Lansing Campus
  categories:
  - food-pantry
  place: '2646000'
  geo:
    lat: 42.71115
    lng: -84.53767
  external_ids:
    lfp: '4416'
  sources:
  - littlefreepantry/map
  verified:
    'on': '2026-07-19'
    method: scrape
- id: mi/lansing/university-of-michigan-health-sparro-outpatient
  name: University of Michigan Health/Sparro Outpatient Behavioral Health
  categories:
  - mh-treatment
  address:
    city: Lansing
    state: mi
    zip: '48915'
  place: '2646000'
  phone: 517-364-7700
  website: https://www.umhsparrow.org
  sources:
  - samhsa/findtreatment
  verified:
    'on': '2026-07-19'
    method: api
- id: mi/lansing/victory-clinical-services-lansing
  name: Victory Clinical Services Lansing
  categories:
  - su-treatment
  address:
    street: 4902 South Cedar Street
    city: Lansing
    state: mi
    zip: '48910'
  place: '2646000'
  geo:
    lat: 42.68498
    lng: -84.5484
  phone: 517-394-7867
  website: https://www.victoryclinic.com
  sources:
  - samhsa/findtreatment
  verified:
    'on': '2026-07-19'
    method: api
- id: mi/lansing/wellspring-lutheran-services-behavioral-health
  name: Wellspring Lutheran Services Behavioral Health
  categories:
  - mh-treatment
  address:
    street: 5826 Executive Drive
    city: Lansing
    state: mi
    zip: '48911'
  place: '2646000'
  geo:
    lat: 42.67268
    lng: -84.5354
  phone: 989-448-8540
  website: https://wellspringlutheran.com/behavioral-health
  sources:
  - samhsa/findtreatment
  verified:
    'on': '2026-07-19'
    method: api
