- id: mi/marshall/hughes-elementary-school-131101790
  name: Hughes Elementary School - 131101790
  categories:
  - meal-program
  address:
    street: 103 W Hughes St
    city: Marshall
    state: mi
    zip: '49068'
  description: Free summer meals for kids and teens (2026 season) — sponsored by Marshall Public Schools
    - 13110.
  place: '2651940'
  geo:
    lat: 42.26111
    lng: -84.95889
  phone: (269) 781-1257
  external_ids:
    usda_master: Cycle 07_MI_SFSP_0278
  sources:
  - usda/summer-meal-sites
  verified:
    'on': '2026-07-19'
    method: api
- id: mi/marshall/marshall-head-start
  name: Marshall Head Start
  categories:
  - child-care
  address:
    street: 721 US Hwy 27 N
    city: Marshall
    state: mi
    zip: '49068'
  place: '2651940'
  geo:
    lat: 42.28653
    lng: -84.96572
  phone: 269-789-4514
  sources:
  - acf/head-start-locations
  verified:
    'on': '2026-07-19'
    method: api
- id: mi/marshall/marshall-high-school
  name: Marshall High School
  categories:
  - community-health-center
  address:
    street: 701 N Marshall Ave
    city: Marshall
    state: mi
    zip: '49068'
  place: '2651940'
  geo:
    lat: 42.28676
    lng: -84.95841
  phone: 269-781-1252
  external_ids:
    bphc: BPS-H80-039496
  sources:
  - hrsa/health-center-sites
  verified:
    'on': '2026-07-19'
    method: api
- id: mi/marshall/marshall-high-school-131106111
  name: Marshall High School - 131106111
  categories:
  - meal-program
  address:
    street: 701 N Marshall Ave
    city: Marshall
    state: mi
    zip: '49068'
  description: Free summer meals for kids and teens (2026 season) — sponsored by Marshall Public Schools
    - 13110.
  place: '2651940'
  geo:
    lat: 42.28611
    lng: -84.95693
  phone: (269) 781-1257
  external_ids:
    usda_master: Cycle 07_MI_SFSP_0279
  sources:
  - usda/summer-meal-sites
  verified:
    'on': '2026-07-19'
    method: api
- id: mi/marshall/oaklawn-hospital-oaklawn-psychiatric-center
  name: Oaklawn Hospital Oaklawn Psychiatric Center
  categories:
  - su-treatment
  - mh-treatment
  address:
    street: 200 North Madison Street
    city: Marshall
    state: mi
    zip: '49068'
  place: '2651940'
  geo:
    lat: 42.27356
    lng: -84.95706
  phone: 269-781-4484
  website: https://oaklawnhospital.org
  sources:
  - samhsa/findtreatment
  verified:
    'on': '2026-07-19'
    method: api
