- id: mi/niles/berrien-mental-health-authority-dba-riverwood-ce
  name: Berrien Mental Health Authority DBA Riverwood Center
  categories:
  - su-treatment
  - mh-treatment
  address:
    street: 24 North Saint Joseph Avenue
    city: Niles
    state: mi
    zip: '49120'
  place: '2657760'
  geo:
    lat: 41.82775
    lng: -86.26197
  phone: 269-684-4270
  website: https://www.riverwoodcenter.org
  sources:
  - samhsa/findtreatment
  verified:
    'on': '2026-07-19'
    method: api
- id: mi/niles/cass-family-clinic-niles
  name: Cass Family Clinic Niles
  categories:
  - su-treatment
  - mh-treatment
  address:
    street: 1951 Oak Street
    city: Niles
    state: mi
    zip: '49120'
  place: '2657760'
  geo:
    lat: 41.8273
    lng: -86.22773
  phone: 269-665-8800
  website: https://cassfamilyclinic.org/
  sources:
  - samhsa/findtreatment
  verified:
    'on': '2026-07-19'
    method: api
- id: mi/niles/niles-community-health-center
  name: Niles Community Health Center
  categories:
  - community-health-center
  address:
    street: 1951 Oak St
    city: Niles
    state: mi
    zip: '49120'
  place: '2657760'
  geo:
    lat: 41.82743
    lng: -86.22804
  phone: 269-262-4749
  external_ids:
    bphc: BPS-H80-029683
  sources:
  - hrsa/health-center-sites
  verified:
    'on': '2026-07-19'
    method: api
- id: mi/niles/niles-head-start-center-bell
  name: Niles Head Start Center- Bell
  categories:
  - child-care
  address:
    street: 1830 S 3rd St
    city: Niles
    state: mi
    zip: '49120'
  place: '2657760'
  geo:
    lat: 41.79983
    lng: -86.25455
  phone: 269-262-4200
  sources:
  - acf/head-start-locations
  verified:
    'on': '2026-07-19'
    method: api
- id: mi/niles/niles-housing-commission
  name: Niles Housing Commission
  categories:
  - housing-assistance
  address: {street: 251 Cass St, city: Niles, state: mi, zip: '49120'}
  description: Public housing (Low-Rent) agency
  place: '2657760'
  geo: {lat: 41.83287, lng: -86.25734}
  phone: 269-683-2783
  sources:
  - hud/resource-locator
  verified: {'on': '2026-07-19', method: api}
