- id: mi/owosso/catholic-charities-of-shiawassee-and-genesee-cou
  name: Catholic Charities of Shiawassee and Genesee Counties
  categories:
  - su-treatment
  - mh-treatment
  address:
    street: 1480 North M-52
    city: Owosso
    state: mi
    zip: '48867'
  place: '2661940'
  geo:
    lat: 43.02009
    lng: -84.11883
  phone: 989-723-8239
  website: https://www.catholiccharitiesflint.org/
  sources:
  - samhsa/findtreatment
  verified:
    'on': '2026-07-19'
    method: api
- id: mi/owosso/great-lakes-bay-health-centers-integrated-care-s
  name: Great Lakes Bay Health Centers Integrated Care Shiawassee
  categories:
  - community-health-center
  address:
    street: 1555 Industrial Dr
    city: Owosso
    state: mi
    zip: '48867'
  place: '2661940'
  geo:
    lat: 42.98242
    lng: -84.15264
  phone: 989-759-6400
  website: https://greatlakesbayhealthcenters.org
  external_ids:
    bphc: BPS-H80-013354
  sources:
  - hrsa/health-center-sites
  verified:
    'on': '2026-07-19'
    method: api
- id: mi/owosso/great-lakes-bay-health-centers-shiawassee-closin
  name: Great Lakes Bay Health Centers Shiawassee (Closing)
  categories:
  - community-health-center
  address:
    street: 200 N Caledonia Dr
    city: Owosso
    state: mi
    zip: '48867'
  place: '2661940'
  geo:
    lat: 43.00048
    lng: -84.12555
  phone: 989-729-4848
  website: https://greatlakesbayhealthcenters.org
  external_ids:
    bphc: BPS-H80-015773
  sources:
  - hrsa/health-center-sites
  verified:
    'on': '2026-07-19'
    method: api
- id: mi/owosso/roosevelt-head-start
  name: ROOSEVELT HEAD START
  categories:
  - child-care
  address:
    street: 201 N Brooks St
    city: Owosso
    state: mi
    zip: '48867'
  place: '2661940'
  geo:
    lat: 42.99863
    lng: -84.19272
  phone: 989-723-5849
  sources:
  - acf/head-start-locations
  verified:
    'on': '2026-07-19'
    method: api
- id: mi/owosso/shiawassee-health-and-wellness-shiawassee-county
  name: Shiawassee Health and Wellness Shiawassee County CMHA
  categories:
  - su-treatment
  - mh-treatment
  address:
    street: 1555 Industrial Drive
    city: Owosso
    state: mi
    zip: '48867'
  place: '2661940'
  geo:
    lat: 42.98206
    lng: -84.15235
  phone: 989-723-6791
  website: https://shiabewell.org
  sources:
  - samhsa/findtreatment
  verified:
    'on': '2026-07-19'
    method: api
