- id: mi/romulus/all-well-being-services
  name: All Well Being Services
  categories:
  - su-treatment
  - mh-treatment
  address:
    street: 30555 Michigan Avenue
    city: Romulus
    state: mi
    zip: '48174'
  place: '2669420'
  geo:
    lat: 42.28618
    lng: -83.34082
  phone: 734-629-5000
  website: https://www.awbs.org
  sources:
  - samhsa/findtreatment
  verified:
    'on': '2026-07-19'
    method: api
- id: mi/romulus/cruella-doughville-delano-st-blessing-box
  name: Cruella Doughville DeLano St. Blessing Box
  categories:
  - food-pantry
  place: '2669420'
  geo:
    lat: 42.22114
    lng: -83.39197
  external_ids:
    lfp: '4247'
  sources:
  - littlefreepantry/map
  verified:
    'on': '2026-07-19'
    method: scrape
- id: mi/romulus/public-service-credit-union-food-pantry-romulus
  name: 'Public Service Credit Union Food Pantry: Romulus Branch'
  categories:
  - food-pantry
  place: '2669420'
  geo:
    lat: 42.24833
    lng: -83.34696
  external_ids:
    lfp: '4205'
  sources:
  - littlefreepantry/map
  verified:
    'on': '2026-07-19'
    method: scrape
- id: mi/romulus/romulus
  name: Romulus
  categories:
  - child-care
  address:
    street: 35200 Smith Rd
    city: Romulus
    state: mi
    zip: '48174'
  place: '2669420'
  geo:
    lat: 42.24376
    lng: -83.38424
  phone: 734-785-7792
  sources:
  - acf/head-start-locations
  verified:
    'on': '2026-07-19'
    method: api
- id: mi/romulus/romulus-housing-commission
  name: Romulus Housing Commission
  categories:
  - housing-assistance
  address: {street: 34200 Beverly Rd, city: Romulus, state: mi, zip: '48174'}
  description: Public housing (Low-Rent) agency
  place: '2669420'
  geo: {lat: 42.25963, lng: -83.37464}
  phone: 734-729-5389
  sources:
  - hud/resource-locator
  verified: {'on': '2026-07-19', method: api}
