- id: mi/roscommon/midmichigan-community-health-services-pharmacy
  name: MidMichigan Community Health Services Pharmacy
  categories:
  - community-health-center
  cost: sliding-scale
  address:
    street: 214 Lake St
    city: Roscommon
    state: mi
    zip: '48653'
  place: '2669540'
  geo:
    lat: 44.49095
    lng: -84.59681
  phone: 989-422-5122
  website: https://www.healthynorth.org
  external_ids:
    bphc: BPS-H80-034394
  sources:
  - hrsa/health-center-sites
  verified:
    'on': '2026-07-19'
    method: api
- id: mi/roscommon/midmichigan-medical-offices-roscommon
  name: MIDMICHIGAN MEDICAL OFFICES - ROSCOMMON
  categories:
  - community-health-center
  cost: sliding-scale
  address:
    street: 135 Lake St
    city: Roscommon
    state: mi
    zip: '48653'
  place: '2669540'
  geo:
    lat: 44.50079
    lng: -84.70594
  phone: 989-275-8931
  website: https://www.midmichigan.org/chs
  external_ids:
    bphc: BPS-H80-002692
  sources:
  - hrsa/health-center-sites
  verified:
    'on': '2026-07-19'
    method: api
- id: mi/roscommon/nmcaa-preschool-roscommon
  name: NMCAA Preschool - Roscommon
  categories:
  - child-care
  address:
    street: 175 West Sunset Dr
    city: Roscommon
    state: mi
    zip: '48653'
  place: '2669540'
  geo:
    lat: 44.49321
    lng: -84.61618
  phone: 989-275-6610
  sources:
  - acf/head-start-locations
  verified:
    'on': '2026-07-19'
    method: api
- id: mi/roscommon/northern-michigan-children-s-assessment-center
  name: Northern Michigan Children's Assessment Center
  categories:
  - community-health-center
  cost: sliding-scale
  address:
    street: 112 S 4th St
    city: Roscommon
    state: mi
    zip: '48653'
  place: '2669540'
  geo:
    lat: 44.49765
    lng: -84.59311
  phone: 989-275-7145
  website: https://www.nmcac4kids.org
  external_ids:
    bphc: BPS-H80-028197
  sources:
  - hrsa/health-center-sites
  verified:
    'on': '2026-07-19'
    method: api
- id: mi/roscommon/roscommon-sbhc
  name: Roscommon SBHC
  categories:
  - community-health-center
  cost: sliding-scale
  address:
    street: 299H W Sunset Dr
    city: Roscommon
    state: mi
    zip: '48653'
  place: '2669540'
  geo:
    lat: 44.49316
    lng: -84.66311
  phone: 989-275-6658
  website: https://www.midmichigan.org/chs
  external_ids:
    bphc: BPS-H80-006620
  sources:
  - hrsa/health-center-sites
  verified:
    'on': '2026-07-19'
    method: api
