- id: mi/roseville/biomed-behavioral-health-services
  name: Biomed Behavioral Health Services
  categories:
  - su-treatment
  address:
    street: 31581 Gratiot Avenue
    city: Roseville
    state: mi
    zip: '48066'
  place: '2669800'
  geo:
    lat: 42.52926
    lng: -82.91652
  phone: 586-783-4802
  website: https://www.biomedmat.org
  sources:
  - samhsa/findtreatment
  verified:
    'on': '2026-07-19'
    method: api
- id: mi/roseville/care-of-southeastern-michigan
  name: CARE of Southeastern Michigan
  categories:
  - su-treatment
  - mh-treatment
  address:
    street: 18441 Utica Road
    city: Roseville
    state: mi
    zip: '48066'
  place: '2669800'
  geo:
    lat: 42.50361
    lng: -82.93132
  phone: 586-541-2273
  website: https://www.careofsem.com
  sources:
  - samhsa/findtreatment
  verified:
    'on': '2026-07-19'
    method: api
- id: mi/roseville/dooley-head-start
  name: Dooley Head Start
  categories:
  - child-care
  address:
    street: 16170 Canberra St
    city: Roseville
    state: mi
    zip: '48066'
  place: '2669800'
  geo:
    lat: 42.52256
    lng: -82.95566
  phone: 586-439-7663
  sources:
  - acf/head-start-locations
  verified:
    'on': '2026-07-19'
    method: api
- id: mi/roseville/dort-head-start
  name: Dort Head Start
  categories:
  - child-care
  address:
    street: 16225 Dort St
    city: Roseville
    state: mi
    zip: '48066'
  place: '2669800'
  geo:
    lat: 42.48577
    lng: -82.95436
  phone: 586-445-5731
  sources:
  - acf/head-start-locations
  verified:
    'on': '2026-07-19'
    method: api
- id: mi/roseville/frikken-pantry
  name: Frikken Pantry
  categories:
  - food-pantry
  place: '2669800'
  geo:
    lat: 42.4975
    lng: -82.95889
  external_ids:
    lfp: '1871'
  sources:
  - littlefreepantry/map
  verified:
    'on': '2026-07-19'
    method: scrape
- id: mi/roseville/joyful-tots
  name: Joyful Tots
  categories:
  - child-care
  address:
    street: 25235 Gratiot Ave
    city: Roseville
    state: mi
    zip: '48066'
  place: '2669800'
  geo:
    lat: 42.48163
    lng: -82.94731
  phone: 586-944-2031
  sources:
  - acf/head-start-locations
  verified:
    'on': '2026-07-19'
    method: api
- id: mi/roseville/roseville-housing-commission
  name: Roseville Housing Commission
  categories:
  - housing-assistance
  address: {street: 18330 Eastland St, city: Roseville, state: mi, zip: '48066'}
  description: Public housing and Housing Choice Voucher agency
  place: '2669800'
  geo: {lat: 42.51322, lng: -82.93191}
  phone: 586-778-1360
  sources:
  - hud/resource-locator
  verified: {'on': '2026-07-19', method: api}
- id: mi/roseville/the-little-free-pantry-on-hayes-location-19
  name: 'The Little Free Pantry On Hayes (Location #19)'
  categories:
  - food-pantry
  place: '2669800'
  geo:
    lat: 42.50259
    lng: -82.94525
  external_ids:
    lfp: '6030'
  sources:
  - littlefreepantry/map
  verified:
    'on': '2026-07-19'
    method: scrape
- id: mi/roseville/the-little-free-pantry-on-hayes-location-3
  name: 'The Little Free Pantry On Hayes (Location #3)'
  categories:
  - food-pantry
  place: '2669800'
  geo:
    lat: 42.49327
    lng: -82.95687
  external_ids:
    lfp: '5774'
  sources:
  - littlefreepantry/map
  verified:
    'on': '2026-07-19'
    method: scrape
