- id: mi/waterford/community-programs-inc-meridian-health-services
  name: Community Programs Inc Meridian Health Services
  categories:
  - su-treatment
  address:
    street: 1255 North Oakland Boulevard
    city: Waterford
    state: mi
    zip: '48327'
  geo:
    lat: 42.65535
    lng: -83.43392
  phone: 248-599-8999
  website: https://www.meridian-hs.org
  sources:
  - samhsa/findtreatment
  verified:
    'on': '2026-07-19'
    method: api
- id: mi/waterford/community-programs-inc-meridian-health-services-2
  name: Community Programs Inc Meridian Health Services
  categories:
  - su-treatment
  address:
    street: 1435 North Oakland Boulevard
    city: Waterford
    state: mi
    zip: '48327'
  geo:
    lat: 42.65882
    lng: -83.43308
  phone: 248-599-8999
  website: https://www.meridian-hs.org
  sources:
  - samhsa/findtreatment
  verified:
    'on': '2026-07-19'
    method: api
- id: mi/waterford/community-programs-inc-meridian-health-services-3
  name: Community Programs Inc Meridian Health Services
  categories:
  - su-treatment
  address:
    street: 269 Summit Drive
    city: Waterford
    state: mi
    zip: '48328'
  geo:
    lat: 42.64132
    lng: -83.33427
  phone: 248-406-0104
  website: https://Meridian-hs.org
  sources:
  - samhsa/findtreatment
  verified:
    'on': '2026-07-19'
    method: api
- id: mi/waterford/mason-middle-school-empowerment-zone
  name: Mason Middle School Empowerment Zone
  categories:
  - community-health-center
  address:
    street: 3825 W Walton Blvd RM B
    city: Waterford
    state: mi
    zip: '48329'
  geo:
    lat: 42.69006
    lng: -83.3654
  phone: 248-724-7600
  website: https://www.honorcommunityhealth.org
  external_ids:
    bphc: BPS-H80-029850
  sources:
  - hrsa/health-center-sites
  verified:
    'on': '2026-07-19'
    method: api
- id: mi/waterford/waterford-early-childhood-center-head-start
  name: Waterford Early Childhood Center Head Start
  categories:
  - child-care
  address:
    street: 6010 Hatchery Rd
    street2: Stepanski Early Childhood Center
    city: Waterford
    state: mi
    zip: '48329'
  geo:
    lat: 42.67544
    lng: -83.40779
  phone: 248-666-9593
  sources:
  - acf/head-start-locations
  verified:
    'on': '2026-07-19'
    method: api
- id: mi/waterford/waterford-school-health-center
  name: Waterford School Health Center
  categories:
  - community-health-center
  address:
    street: 501 N Cass Lake Rd
    city: Waterford
    state: mi
    zip: '48328'
  geo:
    lat: 42.64658
    lng: -83.35693
  phone: 248-724-7600
  website: https://www.honorcommunityhealth.org
  external_ids:
    bphc: BPS-H80-020822
  sources:
  - hrsa/health-center-sites
  verified:
    'on': '2026-07-19'
    method: api
