- id: mi/westland/beginning-step-inc
  name: Beginning Step Inc
  categories:
  - su-treatment
  - mh-treatment
  address:
    street: 32715 Dorsey Street
    city: Westland
    state: mi
    zip: '48186'
  place: '2686000'
  geo:
    lat: 42.29218
    lng: -83.36249
  phone: 734-641-1141
  website: https://www.beginningstep.com
  sources:
  - samhsa/findtreatment
  verified:
    'on': '2026-07-19'
    method: api
- id: mi/westland/chass-westland
  name: CHASS Westland
  categories:
  - community-health-center
  address:
    street: 35180 Nankin Blvd, Suite 204
    city: Westland
    state: mi
    zip: '48185'
  place: '2686000'
  geo:
    lat: 42.34529
    lng: -83.38744
  phone: 313-644-1500
  external_ids:
    bphc: BPS-H80-035176
  sources:
  - hrsa/health-center-sites
  verified:
    'on': '2026-07-19'
    method: api
- id: mi/westland/hegira-health-childrens-outpatient-services
  name: Hegira Health Childrens Outpatient Services
  categories:
  - su-treatment
  - mh-treatment
  address:
    street: 8623 North Wayne Road
    city: Westland
    state: mi
    zip: '48185'
  place: '2686000'
  geo:
    lat: 42.35071
    lng: -83.38624
  phone: 734-367-0469
  website: https://www.hegirahealth.org
  sources:
  - samhsa/findtreatment
  verified:
    'on': '2026-07-19'
    method: api
- id: mi/westland/hegira-health-inc
  name: Hegira Health Inc
  categories:
  - su-treatment
  - mh-treatment
  address:
    city: Westland
    state: mi
    zip: '48185'
  place: '2686000'
  phone: 734-427-1144
  website: https://www.hegirahealth.org
  sources:
  - samhsa/findtreatment
  verified:
    'on': '2026-07-19'
    method: api
- id: mi/westland/hegira-health-inc-adult-outpatient-services
  name: Hegira Health Inc Adult Outpatient Services
  categories:
  - su-treatment
  - mh-treatment
  address:
    street: 8623 North Wayne Road
    city: Westland
    state: mi
    zip: '48185'
  place: '2686000'
  geo:
    lat: 42.35074
    lng: -83.38624
  phone: 734-425-0636
  website: https://www.hegirahealth.org
  sources:
  - samhsa/findtreatment
  verified:
    'on': '2026-07-19'
    method: api
- id: mi/westland/hegira-health-inc-primary-care-mat
  name: Hegira Health Inc Primary Care/MAT
  categories:
  - su-treatment
  address:
    street: 8623 North Wayne Road
    city: Westland
    state: mi
    zip: '48185'
  place: '2686000'
  geo:
    lat: 42.35071
    lng: -83.38624
  phone: 734-469-2770
  website: https://www.hegirahealth.org
  sources:
  - samhsa/findtreatment
  verified:
    'on': '2026-07-19'
    method: api
- id: mi/westland/hegira-health-inc-westland-counseling-center
  name: Hegira Health Inc Westland Counseling Center
  categories:
  - su-treatment
  - mh-treatment
  address:
    street: 8623 North Wayne Road
    city: Westland
    state: mi
    zip: '48185'
  place: '2686000'
  geo:
    lat: 42.35071
    lng: -83.38624
  phone: 734-523-8250
  website: https://www.hegirahealth.org
  sources:
  - samhsa/findtreatment
  verified:
    'on': '2026-07-19'
    method: api
- id: mi/westland/st-mary-cause-of-our-joy-pantry
  name: St. Mary, Cause of Our Joy Pantry
  categories:
  - food-pantry
  place: '2686000'
  geo:
    lat: 42.34762
    lng: -83.38445
  external_ids:
    lfp: '1379'
  sources:
  - littlefreepantry/map
  verified:
    'on': '2026-07-19'
    method: scrape
- id: mi/westland/walter-reuther-psychiatric-hospital
  name: Walter Reuther Psychiatric Hospital
  categories:
  - su-treatment
  - mh-treatment
  address:
    street: 30901 Palmer Road
    city: Westland
    state: mi
    zip: '48186'
  place: '2686000'
  geo:
    lat: 42.29475
    lng: -83.34613
  phone: 734-367-8600
  website: https://michigan.gov/mdhhs
  sources:
  - samhsa/findtreatment
  verified:
    'on': '2026-07-19'
    method: api
- id: mi/westland/wayne-metro-head-start-westland
  name: Wayne Metro Head Start - Westland
  categories:
  - child-care
  address:
    street: 32150 Dorsey St
    city: Westland
    state: mi
    zip: '48186'
  place: '2686000'
  geo:
    lat: 42.29293
    lng: -83.35597
  phone: 313-388-9799
  sources:
  - acf/head-start-locations
  verified:
    'on': '2026-07-19'
    method: api
- id: mi/westland/westland-housing-commission
  name: Westland Housing Commission
  categories:
  - housing-assistance
  address: {street: 32150 Dorsey St, city: Westland, state: mi, zip: '48186'}
  description: Housing Choice Voucher (Section 8) agency
  place: '2686000'
  geo: {lat: 42.29255, lng: -83.35575}
  phone: 734-595-0288
  sources:
  - hud/resource-locator
  verified: {'on': '2026-07-19', method: api}
