- id: mi/whitmore-lake/hamilton-whitmore-lake-clinic
  name: Hamilton Whitmore Lake Clinic
  categories:
  - community-health-center
  address:
    street: 10 Jennings Rd
    city: Whitmore Lake
    state: mi
    zip: '48189'
  place: '2687060'
  geo:
    lat: 42.41565
    lng: -83.76148
  phone: 810-406-4246
  website: https://www.hamiltonchn.org
  external_ids:
    bphc: BPS-H80-037705
  sources:
  - hrsa/health-center-sites
  verified:
    'on': '2026-07-19'
    method: api
- id: mi/whitmore-lake/north-main-little-free-pantry-in-whitmore-lake
  name: North Main Little Free Pantry in Whitmore Lake
  categories:
  - food-pantry
  place: '2687060'
  geo:
    lat: 42.42897
    lng: -83.76336
  external_ids:
    lfp: '1924'
  sources:
  - littlefreepantry/map
  verified:
    'on': '2026-07-19'
    method: scrape
- id: mi/whitmore-lake/northfield-township-area-library
  name: Northfield Township Area Library
  categories:
  - food-pantry
  place: '2687060'
  geo:
    lat: 42.4224
    lng: -83.76469
  external_ids:
    lfp: '1294'
  sources:
  - littlefreepantry/map
  verified:
    'on': '2026-07-19'
    method: scrape
- id: mi/whitmore-lake/whitmore-lake-high-school-811404515
  name: Whitmore Lake High School - 811404515
  categories:
  - meal-program
  address:
    street: 7430 Whitmore Lake Rd
    city: Whitmore Lake
    state: mi
    zip: '48189'
  description: Free summer meals for kids and teens (2026 season) — sponsored by Food Gatherers - 81SF05000.
  place: '2687060'
  geo:
    lat: 42.38627
    lng: -83.77145
  phone: (734) 761-2796
  external_ids:
    usda_master: Cycle 07_MI_SFSP_0156
  sources:
  - usda/summer-meal-sites
  verified:
    'on': '2026-07-19'
    method: api
- id: mi/whitmore-lake/whitmore-lake-public-schools-early-childhood-cen
  name: Whitmore Lake Public Schools Early Childhood Center
  categories:
  - child-care
  address:
    street: 8845 Main St
    city: Whitmore Lake
    state: mi
    zip: '48189'
  place: '2687060'
  geo:
    lat: 42.41398
    lng: -83.76175
  sources:
  - acf/head-start-locations
  verified:
    'on': '2026-07-19'
    method: api
