- id: tx/san-antonio/a-new-way
  name: A New Way
  program: na
  categories:
  - recovery-meeting
  schedule:
  - day: mon
    time: '18:30'
    duration_min: 60
  format: in-person
  venue:
    street: 11622 El Sendero
    city: San Antonio
    state: tx
    zip: '78233'
  place: '4865000'
  geo:
    lat: 29.5458
    lng: -98.40258
  external_ids:
    bmlt: 1:12304
  sources:
  - bmlt/aggregator
  verified:
    'on': '2026-07-19'
    method: api
- id: tx/san-antonio/a-new-way-2
  name: A New Way
  program: na
  categories:
  - recovery-meeting
  schedule:
  - day: tue
    time: '18:30'
    duration_min: 60
  format: in-person
  types:
  - o
  - wc
  - ns
  venue:
    street: 11622 El Sendero
    city: San Antonio
    state: tx
    zip: '78233'
  place: '4865000'
  geo:
    lat: 29.54587
    lng: -98.40266
  external_ids:
    bmlt: 1:3041
  sources:
  - bmlt/aggregator
  verified:
    'on': '2026-07-19'
    method: api
- id: tx/san-antonio/a-new-way-3
  name: A New Way
  program: na
  categories:
  - recovery-meeting
  schedule:
  - day: wed
    time: '18:30'
    duration_min: 60
  format: in-person
  types:
  - o
  venue:
    street: 11622 El Sendero
    city: San Antonio
    state: tx
    zip: '78233'
  place: '4865000'
  geo:
    lat: 29.54587
    lng: -98.40266
  external_ids:
    bmlt: 1:9968
  sources:
  - bmlt/aggregator
  verified:
    'on': '2026-07-19'
    method: api
- id: tx/san-antonio/a-new-way-4
  name: A New Way
  program: na
  categories:
  - recovery-meeting
  schedule:
  - day: thu
    time: '18:30'
    duration_min: 60
  format: in-person
  types:
  - o
  - wc
  - ns
  venue:
    street: 11622 El Sendero
    city: San Antonio
    state: tx
    zip: '78233'
  place: '4865000'
  geo:
    lat: 29.54587
    lng: -98.40266
  external_ids:
    bmlt: 1:2863
  sources:
  - bmlt/aggregator
  verified:
    'on': '2026-07-19'
    method: api
- id: tx/san-antonio/any-addict
  name: Any Addict
  program: na
  categories:
  - recovery-meeting
  schedule:
  - day: thu
    time: '19:00'
    duration_min: 60
  format: in-person
  types:
  - o
  - wc
  - ns
  venue:
    street: '3233 N St Mary''s St St #102'
    city: San Antonio
    state: tx
    zip: '78212'
  place: '4865000'
  geo:
    lat: 29.45447
    lng: -98.48352
  external_ids:
    bmlt: 1:12166
  sources:
  - bmlt/aggregator
  verified:
    'on': '2026-07-19'
    method: api
- id: tx/san-antonio/easy-does-it
  name: Easy Does It
  program: na
  categories:
  - recovery-meeting
  schedule:
  - day: wed
    time: '19:45'
    duration_min: 60
  format: in-person
  types:
  - o
  - wc
  venue:
    street: 7575 Tezel  Building in back
    city: San Antonio
    state: tx
    zip: '78250'
  place: '4865000'
  geo:
    lat: 29.50978
    lng: -98.66287
  external_ids:
    bmlt: 1:10354
  sources:
  - bmlt/aggregator
  verified:
    'on': '2026-07-19'
    method: api
- id: tx/san-antonio/force-group
  name: Force Group
  program: na
  categories:
  - recovery-meeting
  schedule:
  - day: sun
    time: '20:00'
    duration_min: 75
  format: in-person
  types:
  - o
  - ns
  - lt
  venue:
    street: 8900 Starcrest
    city: San Antonio
    state: tx
    zip: '78217'
  place: '4865000'
  geo:
    lat: 29.52221
    lng: -98.42151
  external_ids:
    bmlt: 1:11015
  sources:
  - bmlt/aggregator
  verified:
    'on': '2026-07-19'
    method: api
- id: tx/san-antonio/force-group-2
  name: Force Group
  program: na
  categories:
  - recovery-meeting
  schedule:
  - day: mon
    time: '20:00'
    duration_min: 75
  format: in-person
  types:
  - o
  - ns
  - lt
  venue:
    street: 8900 Starcrest
    city: San Antonio
    state: tx
    zip: '78217'
  place: '4865000'
  geo:
    lat: 29.52221
    lng: -98.42151
  notes: Newcomer Literature Study
  external_ids:
    bmlt: 1:11016
  sources:
  - bmlt/aggregator
  verified:
    'on': '2026-07-19'
    method: api
- id: tx/san-antonio/force-group-3
  name: Force Group
  program: na
  categories:
  - recovery-meeting
  schedule:
  - day: tue
    time: '20:00'
    duration_min: 75
  format: in-person
  types:
  - o
  - ns
  venue:
    street: 8900 Starcrest
    city: San Antonio
    state: tx
    zip: '78217'
  place: '4865000'
  geo:
    lat: 29.52221
    lng: -98.42151
  external_ids:
    bmlt: 1:11017
  sources:
  - bmlt/aggregator
  verified:
    'on': '2026-07-19'
    method: api
- id: tx/san-antonio/force-group-4
  name: Force Group
  program: na
  categories:
  - recovery-meeting
  schedule:
  - day: wed
    time: '20:00'
    duration_min: 75
  format: in-person
  types:
  - o
  - ns
  venue:
    street: 8900 Starcrest
    city: San Antonio
    state: tx
    zip: '78217'
  place: '4865000'
  geo:
    lat: 29.52221
    lng: -98.42151
  external_ids:
    bmlt: 1:11018
  sources:
  - bmlt/aggregator
  verified:
    'on': '2026-07-19'
    method: api
- id: tx/san-antonio/force-group-5
  name: Force Group
  program: na
  categories:
  - recovery-meeting
  schedule:
  - day: thu
    time: '20:00'
    duration_min: 75
  format: in-person
  types:
  - o
  - ns
  venue:
    street: 8900 Starcrest
    city: San Antonio
    state: tx
    zip: '78217'
  place: '4865000'
  geo:
    lat: 29.52221
    lng: -98.42151
  external_ids:
    bmlt: 1:11019
  sources:
  - bmlt/aggregator
  verified:
    'on': '2026-07-19'
    method: api
- id: tx/san-antonio/force-group-6
  name: Force Group
  program: na
  categories:
  - recovery-meeting
  schedule:
  - day: fri
    time: '20:00'
    duration_min: 75
  format: in-person
  types:
  - o
  - ns
  venue:
    street: 8900 Starcrest
    city: San Antonio
    state: tx
    zip: '78217'
  place: '4865000'
  geo:
    lat: 29.52221
    lng: -98.42151
  external_ids:
    bmlt: 1:11020
  sources:
  - bmlt/aggregator
  verified:
    'on': '2026-07-19'
    method: api
- id: tx/san-antonio/force-group-7
  name: Force Group
  program: na
  categories:
  - recovery-meeting
  schedule:
  - day: sat
    time: '20:00'
    duration_min: 75
  format: in-person
  types:
  - o
  - ns
  venue:
    street: 8900 Starcrest
    city: San Antonio
    state: tx
    zip: '78217'
  place: '4865000'
  geo:
    lat: 29.52221
    lng: -98.42151
  notes: Speaker on the last Saturday
  external_ids:
    bmlt: 1:11021
  sources:
  - bmlt/aggregator
  verified:
    'on': '2026-07-19'
    method: api
- id: tx/san-antonio/free-today
  name: Free Today
  program: na
  categories:
  - recovery-meeting
  schedule:
  - day: sun
    time: '22:30'
    duration_min: 60
  format: in-person
  types:
  - o
  - wc
  - gm
  venue:
    street: 8607 Wurzbach, Bldg P
    city: San Antonio
    state: tx
    zip: '78240'
  place: '4865000'
  geo:
    lat: 29.5221
    lng: -98.57162
  notes: Meditation meeting
  external_ids:
    bmlt: 1:10784
  sources:
  - bmlt/aggregator
  verified:
    'on': '2026-07-19'
    method: api
- id: tx/san-antonio/free-today-2
  name: Free Today
  program: na
  categories:
  - recovery-meeting
  schedule:
  - day: mon
    time: '22:30'
    duration_min: 60
  format: in-person
  types:
  - o
  - wc
  - lt
  venue:
    street: 8607 Wurzbach, Lit Study Bldg P
    city: San Antonio
    state: tx
    zip: '78240'
  place: '4865000'
  geo:
    lat: 29.52215
    lng: -98.57163
  external_ids:
    bmlt: 1:11132
  sources:
  - bmlt/aggregator
  verified:
    'on': '2026-07-19'
    method: api
- id: tx/san-antonio/free-today-3
  name: Free Today
  program: na
  categories:
  - recovery-meeting
  schedule:
  - day: tue
    time: '22:30'
    duration_min: 75
  format: in-person
  types:
  - o
  - wc
  - ns
  venue:
    street: 8607 Wurzbach
    city: San Antonio
    state: tx
    zip: '78240'
  place: '4865000'
  geo:
    lat: 29.52215
    lng: -98.57165
  external_ids:
    bmlt: 1:11207
  sources:
  - bmlt/aggregator
  verified:
    'on': '2026-07-19'
    method: api
- id: tx/san-antonio/free-today-4
  name: Free Today
  program: na
  categories:
  - recovery-meeting
  schedule:
  - day: wed
    time: '22:30'
    duration_min: 60
  format: in-person
  types:
  - o
  - wc
  venue:
    street: 8607 Wurzbach
    city: San Antonio
    state: tx
    zip: '78240'
  place: '4865000'
  geo:
    lat: 29.52215
    lng: -98.57165
  external_ids:
    bmlt: 1:8446
  sources:
  - bmlt/aggregator
  verified:
    'on': '2026-07-19'
    method: api
- id: tx/san-antonio/free-today-5
  name: Free Today
  program: na
  categories:
  - recovery-meeting
  schedule:
  - day: thu
    time: '22:30'
    duration_min: 75
  format: in-person
  types:
  - o
  - wc
  - ns
  - lt
  venue_name: Bblg. P
  venue:
    street: 8607 Wurzbach
    city: San Antonio
    state: tx
    zip: '78240'
  place: '4865000'
  geo:
    lat: 29.52215
    lng: -98.57165
  external_ids:
    bmlt: 1:10781
  sources:
  - bmlt/aggregator
  verified:
    'on': '2026-07-19'
    method: api
- id: tx/san-antonio/free-today-6
  name: Free Today
  program: na
  categories:
  - recovery-meeting
  schedule:
  - day: fri
    time: '22:30'
    duration_min: 60
  format: in-person
  types:
  - o
  - wc
  venue:
    street: 8607 Wurzbach Bldg P
    city: San Antonio
    state: tx
    zip: '78240'
  place: '4865000'
  geo:
    lat: 29.5221
    lng: -98.57162
  external_ids:
    bmlt: 1:10782
  sources:
  - bmlt/aggregator
  verified:
    'on': '2026-07-19'
    method: api
- id: tx/san-antonio/free-today-7
  name: Free Today
  program: na
  categories:
  - recovery-meeting
  schedule:
  - day: sat
    time: '22:30'
    duration_min: 60
  format: in-person
  types:
  - o
  - wc
  venue:
    street: 8607 Wurzbach Spkr 3rd Sat Bday Nite Last Sat.
    city: San Antonio
    state: tx
    zip: '78240'
  place: '4865000'
  geo:
    lat: 29.52215
    lng: -98.57163
  external_ids:
    bmlt: 1:10783
  sources:
  - bmlt/aggregator
  verified:
    'on': '2026-07-19'
    method: api
- id: tx/san-antonio/freedom
  name: Freedom
  program: na
  categories:
  - recovery-meeting
  schedule:
  - day: thu
    time: '19:00'
    duration_min: 75
  format: in-person
  types:
  - o
  venue:
    street: 6110 NW Loop 410
    city: San Antonio
    state: tx
    zip: '78238'
  place: '4865000'
  geo:
    lat: 29.47141
    lng: -98.61233
  external_ids:
    bmlt: 1:5851
  sources:
  - bmlt/aggregator
  verified:
    'on': '2026-07-19'
    method: api
- id: tx/san-antonio/friday-night-live
  name: Friday Night Live
  program: na
  categories:
  - recovery-meeting
  schedule:
  - day: fri
    time: '20:30'
    duration_min: 60
  format: in-person
  types:
  - o
  - spk
  - wc
  - ns
  - lt
  venue:
    street: 11624 El Sendero
    city: San Antonio
    state: tx
    zip: '78233'
  place: '4865000'
  geo:
    lat: 29.54579
    lng: -98.40247
  notes: 2nd Friday Living Clean Reading   5th Friday Speaker Meeting
  external_ids:
    bmlt: 1:2870
  sources:
  - bmlt/aggregator
  verified:
    'on': '2026-07-19'
    method: api
- id: tx/san-antonio/genesis
  name: Genesis,
  program: na
  categories:
  - recovery-meeting
  schedule:
  - day: sun
    time: '17:00'
    duration_min: 60
  format: in-person
  types:
  - o
  venue:
    street: 1602 Goliad Rd. In the Venue Building
    city: San Antonio
    state: tx
    zip: '78223'
  place: '4865000'
  geo:
    lat: 29.3705
    lng: -98.44434
  external_ids:
    bmlt: 1:11365
  sources:
  - bmlt/aggregator
  verified:
    'on': '2026-07-19'
    method: api
- id: tx/san-antonio/gratitude-speaks
  name: Gratitude Speaks
  program: na
  categories:
  - recovery-meeting
  schedule:
  - day: sun
    time: '19:30'
    duration_min: 60
  format: in-person
  types:
  - o
  - wc
  - ns
  venue:
    street: '4222 SW LP 410, Parish Rm #4'
    city: San Antonio
    state: tx
    zip: '78227'
  place: '4865000'
  geo:
    lat: 29.38978
    lng: -98.64528
  external_ids:
    bmlt: 1:11152
  sources:
  - bmlt/aggregator
  verified:
    'on': '2026-07-19'
    method: api
- id: tx/san-antonio/great-beginnings
  name: Great Beginnings
  program: na
  categories:
  - recovery-meeting
  schedule:
  - day: thu
    time: '18:30'
    duration_min: 60
  format: in-person
  types:
  - o
  - wc
  - ns
  venue:
    street: 127 McCullough
    city: San Antonio
    state: tx
    zip: '78215'
  place: '4865000'
  geo:
    lat: 29.42855
    lng: -98.48325
  external_ids:
    bmlt: 1:12213
  sources:
  - bmlt/aggregator
  verified:
    'on': '2026-07-19'
    method: api
- id: tx/san-antonio/hope-faith
  name: Hope @ Faith
  program: na
  categories:
  - recovery-meeting
  schedule:
  - day: fri
    time: '19:00'
    duration_min: 60
  format: in-person
  types:
  - o
  - wc
  - ns
  venue:
    street: 1307 Blanco Woods St
    city: San Antonio
    state: tx
    zip: '78248'
  place: '4865000'
  geo:
    lat: 29.59838
    lng: -98.51088
  external_ids:
    bmlt: 1:10174
  sources:
  - bmlt/aggregator
  verified:
    'on': '2026-07-19'
    method: api
- id: tx/san-antonio/just-for-the-newcomer
  name: Just For The Newcomer
  program: na
  categories:
  - recovery-meeting
  schedule:
  - day: sun
    time: '13:30'
    duration_min: 60
  format: in-person
  types:
  - o
  - wc
  - ns
  venue:
    street: 127 McCullough
    city: San Antonio
    state: tx
    zip: '78215'
  place: '4865000'
  geo:
    lat: 29.42855
    lng: -98.48326
  external_ids:
    bmlt: 1:11093
  sources:
  - bmlt/aggregator
  verified:
    'on': '2026-07-19'
    method: api
- id: tx/san-antonio/just-for-the-newcomer-2
  name: Just For The Newcomer
  program: na
  categories:
  - recovery-meeting
  schedule:
  - day: mon
    time: '13:30'
    duration_min: 60
  format: in-person
  types:
  - o
  - wc
  - ns
  venue:
    street: 127 McCullough
    city: San Antonio
    state: tx
    zip: '78215'
  place: '4865000'
  geo:
    lat: 29.42855
    lng: -98.48326
  external_ids:
    bmlt: 1:11094
  sources:
  - bmlt/aggregator
  verified:
    'on': '2026-07-19'
    method: api
- id: tx/san-antonio/just-for-the-newcomer-3
  name: Just For The Newcomer
  program: na
  categories:
  - recovery-meeting
  schedule:
  - day: tue
    time: '13:30'
    duration_min: 60
  format: in-person
  types:
  - o
  - wc
  - ns
  venue:
    street: 127 McCullough
    city: San Antonio
    state: tx
    zip: '78215'
  place: '4865000'
  geo:
    lat: 29.42855
    lng: -98.48326
  external_ids:
    bmlt: 1:11095
  sources:
  - bmlt/aggregator
  verified:
    'on': '2026-07-19'
    method: api
- id: tx/san-antonio/just-for-the-newcomer-4
  name: Just For The Newcomer
  program: na
  categories:
  - recovery-meeting
  schedule:
  - day: wed
    time: '13:30'
    duration_min: 60
  format: in-person
  types:
  - o
  - wc
  - ns
  venue:
    street: 127 McCullough
    city: San Antonio
    state: tx
    zip: '78215'
  place: '4865000'
  geo:
    lat: 29.42855
    lng: -98.48326
  external_ids:
    bmlt: 1:11096
  sources:
  - bmlt/aggregator
  verified:
    'on': '2026-07-19'
    method: api
- id: tx/san-antonio/just-for-the-newcomer-5
  name: Just For The Newcomer
  program: na
  categories:
  - recovery-meeting
  schedule:
  - day: thu
    time: '13:30'
    duration_min: 60
  format: in-person
  types:
  - o
  - wc
  - ns
  venue:
    street: 127 McCullough
    city: San Antonio
    state: tx
    zip: '78215'
  place: '4865000'
  geo:
    lat: 29.42855
    lng: -98.48326
  external_ids:
    bmlt: 1:11097
  sources:
  - bmlt/aggregator
  verified:
    'on': '2026-07-19'
    method: api
- id: tx/san-antonio/just-for-the-newcomer-6
  name: Just For The Newcomer
  program: na
  categories:
  - recovery-meeting
  schedule:
  - day: fri
    time: '13:30'
    duration_min: 60
  format: in-person
  types:
  - o
  - wc
  - ns
  venue:
    street: 127 McCullough
    city: San Antonio
    state: tx
    zip: '78215'
  place: '4865000'
  geo:
    lat: 29.42855
    lng: -98.48326
  external_ids:
    bmlt: 1:11098
  sources:
  - bmlt/aggregator
  verified:
    'on': '2026-07-19'
    method: api
- id: tx/san-antonio/just-for-the-newcomer-7
  name: Just For The Newcomer
  program: na
  categories:
  - recovery-meeting
  schedule:
  - day: sat
    time: '13:30'
    duration_min: 60
  format: in-person
  types:
  - o
  - wc
  - ns
  venue:
    street: 127 McCullough
    city: San Antonio
    state: tx
    zip: '78215'
  place: '4865000'
  geo:
    lat: 29.42855
    lng: -98.48326
  external_ids:
    bmlt: 1:11099
  sources:
  - bmlt/aggregator
  verified:
    'on': '2026-07-19'
    method: api
- id: tx/san-antonio/just-for-today
  name: Just for Today
  program: na
  categories:
  - recovery-meeting
  schedule:
  - day: mon
    time: '19:00'
    duration_min: 60
  format: in-person
  types:
  - o
  venue:
    street: 6110 NW  LOOP 410
    city: San Antonio
    state: tx
    zip: '78238'
  place: '4865000'
  geo:
    lat: 29.47141
    lng: -98.61233
  notes: Speaker Last Monday of the Month
  external_ids:
    bmlt: 1:10080
  sources:
  - bmlt/aggregator
  verified:
    'on': '2026-07-19'
    method: api
- id: tx/san-antonio/lifeguard
  name: Lifeguard
  program: na
  categories:
  - recovery-meeting
  schedule:
  - day: sun
    time: '18:00'
    duration_min: 75
  format: in-person
  types:
  - o
  - cl
  - wc
  - ns
  venue:
    street: 6800 Wurzbach, Office Bldg rear entrance
    city: San Antonio
    state: tx
    zip: '78240'
  place: '4865000'
  geo:
    lat: 29.49548
    lng: -98.59435
  external_ids:
    bmlt: 1:10949
  sources:
  - bmlt/aggregator
  verified:
    'on': '2026-07-19'
    method: api
- id: tx/san-antonio/miracle-brothers
  name: Miracle Brothers
  program: na
  categories:
  - recovery-meeting
  schedule:
  - day: sat
    time: '10:00'
    duration_min: 60
  format: in-person
  types:
  - c
  - bl
  - cs
  - m
  - wc
  - ns
  venue:
    street: 8900 Starcrest Cranmer Classroom
    city: San Antonio
    state: tx
    zip: '78217'
  place: '4865000'
  geo:
    lat: 29.52221
    lng: -98.42151
  external_ids:
    bmlt: 1:10267
  sources:
  - bmlt/aggregator
  verified:
    'on': '2026-07-19'
    method: api
- id: tx/san-antonio/miracles-happen
  name: Miracles Happen
  program: na
  categories:
  - recovery-meeting
  schedule:
  - day: fri
    time: '20:00'
    duration_min: 60
  format: in-person
  types:
  - o
  - bl
  - wc
  - ns
  venue:
    street: 1600 Saltillo Senior Center
    city: San Antonio
    state: tx
    zip: '78207'
  place: '4865000'
  geo:
    lat: 29.41164
    lng: -98.53998
  external_ids:
    bmlt: 1:2761
  sources:
  - bmlt/aggregator
  verified:
    'on': '2026-07-19'
    method: api
- id: tx/san-antonio/new-possibilities
  name: New Possibilities
  program: na
  categories:
  - recovery-meeting
  schedule:
  - day: sun
    time: '16:00'
    duration_min: 60
  format: in-person
  types:
  - o
  - wc
  - ns
  venue:
    street: 5909 Walzem Rd
    city: San Antonio
    state: tx
    zip: '78218'
  place: '4865000'
  geo:
    lat: 29.51111
    lng: -98.3722
  external_ids:
    bmlt: 1:5106
  sources:
  - bmlt/aggregator
  verified:
    'on': '2026-07-19'
    method: api
- id: tx/san-antonio/no-matter-what
  name: No Matter What
  program: na
  categories:
  - recovery-meeting
  schedule:
  - day: thu
    time: '20:30'
    duration_min: 60
  format: in-person
  types:
  - o
  - cl
  - ns
  venue:
    street: 950 Donaldson
    city: San Antonio
    state: tx
    zip: '78228'
  place: '4865000'
  geo:
    lat: 29.46396
    lng: -98.54263
  external_ids:
    bmlt: 1:5702
  sources:
  - bmlt/aggregator
  verified:
    'on': '2026-07-19'
    method: api
- id: tx/san-antonio/nooners
  name: Nooners
  program: na
  categories:
  - recovery-meeting
  schedule:
  - day: sun
    time: '12:00'
    duration_min: 60
  format: in-person
  types:
  - o
  venue:
    street: 2717 E Commerce St
    city: San Antonio
    state: tx
    zip: '78203'
  place: '4865000'
  geo:
    lat: 29.4197
    lng: -98.44923
  external_ids:
    bmlt: 1:2339
  sources:
  - bmlt/aggregator
  verified:
    'on': '2026-07-19'
    method: api
- id: tx/san-antonio/nooners-2
  name: Nooners
  program: na
  categories:
  - recovery-meeting
  schedule:
  - day: mon
    time: '12:00'
    duration_min: 60
  format: in-person
  types:
  - o
  - bt
  venue:
    street: 2717 E Commerce St
    city: San Antonio
    state: tx
    zip: '78203'
  place: '4865000'
  geo:
    lat: 29.4197
    lng: -98.44923
  external_ids:
    bmlt: 1:2726
  sources:
  - bmlt/aggregator
  verified:
    'on': '2026-07-19'
    method: api
- id: tx/san-antonio/nooners-3
  name: Nooners
  program: na
  categories:
  - recovery-meeting
  schedule:
  - day: tue
    time: '12:00'
    duration_min: 60
  format: in-person
  types:
  - o
  - bt
  venue:
    street: 2717 E Commerce St
    city: San Antonio
    state: tx
    zip: '78203'
  place: '4865000'
  geo:
    lat: 29.4197
    lng: -98.44923
  external_ids:
    bmlt: 1:2347
  sources:
  - bmlt/aggregator
  verified:
    'on': '2026-07-19'
    method: api
- id: tx/san-antonio/nooners-4
  name: Nooners
  program: na
  categories:
  - recovery-meeting
  schedule:
  - day: wed
    time: '12:00'
    duration_min: 60
  format: in-person
  types:
  - o
  - bt
  venue:
    street: 2717 E Commerce St
    city: San Antonio
    state: tx
    zip: '78203'
  place: '4865000'
  geo:
    lat: 29.4197
    lng: -98.44923
  external_ids:
    bmlt: 1:2350
  sources:
  - bmlt/aggregator
  verified:
    'on': '2026-07-19'
    method: api
- id: tx/san-antonio/nooners-5
  name: Nooners
  program: na
  categories:
  - recovery-meeting
  schedule:
  - day: thu
    time: '12:00'
    duration_min: 60
  format: in-person
  types:
  - o
  venue:
    street: 2717 E Commerce St
    city: San Antonio
    state: tx
    zip: '78203'
  place: '4865000'
  geo:
    lat: 29.4197
    lng: -98.44923
  external_ids:
    bmlt: 1:2361
  sources:
  - bmlt/aggregator
  verified:
    'on': '2026-07-19'
    method: api
- id: tx/san-antonio/nooners-6
  name: Nooners
  program: na
  categories:
  - recovery-meeting
  schedule:
  - day: fri
    time: '12:00'
    duration_min: 60
  format: in-person
  types:
  - o
  venue:
    street: 2717 E Commerce St
    city: San Antonio
    state: tx
    zip: '78203'
  place: '4865000'
  geo:
    lat: 29.4197
    lng: -98.44923
  external_ids:
    bmlt: 1:2733
  sources:
  - bmlt/aggregator
  verified:
    'on': '2026-07-19'
    method: api
- id: tx/san-antonio/nooners-7
  name: Nooners
  program: na
  categories:
  - recovery-meeting
  schedule:
  - day: sat
    time: '12:00'
    duration_min: 60
  format: in-person
  types:
  - o
  venue:
    street: 2717 E Commerce St
    city: San Antonio
    state: tx
    zip: '78203'
  place: '4865000'
  geo:
    lat: 29.4197
    lng: -98.44923
  external_ids:
    bmlt: 1:2742
  sources:
  - bmlt/aggregator
  verified:
    'on': '2026-07-19'
    method: api
- id: tx/san-antonio/nooners-a-guiding-principles-study
  name: Nooners A Guiding Principles Study
  program: na
  categories:
  - recovery-meeting
  schedule:
  - day: wed
    time: '19:00'
    duration_min: 90
  format: in-person
  types:
  - o
  - lt
  - gp
  venue:
    street: 2717 E. Commerce
    city: San Antonio
    state: tx
    zip: '78203'
  place: '4865000'
  geo:
    lat: 29.4197
    lng: -98.44923
  external_ids:
    bmlt: 1:11323
  sources:
  - bmlt/aggregator
  verified:
    'on': '2026-07-19'
    method: api
- id: tx/san-antonio/prism
  name: Prism
  program: na
  categories:
  - recovery-meeting
  schedule:
  - day: thu
    time: '15:00'
    duration_min: 60
  format: in-person
  types:
  - lgbt
  venue:
    street: 473 Spencer Lane
    city: San Antonio
    state: tx
    zip: '78201'
  place: '4865000'
  geo:
    lat: 29.48483
    lng: -98.5446
  external_ids:
    bmlt: 1:12303
  sources:
  - bmlt/aggregator
  verified:
    'on': '2026-07-19'
    method: api
- id: tx/san-antonio/recovery-at-work
  name: Recovery At Work
  program: na
  categories:
  - recovery-meeting
  schedule:
  - day: sat
    time: '19:00'
    duration_min: 60
  format: in-person
  types:
  - o
  - wc
  - lt
  venue:
    street: 11624 El Sendero  Literature Study
    city: San Antonio
    state: tx
    zip: '78233'
  place: '4865000'
  geo:
    lat: 29.54579
    lng: -98.40247
  external_ids:
    bmlt: 1:11931
  sources:
  - bmlt/aggregator
  verified:
    'on': '2026-07-19'
    method: api
- id: tx/san-antonio/recovery-in-the-park
  name: Recovery In The Park
  program: na
  categories:
  - recovery-meeting
  schedule:
  - day: sun
    time: '14:00'
    duration_min: 60
  format: in-person
  types:
  - o
  venue:
    street: 1315 San Pedro Behind Library by the Gazebo outdoors
    city: San Antonio
    state: tx
    zip: '78212'
  place: '4865000'
  geo:
    lat: 29.45957
    lng: -98.49522
  external_ids:
    bmlt: 1:11014
  sources:
  - bmlt/aggregator
  verified:
    'on': '2026-07-19'
    method: api
- id: tx/san-antonio/road-to-recovery
  name: Road To Recovery
  program: na
  categories:
  - recovery-meeting
  schedule:
  - day: sat
    time: 09:00
    duration_min: 60
  format: in-person
  types:
  - o
  - bt
  - wc
  - ns
  venue:
    street: 4045 E Southcross
    city: San Antonio
    state: tx
    zip: '78222'
  place: '4865000'
  geo:
    lat: 29.37511
    lng: -98.41465
  notes: Building in Back
  external_ids:
    bmlt: 1:10976
  sources:
  - bmlt/aggregator
  verified:
    'on': '2026-07-19'
    method: api
- id: tx/san-antonio/road-to-recovery-2
  name: Road To Recovery
  program: na
  categories:
  - recovery-meeting
  schedule:
  - day: sat
    time: '17:00'
    duration_min: 60
  format: in-person
  types:
  - o
  - wc
  - ns
  venue:
    street: 4045 E Southcross
    city: San Antonio
    state: tx
    zip: '78222'
  place: '4865000'
  geo:
    lat: 29.37511
    lng: -98.41465
  notes: Buliding in Back
  external_ids:
    bmlt: 1:2708
  sources:
  - bmlt/aggregator
  verified:
    'on': '2026-07-19'
    method: api
- id: tx/san-antonio/road-to-recovery-3
  name: Road to Recovery
  program: na
  categories:
  - recovery-meeting
  schedule:
  - day: tue
    time: '18:15'
    duration_min: 60
  format: in-person
  types:
  - o
  venue:
    street: 4045 E Southcross
    city: San Antonio
    state: tx
    zip: '78222'
  place: '4865000'
  geo:
    lat: 29.37511
    lng: -98.41465
  external_ids:
    bmlt: 1:5103
  sources:
  - bmlt/aggregator
  verified:
    'on': '2026-07-19'
    method: api
- id: tx/san-antonio/somos-milagros
  name: Somos Milagros
  program: na
  categories:
  - recovery-meeting
  schedule:
  - day: mon
    time: '17:30'
    duration_min: 60
  format: in-person
  types:
  - o
  - bl
  - d
  - wc
  - ns
  venue:
    street: 127 McCullough
    city: San Antonio
    state: tx
    zip: '78215'
  place: '4865000'
  geo:
    lat: 29.42855
    lng: -98.48326
  external_ids:
    bmlt: 1:5521
  sources:
  - bmlt/aggregator
  verified:
    'on': '2026-07-19'
    method: api
- id: tx/san-antonio/somos-milagros-2
  name: Somos Milagros
  program: na
  categories:
  - recovery-meeting
  schedule:
  - day: wed
    time: '17:30'
    duration_min: 60
  format: in-person
  types:
  - o
  - bl
  - d
  - wc
  - ns
  venue:
    street: 127 McCullough
    city: San Antonio
    state: tx
    zip: '78215'
  place: '4865000'
  geo:
    lat: 29.42855
    lng: -98.48326
  external_ids:
    bmlt: 1:2352
  sources:
  - bmlt/aggregator
  verified:
    'on': '2026-07-19'
    method: api
- id: tx/san-antonio/the-core-group
  name: The Core Group
  program: na
  categories:
  - recovery-meeting
  schedule:
  - day: fri
    time: '18:30'
    duration_min: 60
  format: in-person
  types:
  - o
  venue:
    street: 127 McCullough
    city: San Antonio
    state: tx
    zip: '78215'
  place: '4865000'
  geo:
    lat: 29.42855
    lng: -98.48326
  external_ids:
    bmlt: 1:10800
  sources:
  - bmlt/aggregator
  verified:
    'on': '2026-07-19'
    method: api
- id: tx/san-antonio/the-future-is-clean
  name: The Future Is Clean
  program: na
  categories:
  - recovery-meeting
  schedule:
  - day: mon
    time: '19:00'
    duration_min: 60
  format: in-person
  types:
  - o
  - m
  venue:
    street: 519 N Medina St
    city: San Antonio
    state: tx
    zip: '78207'
  place: '4865000'
  geo:
    lat: 29.43088
    lng: -98.50468
  external_ids:
    bmlt: 1:12155
  sources:
  - bmlt/aggregator
  verified:
    'on': '2026-07-19'
    method: api
- id: tx/san-antonio/u-n-i-t-y-virtual-meeting
  name: U-N-I-T-Y Virtual Meeting
  program: na
  categories:
  - recovery-meeting
  schedule:
  - day: wed
    time: '20:00'
    duration_min: 60
  format: hybrid
  types:
  - o
  - lgbt
  - hy
  venue_name: 'Zoom ID # 886 2239 8914 Password: Jimmyk53'
  venue:
    city: San Antonio
    state: tx
    zip: '78213'
  place: '4865000'
  geo:
    lat: 29.49812
    lng: -98.52267
  external_ids:
    bmlt: 1:11279
  sources:
  - bmlt/aggregator
  verified:
    'on': '2026-07-19'
    method: api
- id: tx/san-antonio/we-believe
  name: We Believe
  program: na
  categories:
  - recovery-meeting
  schedule:
  - day: tue
    time: '19:15'
    duration_min: 60
  format: in-person
  types:
  - o
  venue:
    street: 285 Oblate Dr. The Rock House
    city: San Antonio
    state: tx
    zip: '78216'
  place: '4865000'
  geo:
    lat: 29.5052
    lng: -98.50411
  external_ids:
    bmlt: 1:2944
  sources:
  - bmlt/aggregator
  verified:
    'on': '2026-07-19'
    method: api
- id: tx/san-antonio/willing-to-change
  name: Willing To Change
  program: na
  categories:
  - recovery-meeting
  schedule:
  - day: mon
    time: '19:30'
    duration_min: 60
  format: in-person
  types:
  - o
  - wc
  venue:
    street: 1018 East Grayson
    city: San Antonio
    state: tx
    zip: '78208'
  place: '4865000'
  geo:
    lat: 29.4428
    lng: -98.46774
  external_ids:
    bmlt: 1:11153
  sources:
  - bmlt/aggregator
  verified:
    'on': '2026-07-19'
    method: api
- id: tx/san-antonio/women-in-unity
  name: Women In Unity
  program: na
  categories:
  - recovery-meeting
  schedule:
  - day: sat
    time: '11:00'
    duration_min: 90
  format: in-person
  types:
  - o
  - w
  - wc
  - ns
  venue:
    street: 11624 El Sendero
    city: San Antonio
    state: tx
    zip: '78233'
  place: '4865000'
  geo:
    lat: 29.54579
    lng: -98.40247
  external_ids:
    bmlt: 1:2743
  sources:
  - bmlt/aggregator
  verified:
    'on': '2026-07-19'
    method: api
