- id: tx/alamo/alamo-housing-authority
  name: Alamo Housing Authority
  categories:
  - housing-assistance
  address: {street: 309 N 9th St, city: Alamo, state: tx, zip: '78516'}
  description: Public housing and Housing Choice Voucher agency
  place: '4801576'
  geo: {lat: 26.18602, lng: -98.11893}
  phone: 956-787-2352
  sources:
  - hud/resource-locator
  verified: {'on': '2026-07-19', method: api}
- id: tx/alamo/augusto-guerra-head-start
  name: Augusto Guerra Head Start
  categories:
  - child-care
  address:
    street: 807 State Highway 495
    city: Alamo
    state: tx
    zip: '78516'
  place: '4801576'
  geo:
    lat: 26.20147
    lng: -98.11532
  phone: 956-354-2810
  sources:
  - acf/head-start-locations
  verified:
    'on': '2026-07-19'
    method: api
- id: tx/alamo/captain-d-salinas-head-start
  name: Captain D. Salinas Head Start
  categories:
  - child-care
  address:
    street: 333 E Business Hwy 83
    city: Alamo
    state: tx
    zip: '78516'
  place: '4801576'
  geo:
    lat: 26.18934
    lng: -98.15179
  phone: 956-383-0706
  sources:
  - acf/head-start-locations
  verified:
    'on': '2026-07-19'
    method: api
- id: tx/alamo/colonias-project-hidalgo
  name: Colonias Project--Hidalgo
  categories:
  - child-care
  address:
    street: 811 E Bowie Ave
    city: Alamo
    state: tx
    zip: '78516'
  place: '4801576'
  geo:
    lat: 26.17924
    lng: -98.1189
  phone: 956-314-2130
  sources:
  - acf/head-start-locations
  verified:
    'on': '2026-07-19'
    method: api
- id: tx/alamo/farias-head-start-center
  name: Farias Head Start Center
  categories:
  - child-care
  address:
    street: 1100 W Acacia Ave
    city: Alamo
    state: tx
    zip: '78516'
  place: '4801576'
  geo:
    lat: 26.18651
    lng: -98.12387
  phone: 956-354-2114
  sources:
  - acf/head-start-locations
  verified:
    'on': '2026-07-19'
    method: api
- id: tx/alamo/little-explorers-development-learning-center-ii
  name: Little Explorers Development & Learning Center II
  categories:
  - child-care
  address:
    street: 935 S Alamo Rd
    city: Alamo
    state: tx
    zip: '78516'
  place: '4801576'
  geo:
    lat: 26.16963
    lng: -98.12627
  phone: 956-702-2273
  sources:
  - acf/head-start-locations
  verified:
    'on': '2026-07-19'
    method: api
- id: tx/alamo/super-kids-academy-llc
  name: Super Kids Academy, LLC
  categories:
  - child-care
  address:
    street: 715 N Tower Rd
    city: Alamo
    state: tx
    zip: '78516'
  place: '4801576'
  geo:
    lat: 26.19132
    lng: -98.11004
  phone: 956-783-1600
  sources:
  - acf/head-start-locations
  verified:
    'on': '2026-07-19'
    method: api
