- id: tx/alamo/alamo-housing-authority
  name: Alamo Housing Authority
  categories:
  - housing-assistance
  address:
    street: 309 N 9th St
    city: Alamo
    state: tx
    zip: '78516'
  description: Public housing and Housing Choice Voucher agency
  place: '4801576'
  geo:
    lat: 26.18602
    lng: -98.11893
  phone: 956-787-2352
  sources:
  - hud/resource-locator
  verified:
    'on': '2026-07-19'
    method: api
- id: tx/alamo/audie-murphy-middle-school
  name: Audie Murphy Middle School
  categories:
  - meal-program
  address: {street: 924 W Sioux Road, city: Alamo, state: tx, zip: '78516'}
  description: Free summer meals for kids and teens (2026 season) — sponsored by PHARR-SAN JUAN-ALAMO
    ISD.
  place: '4801576'
  geo: {lat: 26.20999, lng: -98.11545}
  external_ids: {usda_master: Cycle 01_TX_SSO_0070}
  sources:
  - usda/summer-meal-sites
  verified: {'on': '2026-07-19', method: api}
- id: tx/alamo/augusto-guerra-elementary
  name: Augusto Guerra Elementary
  categories:
  - meal-program
  address: {street: 807 Fm 495, city: Alamo, state: tx, zip: '78516'}
  description: Free summer meals for kids and teens (2026 season) — sponsored by PHARR-SAN JUAN-ALAMO
    ISD.
  place: '4801576'
  geo: {lat: 26.20249, lng: -98.11517}
  external_ids: {usda_master: Cycle 01_TX_SSO_0072}
  sources:
  - usda/summer-meal-sites
  verified: {'on': '2026-07-19', method: api}
- id: tx/alamo/augusto-guerra-head-start
  name: Augusto Guerra Head Start
  categories:
  - child-care
  address:
    street: 807 State Highway 495
    city: Alamo
    state: tx
    zip: '78516'
  place: '4801576'
  geo:
    lat: 26.20147
    lng: -98.11532
  phone: 956-354-2810
  sources:
  - acf/head-start-locations
  verified:
    'on': '2026-07-19'
    method: api
- id: tx/alamo/captain-d-salinas-head-start
  name: Captain D. Salinas Head Start
  categories:
  - child-care
  address:
    street: 333 E Business Hwy 83
    city: Alamo
    state: tx
    zip: '78516'
  place: '4801576'
  geo:
    lat: 26.18934
    lng: -98.15179
  phone: 956-383-0706
  sources:
  - acf/head-start-locations
  verified:
    'on': '2026-07-19'
    method: api
- id: tx/alamo/colonias-project-hidalgo
  name: Colonias Project--Hidalgo
  categories:
  - child-care
  address:
    street: 811 E Bowie Ave
    city: Alamo
    state: tx
    zip: '78516'
  place: '4801576'
  geo:
    lat: 26.17924
    lng: -98.1189
  phone: 956-314-2130
  sources:
  - acf/head-start-locations
  verified:
    'on': '2026-07-19'
    method: api
- id: tx/alamo/creative-arts-studio
  name: Creative Arts Studio
  categories:
  - meal-program
  address: {street: 1429 S. Tower Rd., city: Alamo, state: tx, zip: '78516'}
  description: Free summer meals for kids and teens (2026 season) — sponsored by HIDALGO ISD.
  place: '4801576'
  geo: {lat: 26.1503, lng: -98.11674}
  external_ids: {usda_master: Cycle 06_TX_SSO_0726}
  sources:
  - usda/summer-meal-sites
  verified: {'on': '2026-07-19', method: api}
- id: tx/alamo/farias-head-start-center
  name: Farias Head Start Center
  categories:
  - child-care
  address:
    street: 1100 W Acacia Ave
    city: Alamo
    state: tx
    zip: '78516'
  place: '4801576'
  geo:
    lat: 26.18651
    lng: -98.12387
  phone: 956-354-2114
  sources:
  - acf/head-start-locations
  verified:
    'on': '2026-07-19'
    method: api
- id: tx/alamo/idea-academy-alamo
  name: Idea Academy Alamo
  categories:
  - meal-program
  address: {street: 325 Kansas Rd, city: Alamo, state: tx, zip: '78516'}
  description: Free summer meals for kids and teens (2026 season) — sponsored by IDEA ACADEMY.
  place: '4801576'
  geo: {lat: 26.2007, lng: -98.10189}
  external_ids: {usda_master: Cycle 06_TX_SSO_1461}
  sources:
  - usda/summer-meal-sites
  verified: {'on': '2026-07-19', method: api}
- id: tx/alamo/jesus-jesse-vela-jr-middle
  name: Jesus - Jesse - Vela Jr Middle
  categories:
  - meal-program
  address: {street: 1819 W Hwy 83, city: Alamo, state: tx, zip: '78516'}
  description: Free summer meals for kids and teens (2026 season) — sponsored by PHARR-SAN JUAN-ALAMO
    ISD.
  place: '4801576'
  geo: {lat: 26.18564, lng: -98.13365}
  external_ids: {usda_master: Cycle 01_TX_SSO_0776}
  sources:
  - usda/summer-meal-sites
  verified: {'on': '2026-07-19', method: api}
- id: tx/alamo/john-mckeever-el
  name: John Mckeever El
  categories:
  - meal-program
  address: {street: 1310 W. Ridge Rd, city: Alamo, state: tx, zip: '78516'}
  description: Free summer meals for kids and teens (2026 season) — sponsored by PHARR-SAN JUAN-ALAMO
    ISD.
  place: '4801576'
  geo: {lat: 26.17292, lng: -98.13004}
  external_ids: {usda_master: Cycle 01_TX_SSO_0785}
  sources:
  - usda/summer-meal-sites
  verified: {'on': '2026-07-19', method: api}
- id: tx/alamo/little-explorers-development-learning-center-ii
  name: Little Explorers Development & Learning Center II
  categories:
  - child-care
  address:
    street: 935 S Alamo Rd
    city: Alamo
    state: tx
    zip: '78516'
  place: '4801576'
  geo:
    lat: 26.16963
    lng: -98.12627
  phone: 956-702-2273
  sources:
  - acf/head-start-locations
  verified:
    'on': '2026-07-19'
    method: api
- id: tx/alamo/marcia-m-garza
  name: Marcia M Garza
  categories:
  - meal-program
  address: {street: 810 E El Gato Rd, city: Alamo, state: tx, zip: '78516'}
  description: Free summer meals for kids and teens (2026 season) — sponsored by PHARR-SAN JUAN-ALAMO
    ISD.
  place: '4801576'
  geo: {lat: 26.15717, lng: -98.12225}
  external_ids: {usda_master: Cycle 01_TX_SSO_0974}
  sources:
  - usda/summer-meal-sites
  verified: {'on': '2026-07-19', method: api}
- id: tx/alamo/psja-alamo-building-blocks-academy
  name: Psja Alamo Building Blocks Academy
  categories:
  - meal-program
  address: {street: 1440 W. Crockett, city: Alamo, state: tx, zip: '78516'}
  description: Free summer meals for kids and teens (2026 season) — sponsored by PHARR-SAN JUAN-ALAMO
    ISD.
  place: '4801576'
  geo: {lat: 26.18082, lng: -98.13356}
  external_ids: {usda_master: Cycle 01_TX_SSO_1238}
  sources:
  - usda/summer-meal-sites
  verified: {'on': '2026-07-19', method: api}
- id: tx/alamo/psja-james-bowie-daep
  name: Psja James Bowie Daep
  categories:
  - meal-program
  address: {street: 811 E Bowie, city: Alamo, state: tx, zip: '78516'}
  description: Free summer meals for kids and teens (2026 season) — sponsored by PHARR-SAN JUAN-ALAMO
    ISD.
  place: '4801576'
  geo: {lat: 26.18001, lng: -98.11891}
  external_ids: {usda_master: Cycle 01_TX_SSO_1240}
  sources:
  - usda/summer-meal-sites
  verified: {'on': '2026-07-19', method: api}
- id: tx/alamo/psja-memorial-early-college-h-s
  name: Psja Memorial Early College H S
  categories:
  - meal-program
  address: {street: 800 S Alamo Rd, city: Alamo, state: tx, zip: '78516'}
  description: Free summer meals for kids and teens (2026 season) — sponsored by PHARR-SAN JUAN-ALAMO
    ISD.
  place: '4801576'
  geo: {lat: 26.17391, lng: -98.12485}
  external_ids: {usda_master: Cycle 01_TX_SSO_1241}
  sources:
  - usda/summer-meal-sites
  verified: {'on': '2026-07-19', method: api}
- id: tx/alamo/santos-livas-el
  name: Santos Livas El
  categories:
  - meal-program
  address: {street: 733 N Alamo Rd, city: Alamo, state: tx, zip: '78516'}
  description: Free summer meals for kids and teens (2026 season) — sponsored by PHARR-SAN JUAN-ALAMO
    ISD.
  place: '4801576'
  geo: {lat: 26.19506, lng: -98.12129}
  external_ids: {usda_master: Cycle 01_TX_SSO_1369}
  sources:
  - usda/summer-meal-sites
  verified: {'on': '2026-07-19', method: api}
- id: tx/alamo/super-kids-academy-llc
  name: Super Kids Academy, LLC
  categories:
  - child-care
  address:
    street: 715 N Tower Rd
    city: Alamo
    state: tx
    zip: '78516'
  place: '4801576'
  geo:
    lat: 26.19132
    lng: -98.11004
  phone: 956-783-1600
  sources:
  - acf/head-start-locations
  verified:
    'on': '2026-07-19'
    method: api
- id: tx/alamo/vanguard-mozart
  name: Vanguard Mozart
  categories:
  - meal-program
  address: {street: 155 E.Highway 83, city: Alamo, state: tx, zip: '78516'}
  description: Free summer meals for kids and teens (2026 season) — sponsored by VANGUARD ACADEMY.
  place: '4801576'
  geo: {lat: 26.1894, lng: -98.15434}
  external_ids: {usda_master: Cycle 01_TX_SSO_1623}
  sources:
  - usda/summer-meal-sites
  verified: {'on': '2026-07-19', method: api}
- id: tx/alamo/zeferino-farias-el
  name: Zeferino Farias El
  categories:
  - meal-program
  address: {street: 1100 W Acacia St, city: Alamo, state: tx, zip: '78516'}
  description: Free summer meals for kids and teens (2026 season) — sponsored by PHARR-SAN JUAN-ALAMO
    ISD.
  place: '4801576'
  geo: {lat: 26.18558, lng: -98.12499}
  external_ids: {usda_master: Cycle 01_TX_SSO_1799}
  sources:
  - usda/summer-meal-sites
  verified: {'on': '2026-07-19', method: api}
