- id: tx/albany/albany-food-pantry
  name: Albany Food Pantry
  org: tx/food-bank-of-west-central-texas
  categories:
  - food-pantry
  place: '4801648'
  geo: {lat: 32.72895, lng: -99.28916}
  sources:
  - foodbank/tx-food-bank-of-west-central-texas
  verified: {'on': '2026-07-20', method: api}
- id: tx/albany/albany-nancy-smith-elementary
  name: Albany - (Nancy Smith Elementary)
  categories:
  - child-care
  address: {street: 741 Griffin Rd, city: Albany, state: tx, zip: '76430'}
  description: Head Start early childhood program — 17 funded slots; operated by Education Service Center
    Region XIV.
  place: '4801648'
  geo: {lat: 32.73204, lng: -99.29287}
  phone: 325-762-2405
  sources:
  - acf/head-start-locations
  verified: {'on': '2026-07-19', method: api}
- id: tx/albany/shackelford-county-community-resource-center
  name: SHACKELFORD COUNTY COMMUNITY RESOURCE CENTER
  categories:
  - community-health-center
  cost: sliding-scale
  address: {street: 725 Pate St, city: Albany, state: tx, zip: '76430'}
  place: '4801648'
  geo: {lat: 32.73167, lng: -99.2883}
  phone: 325-762-2447
  website: http://www.resourcecare.org/
  external_ids: {bphc: BPS-H80-003270}
  sources:
  - hrsa/health-center-sites
  verified: {'on': '2026-07-19', method: api}
- id: tx/albany/shackelford-county-courthouse-food-pantry-of-alb
  name: Shackelford County Courthouse Food Pantry of Albany
  org: tx/food-bank-of-west-central-texas
  categories:
  - food-pantry
  place: '4801648'
  geo: {lat: 32.72305, lng: -99.29611}
  sources:
  - foodbank/tx-food-bank-of-west-central-texas
  verified: {'on': '2026-07-20', method: api}
- id: tx/albany/shackelford-resource-center-food-pantry-of-alban
  name: Shackelford Resource Center Food Pantry of Albany
  org: tx/food-bank-of-west-central-texas
  categories:
  - food-pantry
  place: '4801648'
  geo: {lat: 32.7317, lng: -99.28818}
  sources:
  - foodbank/tx-food-bank-of-west-central-texas
  verified: {'on': '2026-07-20', method: api}
