- id: tx/amarillo/ac-hagy-child-care-center
  name: AC-Hagy Child Care Center
  categories:
  - child-care
  address:
    street: 1301 Streit Dr
    city: Amarillo
    state: tx
    zip: '79106'
  place: '4803000'
  geo:
    lat: 35.19888
    lng: -101.91277
  phone: 806-379-2704
  sources:
  - acf/head-start-locations
  verified:
    'on': '2026-07-19'
    method: api
- id: tx/amarillo/amarillo-cleveland-street-center
  name: Amarillo Cleveland Street Center
  categories:
  - child-care
  address:
    street: 1601 S Cleveland St
    city: Amarillo
    state: tx
    zip: '79102'
  place: '4803000'
  geo:
    lat: 35.19454
    lng: -101.82544
  phone: 806-677-5400
  sources:
  - acf/head-start-locations
  verified:
    'on': '2026-07-19'
    method: api
- id: tx/amarillo/amarillo-eastridge-elementary
  name: Amarillo Eastridge Elementary
  categories:
  - child-care
  address:
    street: 1314 Evergreen St
    city: Amarillo
    state: tx
    zip: '79107'
  place: '4803000'
  geo:
    lat: 35.22844
    lng: -101.76823
  phone: 806-326-4300
  sources:
  - acf/head-start-locations
  verified:
    'on': '2026-07-19'
    method: api
- id: tx/amarillo/amarillo-san-jacinto-elementary
  name: Amarillo San Jacinto Elementary
  categories:
  - child-care
  address:
    street: 3400 SW 4th Ave
    city: Amarillo
    state: tx
    zip: '79106'
  place: '4803000'
  geo:
    lat: 35.21344
    lng: -101.87459
  phone: 806-326-5200
  sources:
  - acf/head-start-locations
  verified:
    'on': '2026-07-19'
    method: api
- id: tx/amarillo/amarillo-va-healthcare-system
  name: Amarillo VA Healthcare System
  categories:
  - su-treatment
  - mh-treatment
  address:
    street: 6010 Amarillo Boulevard West
    city: Amarillo
    state: tx
    zip: '79106'
  place: '4803000'
  geo:
    lat: 35.20403
    lng: -101.90655
  phone: 806-355-9703
  website: https://www.va.gov/amarillo-health-care/locations/
  sources:
  - samhsa/findtreatment
  verified:
    'on': '2026-07-19'
    method: api
- id: tx/amarillo/amarillo-wills-elementary
  name: Amarillo Wills Elementary
  categories:
  - child-care
  address:
    street: 3500 SW 11th Ave
    city: Amarillo
    state: tx
    zip: '79106'
  place: '4803000'
  geo:
    lat: 35.20378
    lng: -101.87661
  phone: 806-326-5650
  sources:
  - acf/head-start-locations
  verified:
    'on': '2026-07-19'
    method: api
- id: tx/amarillo/canyon-lakeview-elementary
  name: Canyon Lakeview Elementary
  categories:
  - child-care
  address:
    street: 6407 Lair Rd
    city: Amarillo
    state: tx
    zip: '79118'
  place: '4803000'
  geo:
    lat: 35.05704
    lng: -101.90864
  phone: 806-677-2830
  sources:
  - acf/head-start-locations
  verified:
    'on': '2026-07-19'
    method: api
- id: tx/amarillo/canyon-sundown-lane-elementary
  name: Canyon Sundown Lane Elementary
  categories:
  - child-care
  address:
    street: 4715 W Sundown Ln
    city: Amarillo
    state: tx
    zip: '79118'
  place: '4803000'
  geo:
    lat: 35.1034
    lng: -101.88792
  phone: 806-677-2400
  sources:
  - acf/head-start-locations
  verified:
    'on': '2026-07-19'
    method: api
- id: tx/amarillo/cenikor-foundation
  name: Cenikor Foundation
  categories:
  - su-treatment
  address:
    street: 1001 Wallace Boulevard
    city: Amarillo
    state: tx
    zip: '79106'
  place: '4803000'
  geo:
    lat: 35.20358
    lng: -101.91279
  phone: 806-318-7712
  website: https://www.cenikor.org
  sources:
  - samhsa/findtreatment
  verified:
    'on': '2026-07-19'
    method: api
- id: tx/amarillo/city-of-amarillo
  name: City Of Amarillo
  categories:
  - housing-assistance
  address: {street: 808 S Buchanan St, city: Amarillo, state: tx, zip: '79101'}
  description: Housing Choice Voucher (Section 8) agency
  place: '4803000'
  geo: {lat: 35.20472, lng: -101.83265}
  phone: 806-378-3098
  sources:
  - hud/resource-locator
  verified: {'on': '2026-07-19', method: api}
- id: tx/amarillo/dailey-recovery-service-amarillo
  name: Dailey Recovery Service Amarillo
  categories:
  - su-treatment
  address:
    street: 706 North Polk Street
    city: Amarillo
    state: tx
    zip: '79107'
  place: '4803000'
  geo:
    lat: 35.22052
    lng: -101.8338
  phone: 806-803-9640
  website: https://
  sources:
  - samhsa/findtreatment
  verified:
    'on': '2026-07-19'
    method: api
- id: tx/amarillo/hamlet-elementary
  name: Hamlet Elementary
  categories:
  - child-care
  address:
    street: 705 Sycamore St
    city: Amarillo
    state: tx
    zip: '79107'
  place: '4803000'
  geo:
    lat: 35.24342
    lng: -101.82561
  phone: 806-326-4500
  sources:
  - acf/head-start-locations
  verified:
    'on': '2026-07-19'
    method: api
- id: tx/amarillo/life-challenge-of-amarillo-adult-and-teen-challe
  name: Life Challenge of Amarillo Adult and Teen Challenge
  categories:
  - su-treatment
  - mh-treatment
  address:
    street: 6500 Hope Road
    city: Amarillo
    state: tx
    zip: '79119'
  place: '4803000'
  geo:
    lat: 35.14454
    lng: -101.9749
  phone: 806-352-0385
  website: https://lifechallengeofamarillo.com/
  sources:
  - samhsa/findtreatment
  verified:
    'on': '2026-07-19'
    method: api
- id: tx/amarillo/little-nest
  name: Little Nest
  categories:
  - child-care
  address:
    street: 1400 SW 10th Ave
    city: Amarillo
    state: tx
    zip: '79101'
  place: '4803000'
  geo:
    lat: 35.20541
    lng: -101.85376
  phone: 806-373-0974
  sources:
  - acf/head-start-locations
  verified:
    'on': '2026-07-19'
    method: api
- id: tx/amarillo/nelson
  name: Nelson
  categories:
  - child-care
  address:
    street: 1023 N Nelson St
    city: Amarillo
    state: tx
    zip: '79107'
  place: '4803000'
  geo:
    lat: 35.22532
    lng: -101.8073
  phone: 806-677-5371
  sources:
  - acf/head-start-locations
  verified:
    'on': '2026-07-19'
    method: api
- id: tx/amarillo/night-and-day-care-and-play
  name: Night and Day Care and Play
  categories:
  - child-care
  address:
    street: 2831 Mays St
    city: Amarillo
    state: tx
    zip: '79109'
  place: '4803000'
  geo:
    lat: 35.17068
    lng: -101.86992
  phone: 806-352-2186
  sources:
  - acf/head-start-locations
  verified:
    'on': '2026-07-19'
    method: api
- id: tx/amarillo/oceans-behavioral-hospital-amarillo
  name: Oceans Behavioral Hospital Amarillo
  categories:
  - su-treatment
  - mh-treatment
  address:
    street: 7501 Wallace Boulevard
    city: Amarillo
    state: tx
    zip: '79124'
  place: '4803000'
  geo:
    lat: 35.19419
    lng: -101.92706
  phone: 806-310-2205
  website: https://oceanshealthcare.com
  sources:
  - samhsa/findtreatment
  verified:
    'on': '2026-07-19'
    method: api
- id: tx/amarillo/opportunity-school-at-gratitude-house
  name: Opportunity School at Gratitude House
  categories:
  - child-care
  address:
    street: 1101 S Harrison St
    street2: Apt 19
    city: Amarillo
    state: tx
    zip: '79101'
  place: '4803000'
  geo:
    lat: 35.20286
    lng: -101.84057
  phone: 806-372-3625
  sources:
  - acf/head-start-locations
  verified:
    'on': '2026-07-19'
    method: api
- id: tx/amarillo/opportunity-school-edwards-campus
  name: Opportunity School Edwards Campus
  categories:
  - child-care
  address:
    street: 406 S Osage St
    city: Amarillo
    state: tx
    zip: '79104'
  place: '4803000'
  geo:
    lat: 35.20655
    lng: -101.81386
  phone: 806-381-0551
  sources:
  - acf/head-start-locations
  verified:
    'on': '2026-07-19'
    method: api
- id: tx/amarillo/panhandle-community-services
  name: Panhandle Community Services
  categories:
  - housing-assistance
  address: {street: 1309 SW 8th Ave, city: Amarillo, state: tx, zip: '79101'}
  description: Housing Choice Voucher (Section 8) agency
  place: '4803000'
  geo: {lat: 35.20739, lng: -101.85197}
  phone: 806-372-2531
  sources:
  - hud/resource-locator
  verified: {'on': '2026-07-19', method: api}
- id: tx/amarillo/plainview-serenity-center-inc-amarillo-outpatien
  name: Plainview Serenity Center Inc Amarillo Outpatient
  categories:
  - su-treatment
  address:
    street: 210 South Western Street
    city: Amarillo
    state: tx
    zip: '79106'
  place: '4803000'
  geo:
    lat: 35.21544
    lng: -101.88449
  phone: 806-355-5780
  website: https://www.serenitycenter.org
  sources:
  - samhsa/findtreatment
  verified:
    'on': '2026-07-19'
    method: api
- id: tx/amarillo/professional-addiction-specialty-servs
  name: Professional Addiction Specialty Servs
  categories:
  - su-treatment
  - mh-treatment
  address:
    street: 12 Medical Drive
    city: Amarillo
    state: tx
    zip: '79106'
  place: '4803000'
  geo:
    lat: 35.2072
    lng: -101.89533
  phone: 806-331-0404
  website: https://counselingamarillotexas.com
  sources:
  - samhsa/findtreatment
  verified:
    'on': '2026-07-19'
    method: api
- id: tx/amarillo/regence-health-network-inc-rma-outreach
  name: Regence Health Network, Inc. RMA - Outreach
  categories:
  - community-health-center
  address:
    street: 713 N Taylor St
    city: Amarillo
    state: tx
    zip: '79107'
  place: '4803000'
  geo:
    lat: 35.22074
    lng: -101.83356
  phone: 806-345-7917
  website: https://www.rhnmd.com
  external_ids:
    bphc: BPS-H80-031332
  sources:
  - hrsa/health-center-sites
  verified:
    'on': '2026-07-19'
    method: api
- id: tx/amarillo/regence-health-network-inc-rmda-ars
  name: Regence Health Network, Inc. RMDA - ARS
  categories:
  - community-health-center
  address:
    street: 3113 Ross St
    city: Amarillo
    state: tx
    zip: '79103'
  place: '4803000'
  geo:
    lat: 35.18006
    lng: -101.81654
  phone: 806-293-8561
  external_ids:
    bphc: BPS-H80-021500
  sources:
  - hrsa/health-center-sites
  verified:
    'on': '2026-07-19'
    method: api
- id: tx/amarillo/willow-vista-ec-academy
  name: Willow Vista EC Academy
  categories:
  - child-care
  address:
    street: 7600 Pavillard Dr
    city: Amarillo
    state: tx
    zip: '79108'
  place: '4803000'
  geo:
    lat: 35.28485
    lng: -101.82178
  phone: 806-383-8820
  sources:
  - acf/head-start-locations
  verified:
    'on': '2026-07-19'
    method: api
- id: tx/amarillo/wtcr-amarillo
  name: WTCR Amarillo
  categories:
  - su-treatment
  address:
    street: 2300 Line Avenue
    city: Amarillo
    state: tx
    zip: '79106'
  place: '4803000'
  geo:
    lat: 35.20836
    lng: -101.86313
  phone: 806-373-0922
  website: https://www.wtcr.net
  sources:
  - samhsa/findtreatment
  verified:
    'on': '2026-07-19'
    method: api
