- id: tx/atlanta/atlanta-el
  name: Atlanta El
  categories:
  - meal-program
  address: {street: 902 Abc Ln, city: Atlanta, state: tx, zip: '75551'}
  description: Free summer meals for kids and teens (2026 season) — sponsored by ATLANTA ISD.
  place: '4804516'
  geo: {lat: 33.11878, lng: -94.15012}
  external_ids: {usda_master: Cycle 01_TX_SSO_0063}
  sources:
  - usda/summer-meal-sites
  verified: {'on': '2026-07-19', method: api}
- id: tx/atlanta/atlanta-h-s
  name: Atlanta H S
  categories:
  - meal-program
  address: {street: 705 Rabbit Blvd, city: Atlanta, state: tx, zip: '75551'}
  description: Free summer meals for kids and teens (2026 season) — sponsored by ATLANTA ISD.
  place: '4804516'
  geo: {lat: 33.12206, lng: -94.14513}
  external_ids: {usda_master: Cycle 01_TX_SSO_0064}
  sources:
  - usda/summer-meal-sites
  verified: {'on': '2026-07-19', method: api}
- id: tx/atlanta/atlanta-middle
  name: Atlanta Middle
  categories:
  - meal-program
  address: {street: 600 High School Ln, city: Atlanta, state: tx, zip: '75551'}
  description: Free summer meals for kids and teens (2026 season) — sponsored by ATLANTA ISD.
  place: '4804516'
  geo: {lat: 33.10789, lng: -94.17766}
  external_ids: {usda_master: Cycle 01_TX_SSO_0065}
  sources:
  - usda/summer-meal-sites
  verified: {'on': '2026-07-19', method: api}
- id: tx/atlanta/atlanta-pri
  name: Atlanta Pri
  categories:
  - meal-program
  address: {street: 505 Rabbit Blvd, city: Atlanta, state: tx, zip: '75551'}
  description: Free summer meals for kids and teens (2026 season) — sponsored by ATLANTA ISD.
  place: '4804516'
  geo: {lat: 33.11846, lng: -94.14514}
  external_ids: {usda_master: Cycle 01_TX_SSO_0066}
  sources:
  - usda/summer-meal-sites
  verified: {'on': '2026-07-19', method: api}
- id: tx/atlanta/atlanta-primary-isd-head-start
  name: Atlanta Primary ISD Head Start
  categories:
  - child-care
  address: {street: 505 Rabbit Blvd, city: Atlanta, state: tx, zip: '75551'}
  description: Head Start early childhood program — 108 funded slots; operated by Community Services Of
    Northeast Texas, Inc..
  place: '4804516'
  geo: {lat: 33.11857, lng: -94.14674}
  phone: 903-796-4118
  sources:
  - acf/head-start-locations
  verified: {'on': '2026-07-19', method: api}
- id: tx/atlanta/atlanta-property-management
  name: Atlanta Property Management
  categories:
  - housing-assistance
  address: {street: 106 S Howe St, city: Atlanta, state: tx, zip: '75551'}
  description: Public housing (Low-Rent) agency
  place: '4804516'
  geo: {lat: 33.11463, lng: -94.17014}
  phone: 903-796-5065
  sources:
  - hud/resource-locator
  verified: {'on': '2026-07-19', method: api}
- id: tx/atlanta/genesis-primecare-atlanta
  name: Genesis PrimeCare-Atlanta
  categories:
  - community-health-center
  cost: sliding-scale
  address: {street: 1011 S William St, city: Atlanta, state: tx, zip: '75551'}
  place: '4804516'
  geo: {lat: 33.1051, lng: -94.16407}
  phone: 903-796-2868
  external_ids: {bphc: BPS-H80-015178}
  sources:
  - hrsa/health-center-sites
  verified: {'on': '2026-07-19', method: api}
