- id: tx/belton/asymca-chisholm-elementary
  name: Asymca - Chisholm Elementary
  categories:
  - meal-program
  address: {street: '1082 S Wheat Rd,', city: Belton, state: tx, zip: '76513'}
  description: Free summer meals for kids and teens (2026 season) — sponsored by Central Texas Food Bank,
    Inc..
  place: '4807492'
  geo: {lat: 31.05559, lng: -97.49852}
  external_ids: {usda_master: Cycle 06_TX_SFSP_0140}
  sources:
  - usda/summer-meal-sites
  verified: {'on': '2026-07-19', method: api}
- id: tx/belton/belton-christian-youth-center
  name: Belton Christian Youth Center
  categories:
  - meal-program
  address: {street: 505 E. Avenue C, city: Belton, state: tx, zip: '76513'}
  description: Free summer meals for kids and teens (2026 season) — sponsored by BELTON ISD.
  place: '4807492'
  geo: {lat: 31.05176, lng: -97.46021}
  external_ids: {usda_master: Cycle 01_TX_SSO_0113}
  sources:
  - usda/summer-meal-sites
  verified: {'on': '2026-07-19', method: api}
- id: tx/belton/belton-early-childhood-school
  name: Belton Early Childhood School
  categories:
  - meal-program
  address: {street: 501 East 4Th Avenue, city: Belton, state: tx, zip: '76513'}
  description: Free summer meals for kids and teens (2026 season) — sponsored by BELTON ISD.
  place: '4807492'
  geo: {lat: 31.05833, lng: -97.45704}
  external_ids: {usda_master: Cycle 01_TX_SSO_0114}
  sources:
  - usda/summer-meal-sites
  verified: {'on': '2026-07-19', method: api}
- id: tx/belton/belton-head-start
  name: Belton Head Start
  categories:
  - child-care
  address: {street: 1640 S Wall St, city: Belton, state: tx, zip: '76513'}
  description: Head Start early childhood program — 16 funded slots; operated by Central Texas 4C, Inc..
  place: '4807492'
  geo: {lat: 31.04062, lng: -97.46671}
  phone: 254-939-2510
  sources:
  - acf/head-start-locations
  verified: {'on': '2026-07-19', method: api}
- id: tx/belton/cedar-crest-hospital-and-rtc
  name: Cedar Crest Hospital and RTC
  categories:
  - su-treatment
  - mh-treatment
  address: {street: 3500 South Interstate 35, city: Belton, state: tx, zip: '76513'}
  place: '4807492'
  geo: {lat: 31.02138, lng: -97.47706}
  phone: 254-939-2100
  website: https://www.cedarcresthospital.com
  services:
  - Hospital inpatient/24-hour hospital inpatient
  - Outpatient
  - Partial hospitalization/day treatment
  - Residential/24-hour residential
  - Children/adolescents with serious emotional disturbance (SED)
  - Persons  18 and older with serious mental illness (SMI)
  eligibility: Serves children/adolescents, young adults, adults, seniors.
  cost: varies
  sources:
  - samhsa/findtreatment
  verified: {'on': '2026-07-19', method: api}
- id: tx/belton/central-texas-council-of-governments
  name: Central Texas Council Of Governments
  categories:
  - housing-assistance
  address: {street: 2180 N Main St, city: Belton, state: tx, zip: '76513'}
  description: Housing Choice Voucher (Section 8) agency
  place: '4807492'
  geo: {lat: 31.07749, lng: -97.45741}
  phone: 254-770-2236
  sources:
  - hud/resource-locator
  verified: {'on': '2026-07-19', method: api}
- id: tx/belton/hubbard-branch-el
  name: Hubbard Branch El
  categories:
  - meal-program
  address: {street: 1651 O.T. Tyler Drive, city: Belton, state: tx, zip: '76513'}
  description: Free summer meals for kids and teens (2026 season) — sponsored by BELTON ISD.
  place: '4807492'
  geo: {lat: 31.03141, lng: -97.45063}
  external_ids: {usda_master: Cycle 01_TX_SSO_0718}
  sources:
  - usda/summer-meal-sites
  verified: {'on': '2026-07-19', method: api}
- id: tx/belton/south-belton-middle
  name: South Belton Middle
  categories:
  - meal-program
  address: {street: 805 Sagebrush, city: Belton, state: tx, zip: '76513'}
  description: Free summer meals for kids and teens (2026 season) — sponsored by BELTON ISD.
  place: '4807492'
  geo: {lat: 31.056, lng: -97.4795}
  external_ids: {usda_master: Cycle 01_TX_SSO_1429}
  sources:
  - usda/summer-meal-sites
  verified: {'on': '2026-07-19', method: api}
- id: tx/belton/southwest-el
  name: Southwest El
  categories:
  - meal-program
  address: {street: 611 Saunders St., city: Belton, state: tx, zip: '76513'}
  description: Free summer meals for kids and teens (2026 season) — sponsored by BELTON ISD.
  place: '4807492'
  geo: {lat: 31.05307, lng: -97.47219}
  external_ids: {usda_master: Cycle 01_TX_SSO_1446}
  sources:
  - usda/summer-meal-sites
  verified: {'on': '2026-07-19', method: api}
