- id: tx/caldwell/caldwell-int
  name: Caldwell Int
  categories:
  - meal-program
  address:
    street: 675 Cr 300
    city: Caldwell
    state: tx
    zip: '77836'
  description: Free summer meals for kids and teens (2026 season) — sponsored by CALDWELL ISD.
  place: '4811836'
  geo:
    lat: 30.546
    lng: -96.67515
  external_ids:
    usda_master: Cycle 01_TX_SSO_0262
  sources:
  - usda/summer-meal-sites
  verified:
    'on': '2026-07-19'
    method: api
- id: tx/caldwell/healthpoint-caldwell
  name: HealthPoint Caldwell
  categories:
  - community-health-center
  address:
    street: 1103 Woodson Dr
    city: Caldwell
    state: tx
    zip: '77836'
  place: '4811836'
  geo:
    lat: 30.52073
    lng: -96.71725
  phone: 979-567-7080
  external_ids:
    bphc: BPS-H80-012991
  sources:
  - hrsa/health-center-sites
  verified:
    'on': '2026-07-19'
    method: api
- id: tx/caldwell/housing-authority-of-the-city-of-caldwell
  name: Housing Authority Of The City Of Caldwell
  categories:
  - housing-assistance
  address:
    street: 509 N Hall St
    city: Caldwell
    state: tx
    zip: '77836'
  description: Public housing (Low-Rent) agency
  place: '4811836'
  geo:
    lat: 30.52389
    lng: -96.7065
  phone: 979-567-4244
  sources:
  - hud/resource-locator
  verified:
    'on': '2026-07-19'
    method: api
- id: tx/caldwell/mh-mr-authority-of-brazos-valley-burleson-county
  name: MH/MR Authority of Brazos Valley Burleson County
  categories:
  - su-treatment
  - mh-treatment
  address:
    street: 103 East Highway 21
    city: Caldwell
    state: tx
    zip: '77836'
  place: '4811836'
  geo:
    lat: 30.53432
    lng: -96.69557
  phone: 979-567-4377
  website: https://www.mhmrabv.org
  sources:
  - samhsa/findtreatment
  verified:
    'on': '2026-07-19'
    method: api
- id: tx/caldwell/nc-new-beginnings-mission
  name: Nc_New Beginnings Mission
  categories:
  - meal-program
  address:
    street: 1005 Elm Drive
    city: Caldwell
    state: tx
    zip: '77836'
  description: Free summer meals for kids and teens (2026 season) — sponsored by CALDWELL ISD.
  place: '4811836'
  geo:
    lat: 30.50936
    lng: -96.7765
  external_ids:
    usda_master: Cycle 01_TX_SSO_1889
  sources:
  - usda/summer-meal-sites
  verified:
    'on': '2026-07-19'
    method: api
- id: tx/caldwell/nc-the-way-in-at-cade-lake-baptist-church
  name: Nc_The Way In At Cade Lake Baptist Church
  categories:
  - meal-program
  address:
    street: 1005 Elm Drive
    city: Caldwell
    state: tx
    zip: '77836'
  description: Free summer meals for kids and teens (2026 season) — sponsored by CALDWELL ISD.
  place: '4811836'
  geo:
    lat: 30.50936
    lng: -96.7765
  external_ids:
    usda_master: Cycle 07_TX_SSO_3783
  sources:
  - usda/summer-meal-sites
  verified:
    'on': '2026-07-19'
    method: api
