- id: tx/canutillo/canutillo-middle
  name: Canutillo Middle
  categories:
  - meal-program
  address: {street: 7311 Bosque Rd, city: Canutillo, state: tx, zip: '79835'}
  description: Free summer meals for kids and teens (2026 season) — sponsored by CANUTILLO ISD.
  place: '4812508'
  geo: {lat: 31.92449, lng: -106.60845}
  external_ids: {usda_master: Cycle 01_TX_SSO_0267}
  sources:
  - usda/summer-meal-sites
  verified: {'on': '2026-07-19', method: api}
- id: tx/canutillo/canutillo-middle-school
  name: Canutillo Middle School
  categories:
  - community-health-center
  cost: sliding-scale
  address: {street: 7311 Bosque Rd, city: Canutillo, state: tx, zip: '79835'}
  place: '4812508'
  geo: {lat: 31.92676, lng: -106.60994}
  phone: 915-533-7057
  external_ids: {bphc: BPS-H80-033076}
  sources:
  - hrsa/health-center-sites
  verified: {'on': '2026-07-19', method: api}
- id: tx/canutillo/deanna-davenport-el
  name: Deanna Davenport El
  categories:
  - meal-program
  address: {street: 8401 Remington, city: Canutillo, state: tx, zip: '79835'}
  description: Free summer meals for kids and teens (2026 season) — sponsored by CANUTILLO ISD.
  place: '4812508'
  geo: {lat: 31.96002, lng: -106.56895}
  external_ids: {usda_master: Cycle 01_TX_SSO_0432}
  sources:
  - usda/summer-meal-sites
  verified: {'on': '2026-07-19', method: api}
- id: tx/canutillo/iglesia-de-dios
  name: Iglesia De Dios
  categories:
  - meal-program
  address: {street: 7546 Doniphan, city: Canutillo, state: tx, zip: '79835'}
  description: Free summer meals for kids and teens (2026 season) — sponsored by ANTHONY ISD.
  place: '4812508'
  geo: {lat: 31.93543, lng: -106.60225}
  external_ids: {usda_master: Cycle 06_TX_SSO_1532}
  sources:
  - usda/summer-meal-sites
  verified: {'on': '2026-07-19', method: api}
- id: tx/canutillo/jose-j-alderete-middle
  name: Jose J Alderete Middle
  categories:
  - meal-program
  address: {street: 801 Talbot St, city: Canutillo, state: tx, zip: '79835'}
  description: Free summer meals for kids and teens (2026 season) — sponsored by CANUTILLO ISD.
  place: '4812508'
  geo: {lat: 31.90981, lng: -106.59312}
  external_ids: {usda_master: Cycle 01_TX_SSO_0791}
  sources:
  - usda/summer-meal-sites
  verified: {'on': '2026-07-19', method: api}
- id: tx/canutillo/nc-gallegos-park
  name: Nc_Gallegos Park
  categories:
  - meal-program
  address: {street: 7361 Bosque Road, city: Canutillo, state: tx, zip: '79835'}
  description: Free summer meals for kids and teens (2026 season) — sponsored by ANTHONY ISD.
  place: '4812508'
  geo: {lat: 31.92703, lng: -106.61007}
  external_ids: {usda_master: Cycle 07_TX_SSO_3678}
  sources:
  - usda/summer-meal-sites
  verified: {'on': '2026-07-19', method: api}
- id: tx/canutillo/westway-satellite-clinic
  name: WESTWAY SATELLITE CLINIC
  categories:
  - community-health-center
  cost: sliding-scale
  address: {street: 1713 Banker Rd, city: Canutillo, state: tx, zip: '79835'}
  place: '4812508'
  geo: {lat: 31.96138, lng: -106.56934}
  phone: 915-231-4370
  website: https://www.lafe-ep.org
  external_ids: {bphc: BPS-H80-000100}
  sources:
  - hrsa/health-center-sites
  verified: {'on': '2026-07-19', method: api}
