- id: tx/cleveland/cleveland-early-head-start
  name: Cleveland Early Head Start
  categories:
  - child-care
  address:
    street: 301 Sleepy Hollow Dr
    street2: Ste A
    city: Cleveland
    state: tx
    zip: '77327'
  place: '4815436'
  geo:
    lat: 30.34128
    lng: -95.07138
  phone: 281-659-1300
  sources:
  - acf/head-start-locations
  verified:
    'on': '2026-07-19'
    method: api
- id: tx/cleveland/cleveland-head-start
  name: Cleveland Head Start
  categories:
  - child-care
  address:
    street: 1502 E Houston St
    city: Cleveland
    state: tx
    zip: '77327'
  place: '4815436'
  geo:
    lat: 30.34111
    lng: -95.07032
  phone: 281-592-2851
  sources:
  - acf/head-start-locations
  verified:
    'on': '2026-07-19'
    method: api
- id: tx/cleveland/health-center-of-southeast-texas
  name: Health Center of Southeast Texas
  categories:
  - community-health-center
  address:
    street: 307 N William Barnett Ave
    city: Cleveland
    state: tx
    zip: '77327'
  place: '4815436'
  geo:
    lat: 30.34433
    lng: -95.0839
  phone: 281-592-2224
  external_ids:
    bphc: BPS-H80-010405
  sources:
  - hrsa/health-center-sites
  verified:
    'on': '2026-07-19'
    method: api
- id: tx/cleveland/health-center-of-southeast-texas-mobile-unit
  name: Health Center of Southeast Texas Mobile Unit
  categories:
  - community-health-center
  address:
    street: 307 N William Barnett Ave
    city: Cleveland
    state: tx
    zip: '77327'
  place: '4815436'
  geo:
    lat: 30.34433
    lng: -95.0839
  phone: 281-766-9299
  website: https://www.hcset.com
  external_ids:
    bphc: BPS-H80-039840
  sources:
  - hrsa/health-center-sites
  verified:
    'on': '2026-07-19'
    method: api
- id: tx/cleveland/health-center-of-southeast-texas-terrenos
  name: Health Center of Southeast Texas - Terrenos
  categories:
  - community-health-center
  address:
    street: 871 County Road 3549
    city: Cleveland
    state: tx
    zip: '77327'
  place: '4815436'
  geo:
    lat: 30.17329
    lng: -95.07965
  phone: 281-592-2224
  external_ids:
    bphc: BPS-H80-034349
  sources:
  - hrsa/health-center-sites
  verified:
    'on': '2026-07-19'
    method: api
- id: tx/cleveland/housing-authority-of-cleveland
  name: Housing Authority Of Cleveland
  categories:
  - housing-assistance
  address: {street: 801 S Franklin Ave, city: Cleveland, state: tx, zip: '77327'}
  description: Public housing (Low-Rent) agency
  place: '4815436'
  geo: {lat: 30.33526, lng: -95.08147}
  phone: 281-593-1159
  sources:
  - hud/resource-locator
  verified: {'on': '2026-07-19', method: api}
- id: tx/cleveland/tri-county-behavioral-healthcare
  name: Tri County Behavioral Healthcare
  categories:
  - su-treatment
  - mh-treatment
  address:
    street: 402 Liberty Street
    city: Cleveland
    state: tx
    zip: '77327'
  place: '4815436'
  geo:
    lat: 30.34005
    lng: -95.09324
  phone: 281-432-3000
  website: https://www.tcbhc.org
  sources:
  - samhsa/findtreatment
  verified:
    'on': '2026-07-19'
    method: api
