- id: tx/clute/brazoria-county-dream-center-integrated-health-c
  name: Brazoria County Dream Center Integrated Health Clinic
  categories:
  - community-health-center
  cost: sliding-scale
  address: {street: 792 N Highway 288B, city: Clute, state: tx, zip: '77531'}
  place: '4815652'
  geo: {lat: 29.03266, lng: -95.39819}
  phone: 979-388-0280
  external_ids: {bphc: BPS-H80-019473}
  sources:
  - hrsa/health-center-sites
  verified: {'on': '2026-07-19', method: api}
- id: tx/clute/brazoswood-h-s
  name: Brazoswood H S
  categories:
  - meal-program
  address: {street: 302 W Brazoswood Dr, city: Clute, state: tx, zip: '77531'}
  description: Free summer meals for kids and teens (2026 season) — sponsored by BRAZOSPORT ISD.
  place: '4815652'
  geo: {lat: 29.02505, lng: -95.41449}
  external_ids: {usda_master: Cycle 06_TX_SSO_0406}
  sources:
  - usda/summer-meal-sites
  verified: {'on': '2026-07-19', method: api}
- id: tx/clute/clute-library
  name: Clute Library
  categories:
  - meal-program
  address: {street: 215 Shanks Road, city: Clute, state: tx, zip: '77531'}
  description: Free summer meals for kids and teens (2026 season) — sponsored by BRAZOSPORT ISD.
  place: '4815652'
  geo: {lat: 29.0236, lng: -95.40316}
  external_ids: {usda_master: Cycle 06_TX_SSO_0656}
  sources:
  - usda/summer-meal-sites
  verified: {'on': '2026-07-19', method: api}
- id: tx/clute/lighthouse-learning-center-daep
  name: Lighthouse Learning Center - Daep
  categories:
  - meal-program
  address: {street: 1035 Dixie Drive, city: Clute, state: tx, zip: '77531'}
  description: Free summer meals for kids and teens (2026 season) — sponsored by BRAZOSPORT ISD.
  place: '4815652'
  geo: {lat: 29.01132, lng: -95.42008}
  external_ids: {usda_master: Cycle 06_TX_SSO_1966}
  sources:
  - usda/summer-meal-sites
  verified: {'on': '2026-07-19', method: api}
- id: tx/clute/lone-star-legal-aid-clute-branch-office
  name: Lone Star Legal Aid - Clute Branch Office
  categories:
  - legal-aid
  description: LSC-funded legal aid branch office of Lone Star Legal Aid
  org: tx/lone-star-legal-aid
  address: {street: 102 Oak Park Drive, street2: '0', city: Clute, state: tx, zip: '77531'}
  geo: {lat: 29.02817, lng: -95.39547}
  place: '4815652'
  external_ids: {lsc_office: '74406001'}
  sources:
  - lsc/office-locations
  verified: {'on': '2026-07-20', method: api}
- id: tx/clute/t-w-ogg-el
  name: T W Ogg El
  categories:
  - meal-program
  address: {street: 208 N Lazy Ln, city: Clute, state: tx, zip: '77531'}
  description: Free summer meals for kids and teens (2026 season) — sponsored by BRAZOSPORT ISD.
  place: '4815652'
  geo: {lat: 29.02279, lng: -95.41199}
  external_ids: {usda_master: Cycle 06_TX_SSO_3072}
  sources:
  - usda/summer-meal-sites
  verified: {'on': '2026-07-19', method: api}
