- id: tx/copperas-cove/cove-north-head-start
  name: Cove North Head Start
  categories:
  - child-care
  address:
    street: 1008 North Dr
    city: Copperas Cove
    state: tx
    zip: '76522'
  place: '4816624'
  geo:
    lat: 31.12474
    lng: -97.8918
  phone: 254-547-1771
  sources:
  - acf/head-start-locations
  verified:
    'on': '2026-07-19'
    method: api
- id: tx/copperas-cove/cove-park-head-start
  name: Cove Park Head Start
  categories:
  - child-care
  address:
    street: 1202 W Avenue B
    city: Copperas Cove
    state: tx
    zip: '76522'
  place: '4816624'
  geo:
    lat: 31.13521
    lng: -97.91778
  phone: 254-547-4465
  sources:
  - acf/head-start-locations
  verified:
    'on': '2026-07-19'
    method: api
- id: tx/copperas-cove/cove-sun-head-start
  name: Cove Sun Head Start
  categories:
  - child-care
  address:
    street: 1105 Leonhard St
    city: Copperas Cove
    state: tx
    zip: '76522'
  place: '4816624'
  geo:
    lat: 31.11355
    lng: -97.90133
  phone: 254-547-0769
  sources:
  - acf/head-start-locations
  verified:
    'on': '2026-07-19'
    method: api
- id: tx/copperas-cove/housing-authority-of-copperas-cove
  name: Housing Authority Of Copperas Cove
  categories:
  - housing-assistance
  address: {street: 701 Casa Cir, city: Copperas Cove, state: tx, zip: '76522'}
  description: Public housing (Low-Rent) agency
  place: '4816624'
  geo: {lat: 31.11247, lng: -97.9148}
  phone: 254-547-9591
  sources:
  - hud/resource-locator
  verified: {'on': '2026-07-19', method: api}
- id: tx/copperas-cove/south-park-free-pantry
  name: South Park Free Pantry
  categories:
  - food-pantry
  place: '4816624'
  geo:
    lat: 31.10219
    lng: -97.91388
  external_ids:
    lfp: '3636'
  sources:
  - littlefreepantry/map
  verified:
    'on': '2026-07-19'
    method: scrape
