- id: tx/dallas/american-care-academy
  name: American Care Academy
  categories:
  - child-care
  address:
    street: 530 S R L Thornton Fwy
    city: Dallas
    state: tx
    zip: '75203'
  place: '4819000'
  geo:
    lat: 32.74718
    lng: -96.80954
  phone: 214-943-7300
  sources:
  - acf/head-start-locations
  verified:
    'on': '2026-07-19'
    method: api
- id: tx/dallas/anchor-of-hope-opioid-treatment-program-inc
  name: Anchor of Hope Opioid Treatment Program Inc
  categories:
  - su-treatment
  address:
    street: 2307 Springlake Road
    city: Dallas
    state: tx
    zip: '75234'
  place: '4819000'
  geo:
    lat: 32.92036
    lng: -96.90305
  phone: 469-291-5288
  website: https://anchorofhopedallas.com
  sources:
  - samhsa/findtreatment
  verified:
    'on': '2026-07-19'
    method: api
- id: tx/dallas/arise-recovery-centers
  name: Arise Recovery Centers
  categories:
  - su-treatment
  address:
    street: 5440 Harvest Hill Road
    city: Dallas
    state: tx
    zip: '75230'
  place: '4819000'
  geo:
    lat: 32.92113
    lng: -96.81718
  phone: 214-613-0616
  website: https://www.ariserecoverycenters.com
  sources:
  - samhsa/findtreatment
  verified:
    'on': '2026-07-19'
    method: api
- id: tx/dallas/child-and-family-guidance-center-harry-hines-hea
  name: Child and Family Guidance Center Harry Hines/Headquarters
  categories:
  - su-treatment
  - mh-treatment
  address:
    street: 8915 Harry Hines Boulevard
    city: Dallas
    state: tx
    zip: '75247'
  place: '4819000'
  geo:
    lat: 32.83812
    lng: -96.86834
  phone: 214-351-3490
  website: https://www.childrenandfamilies.org
  sources:
  - samhsa/findtreatment
  verified:
    'on': '2026-07-19'
    method: api
- id: tx/dallas/childcaregroup-at-bilhartz-elementary-duncanvill
  name: ChildCareGroup at Bilhartz Elementary (Duncanville ISD)
  categories:
  - child-care
  address:
    street: 6700 Wandt Dr
    city: Dallas
    state: tx
    zip: '75236'
  place: '4819000'
  geo:
    lat: 32.66503
    lng: -96.92854
  phone: 214-905-2497
  sources:
  - acf/head-start-locations
  verified:
    'on': '2026-07-19'
    method: api
- id: tx/dallas/childcaregroup-at-ervin-elementary-dallas-isd
  name: ChildCareGroup at Ervin Elementary (Dallas ISD)
  categories:
  - child-care
  address:
    street: 3722 Black Oak Dr
    city: Dallas
    state: tx
    zip: '75241'
  place: '4819000'
  geo:
    lat: 32.67989
    lng: -96.76253
  phone: 214-630-7911
  sources:
  - acf/head-start-locations
  verified:
    'on': '2026-07-19'
    method: api
- id: tx/dallas/childcaregroup-at-jack-lowe-elementary-dallas-is
  name: ChildCareGroup at Jack Lowe Elementary (Dallas ISD)
  categories:
  - child-care
  address:
    street: 7000 Holly Hill Dr
    city: Dallas
    state: tx
    zip: '75231'
  place: '4819000'
  geo:
    lat: 32.87263
    lng: -96.76118
  phone: 214-905-2497
  sources:
  - acf/head-start-locations
  verified:
    'on': '2026-07-19'
    method: api
- id: tx/dallas/childcaregroup-at-landauer
  name: ChildCareGroup at Landauer
  categories:
  - child-care
  address:
    street: 4539 Munger Ave
    city: Dallas
    state: tx
    zip: '75204'
  place: '4819000'
  geo:
    lat: 32.8052
    lng: -96.78077
  phone: 214-905-2497
  sources:
  - acf/head-start-locations
  verified:
    'on': '2026-07-19'
    method: api
- id: tx/dallas/childcaregroup-at-martin-luther-king
  name: ChildCareGroup at Martin Luther King
  categories:
  - child-care
  address:
    street: 2922 Martin Luther King Jr Blvd
    street2: Bldg D
    city: Dallas
    state: tx
    zip: '75215'
  place: '4819000'
  geo:
    lat: 32.7707
    lng: -96.76645
  phone: 214-905-2497
  sources:
  - acf/head-start-locations
  verified:
    'on': '2026-07-19'
    method: api
- id: tx/dallas/childcaregroup-at-truett-elementary-dallas-isd
  name: ChildCareGroup at Truett Elementary (Dallas ISD)
  categories:
  - child-care
  address:
    street: 1810 Inadale Ave
    city: Dallas
    state: tx
    zip: '75228'
  place: '4819000'
  geo:
    lat: 32.81546
    lng: -96.68315
  phone: 214-701-6248
  sources:
  - acf/head-start-locations
  verified:
    'on': '2026-07-19'
    method: api
- id: tx/dallas/childcaregroup-at-west-dallas
  name: ChildCareGroup at West Dallas
  categories:
  - child-care
  address:
    street: 2827 Lapsley St
    city: Dallas
    state: tx
    zip: '75212'
  place: '4819000'
  geo:
    lat: 32.7766
    lng: -96.9124
  phone: 214-905-2497
  sources:
  - acf/head-start-locations
  verified:
    'on': '2026-07-19'
    method: api
- id: tx/dallas/cityscape-charter-school
  name: Cityscape Charter School
  categories:
  - child-care
  address:
    street: 6015 Lindsley Ave
    city: Dallas
    state: tx
    zip: '75223'
  place: '4819000'
  geo:
    lat: 32.80028
    lng: -96.74748
  phone: 469-905-0336
  sources:
  - acf/head-start-locations
  verified:
    'on': '2026-07-19'
    method: api
- id: tx/dallas/clinton-p-russell
  name: Clinton P. Russell
  categories:
  - child-care
  address:
    street: 3031 S Beckley Ave
    city: Dallas
    state: tx
    zip: '75224'
  place: '4819000'
  geo:
    lat: 32.70922
    lng: -96.8243
  phone: 972-283-6400
  sources:
  - acf/head-start-locations
  verified:
    'on': '2026-07-19'
    method: api
- id: tx/dallas/crossroads-recovery-center
  name: Crossroads Recovery Center
  categories:
  - su-treatment
  address:
    street: 5552 South Hampton Road
    city: Dallas
    state: tx
    zip: '75232'
  place: '4819000'
  geo:
    lat: 32.67927
    lng: -96.85639
  phone: 214-339-3181
  website: https://www.crossroadsdfw.org
  sources:
  - samhsa/findtreatment
  verified:
    'on': '2026-07-19'
    method: api
- id: tx/dallas/dallas-county-hospital-district
  name: Dallas County Hospital District
  categories:
  - community-health-center
  address:
    street: 5151 Maple Ave
    city: Dallas
    state: tx
    zip: '75235'
  place: '4819000'
  geo:
    lat: 32.81557
    lng: -96.83186
  phone: 214-590-0153
  website: https://www.parklandhospital.com
  external_ids:
    bphc: BPS-H80-034266
  sources:
  - hrsa/health-center-sites
  verified:
    'on': '2026-07-19'
    method: api
- id: tx/dallas/dallas-county-housing-assistance-program
  name: Dallas County Housing Assistance Program
  categories:
  - housing-assistance
  address: {street: 2377 N Stemmons Fwy Ste 700, city: Dallas, state: tx, zip: '75207'}
  description: Housing Choice Voucher (Section 8) agency
  place: '4819000'
  geo: {lat: 32.8038, lng: -96.83576}
  phone: 214-819-1871
  sources:
  - hud/resource-locator
  verified: {'on': '2026-07-19', method: api}
- id: tx/dallas/dallas-county-mhmr-center-dba-dallas-metrocare-s
  name: Dallas County MHMR Center DBA Dallas Metrocare Services Samuell
  categories:
  - su-treatment
  - mh-treatment
  address:
    street: 4701 Samuell Boulevard
    city: Dallas
    state: tx
    zip: '75228'
  place: '4819000'
  geo:
    lat: 32.79374
    lng: -96.71488
  phone: 214-333-7052
  website: https://www.metrocareservices.org
  sources:
  - samhsa/findtreatment
  verified:
    'on': '2026-07-19'
    method: api
- id: tx/dallas/dallas-county-mhmr-center-dba-dallas-metrocare-s-2
  name: Dallas County MHMR Center DBA Dallas Metrocare Services Skillman
  categories:
  - su-treatment
  - mh-treatment
  address:
    street: 9708 Skillman Street
    city: Dallas
    state: tx
    zip: '75243'
  place: '4819000'
  geo:
    lat: 32.90818
    lng: -96.70574
  phone: 214-221-5433
  website: https://www.metrocareservices.org
  sources:
  - samhsa/findtreatment
  verified:
    'on': '2026-07-19'
    method: api
- id: tx/dallas/dallas-county-mhmr-center-dba-dallas-metrocare-s-3
  name: Dallas County MHMR Center DBA Dallas Metrocare Servs Lancaster
  categories:
  - su-treatment
  - mh-treatment
  address:
    street: 3330 South Lancaster Road
    city: Dallas
    state: tx
    zip: '75216'
  place: '4819000'
  geo:
    lat: 32.70686
    lng: -96.80002
  phone: 214-743-1200
  website: https://www.metrocareservices.org
  sources:
  - samhsa/findtreatment
  verified:
    'on': '2026-07-19'
    method: api
- id: tx/dallas/dallas-county-mhmr-center-dba-dallas-metrocare-s-4
  name: Dallas County MHMR Center DBA Dallas Metrocare Servs/The Bridge
  categories:
  - su-treatment
  - mh-treatment
  address:
    street: 1818 Corsicana Street
    city: Dallas
    state: tx
    zip: '75201'
  place: '4819000'
  geo:
    lat: 32.77515
    lng: -96.79157
  phone: 214-670-1507
  website: https://www.metrocareservices.org
  sources:
  - samhsa/findtreatment
  verified:
    'on': '2026-07-19'
    method: api
- id: tx/dallas/dallas-deflection-center-homeward-bound
  name: Dallas Deflection Center-Homeward Bound
  categories:
  - community-health-center
  address:
    street: 5300 University Hills Blvd
    city: Dallas
    state: tx
    zip: '75241'
  place: '4819000'
  geo:
    lat: 32.6807
    lng: -96.80508
  phone: 214-590-0153
  external_ids:
    bphc: BPS-H80-034473
  sources:
  - hrsa/health-center-sites
  verified:
    'on': '2026-07-19'
    method: api
- id: tx/dallas/davids-place
  name: Davids' Place
  categories:
  - child-care
  address:
    street: 1000 S Carroll Ave
    city: Dallas
    state: tx
    zip: '75223'
  place: '4819000'
  geo:
    lat: 32.78603
    lng: -96.7605
  phone: 214-823-3309
  sources:
  - acf/head-start-locations
  verified:
    'on': '2026-07-19'
    method: api
- id: tx/dallas/department-of-veteran-affairs-hospital
  name: Department of Veteran Affairs Hospital
  categories:
  - su-treatment
  - mh-treatment
  address:
    street: 4500 South Lancaster Road
    city: Dallas
    state: tx
    zip: '75216'
  place: '4819000'
  geo:
    lat: 32.69357
    lng: -96.79091
  phone: 214-742-8387 x4
  website: https://
  sources:
  - samhsa/findtreatment
  verified:
    'on': '2026-07-19'
    method: api
- id: tx/dallas/discovery-point-retreat
  name: Discovery Point Retreat
  categories:
  - su-treatment
  address:
    street: 4306 Capitol Avenue
    city: Dallas
    state: tx
    zip: '75204'
  place: '4819000'
  geo:
    lat: 32.80635
    lng: -96.78762
  phone: 877-760-0221
  website: https://discoverypointretreat.com
  sources:
  - samhsa/findtreatment
  verified:
    'on': '2026-07-19'
    method: api
- id: tx/dallas/early-head-start-head-start-buckeye-trail-common
  name: Early Head Start/Head Start @ Buckeye Trail Commons
  categories:
  - child-care
  address:
    street: 6717 Bexar St
    city: Dallas
    state: tx
    zip: '75215'
  place: '4819000'
  geo:
    lat: 32.73654
    lng: -96.75386
  phone: 469-917-9100
  sources:
  - acf/head-start-locations
  verified:
    'on': '2026-07-19'
    method: api
- id: tx/dallas/early-head-start-head-start-lakewest
  name: Early Head Start/Head Start @ Lakewest
  categories:
  - child-care
  address:
    street: 3737 Goldman St
    street2: Suite 100, Building B
    city: Dallas
    state: tx
    zip: '75212'
  place: '4819000'
  geo:
    lat: 32.78657
    lng: -96.85813
  phone: 214-267-0524
  sources:
  - acf/head-start-locations
  verified:
    'on': '2026-07-19'
    method: api
- id: tx/dallas/early-head-start-head-start-margaret-h-cone
  name: Early Head Start/Head Start @ Margaret H. Cone
  categories:
  - child-care
  address:
    street: 2919 Troy St
    city: Dallas
    state: tx
    zip: '75210'
  place: '4819000'
  geo:
    lat: 32.77613
    lng: -96.73843
  phone: 214-217-3170
  sources:
  - acf/head-start-locations
  verified:
    'on': '2026-07-19'
    method: api
- id: tx/dallas/early-head-start-jeanie-borlaug-laube
  name: Early Head Start Jeanie Borlaug Laube
  categories:
  - child-care
  address:
    street: 938 South Carroll Ave
    city: Dallas
    state: tx
    zip: '75223'
  place: '4819000'
  geo:
    lat: 32.78561
    lng: -96.76061
  phone: 972-598-0360
  sources:
  - acf/head-start-locations
  verified:
    'on': '2026-07-19'
    method: api
- id: tx/dallas/east-dallas-little-free-pantry
  name: East Dallas Little Free Pantry
  categories:
  - food-pantry
  place: '4819000'
  geo:
    lat: 32.82686
    lng: -96.67114
  external_ids:
    lfp: '1139'
  sources:
  - littlefreepantry/map
  verified:
    'on': '2026-07-19'
    method: scrape
- id: tx/dallas/eddie-bernice-johnson-youth-and-family-center
  name: Eddie Bernice Johnson Youth and Family Center
  categories:
  - community-health-center
  address:
    street: 2727 AL Lipscomb Way
    city: Dallas
    state: tx
    zip: '75215'
  place: '4819000'
  geo:
    lat: 32.77107
    lng: -96.77331
  phone: 214-426-3645
  external_ids:
    bphc: BPS-H80-037701
  sources:
  - hrsa/health-center-sites
  verified:
    'on': '2026-07-19'
    method: api
- id: tx/dallas/enterhealth-outpatient-center-of-excellence
  name: Enterhealth Outpatient Center of Excellence
  categories:
  - su-treatment
  - mh-treatment
  address:
    street: 8222 Douglas Avenue
    city: Dallas
    state: tx
    zip: '75225'
  place: '4819000'
  geo:
    lat: 32.86286
    lng: -96.8081
  phone: 903-482-0905
  website: https://www.enterhealth.com
  sources:
  - samhsa/findtreatment
  verified:
    'on': '2026-07-19'
    method: api
- id: tx/dallas/ferguson-oates
  name: Ferguson-Oates
  categories:
  - child-care
  address:
    street: 2345 Oates Dr
    city: Dallas
    state: tx
    zip: '75228'
  place: '4819000'
  geo:
    lat: 32.82178
    lng: -96.67556
  phone: 214-324-2831
  sources:
  - acf/head-start-locations
  verified:
    'on': '2026-07-19'
    method: api
- id: tx/dallas/golden-gate-adult-rehab-ministry
  name: Golden Gate Adult Rehab Ministry
  categories:
  - su-treatment
  - mh-treatment
  address:
    street: 1128 Reverend CBT Smith Street
    city: Dallas
    state: tx
    zip: '75203'
  place: '4819000'
  geo:
    lat: 32.75544
    lng: -96.80739
  phone: 214-943-5010 x205
  website: https://www.armdallas.org
  sources:
  - samhsa/findtreatment
  verified:
    'on': '2026-07-19'
    method: api
- id: tx/dallas/greenbriar-ln-lfp
  name: Greenbriar Ln LFP
  categories:
  - food-pantry
  place: '4819000'
  geo:
    lat: 32.7644
    lng: -96.82013
  external_ids:
    lfp: '1604'
  sources:
  - littlefreepantry/map
  verified:
    'on': '2026-07-19'
    method: scrape
- id: tx/dallas/guiding-minds-counseling-and-treatment
  name: Guiding Minds Counseling and Treatment
  categories:
  - su-treatment
  address:
    street: 1910 Pacific Avenue
    city: Dallas
    state: tx
    zip: '75201'
  place: '4819000'
  geo:
    lat: 32.78265
    lng: -96.79546
  phone: 214-613-6999
  website: https://www.guidingmindsed.com
  sources:
  - samhsa/findtreatment
  verified:
    'on': '2026-07-19'
    method: api
- id: tx/dallas/guiding-minds-counseling-and-treatment-2
  name: Guiding Minds Counseling and Treatment
  categories:
  - su-treatment
  address:
    street: 5001 Crozier
    city: Dallas
    state: tx
    zip: '75215'
  place: '4819000'
  geo:
    lat: 32.75067
    lng: -96.75445
  phone: 214-613-6999
  website: https://guidingmindsed.com/
  sources:
  - samhsa/findtreatment
  verified:
    'on': '2026-07-19'
    method: api
- id: tx/dallas/head-start-early-head-start-roseland-homes
  name: Head Start/Early Head Start Roseland Homes
  categories:
  - child-care
  address:
    street: 2011 N Washington Ave
    city: Dallas
    state: tx
    zip: '75204'
  place: '4819000'
  geo:
    lat: 32.80022
    lng: -96.78939
  phone: 972-325-7980
  sources:
  - acf/head-start-locations
  verified:
    'on': '2026-07-19'
    method: api
- id: tx/dallas/healing-hands-ministries-dallas
  name: Healing Hands Ministries Dallas
  categories:
  - community-health-center
  address:
    street: 8515 Greenville Ave, Suite 108
    city: Dallas
    state: tx
    zip: '75243'
  place: '4819000'
  geo:
    lat: 32.89445
    lng: -96.75397
  phone: 214-221-0855
  website: https://www.hhmhealth.org
  external_ids:
    bphc: BPS-H80-019339
  sources:
  - hrsa/health-center-sites
  verified:
    'on': '2026-07-19'
    method: api
- id: tx/dallas/healing-hands-ministries-pediatric-health-center
  name: Healing Hands Ministries Pediatric Health Center
  categories:
  - community-health-center
  address:
    street: 5750 Pineland Dr
    city: Dallas
    state: tx
    zip: '75231'
  place: '4819000'
  geo:
    lat: 32.87792
    lng: -96.75817
  phone: 469-637-4202
  external_ids:
    bphc: BPS-H80-027489
  sources:
  - hrsa/health-center-sites
  verified:
    'on': '2026-07-19'
    method: api
- id: tx/dallas/healing-hands-ministries-vickery-family-health-c
  name: Healing Hands Ministries - Vickery Family Health Center
  categories:
  - community-health-center
  address:
    street: 5750 Pineland Dr STE 150
    city: Dallas
    state: tx
    zip: '75231'
  place: '4819000'
  geo:
    lat: 32.8782
    lng: -96.75771
  phone: 214-379-4393
  website: https://www.healinghandsdallas.org
  external_ids:
    bphc: BPS-H80-019338
  sources:
  - hrsa/health-center-sites
  verified:
    'on': '2026-07-19'
    method: api
- id: tx/dallas/healing-hands-ministries-women-s-health-center
  name: Healing Hands MInistries Women's Health Center
  categories:
  - community-health-center
  address:
    street: 5750 Pineland Dr
    city: Dallas
    state: tx
    zip: '75231'
  place: '4819000'
  geo:
    lat: 32.87792
    lng: -96.75817
  phone: 469-637-2777
  website: https://www.hhmhealth.org
  external_ids:
    bphc: BPS-H80-027488
  sources:
  - hrsa/health-center-sites
  verified:
    'on': '2026-07-19'
    method: api
- id: tx/dallas/healing-hands-ministries-woodhill-pediatric-heal
  name: Healing Hands Ministries Woodhill Pediatric Health Center
  categories:
  - community-health-center
  address:
    street: 8335 Walnut Hill Ln
    city: Dallas
    state: tx
    zip: '75231'
  place: '4819000'
  geo:
    lat: 32.88507
    lng: -96.76145
  phone: 214-221-0855
  external_ids:
    bphc: BPS-H80-033931
  sources:
  - hrsa/health-center-sites
  verified:
    'on': '2026-07-19'
    method: api
- id: tx/dallas/hhm-health-administrative-office
  name: HHM Health Administrative Office
  categories:
  - community-health-center
  address:
    street: 5750 Pineland Dr, Suite 300
    city: Dallas
    state: tx
    zip: '75231'
  place: '4819000'
  geo:
    lat: 32.8779
    lng: -96.7581
  phone: 214-221-0855
  external_ids:
    bphc: BPS-H80-040062
  sources:
  - hrsa/health-center-sites
  verified:
    'on': '2026-07-19'
    method: api
- id: tx/dallas/hhm-health-at-holmes-st
  name: HHM Health at Holmes St.
  categories:
  - community-health-center
  address:
    street: 3639 Holmes St
    city: Dallas
    state: tx
    zip: '75215'
  place: '4819000'
  geo:
    lat: 32.75578
    lng: -96.77252
  phone: 972-354-8712
  external_ids:
    bphc: BPS-H80-038500
  sources:
  - hrsa/health-center-sites
  verified:
    'on': '2026-07-19'
    method: api
- id: tx/dallas/highland-meadows-elementary-school
  name: Highland Meadows Elementary School
  categories:
  - child-care
  address:
    street: 8939 Whitewing Ln
    city: Dallas
    state: tx
    zip: '75238'
  place: '4819000'
  geo:
    lat: 32.87072
    lng: -96.6879
  phone: 214-212-0570
  sources:
  - acf/head-start-locations
  verified:
    'on': '2026-07-19'
    method: api
- id: tx/dallas/home-base-mesquite
  name: Home-Base Mesquite
  categories:
  - child-care
  address:
    street: 8035 E R L Thornton Fwy
    street2: Ste 605
    city: Dallas
    state: tx
    zip: '75228'
  place: '4819000'
  geo:
    lat: 32.79487
    lng: -96.70373
  phone: 214-905-3521
  sources:
  - acf/head-start-locations
  verified:
    'on': '2026-07-19'
    method: api
- id: tx/dallas/home-based-west-dallas
  name: Home-Based West Dallas
  categories:
  - child-care
  address:
    street: 1420 W Mockingbird Ln
    street2: Ste 300
    city: Dallas
    state: tx
    zip: '75247'
  place: '4819000'
  geo:
    lat: 32.82088
    lng: -96.86425
  phone: 972-998-0170
  sources:
  - acf/head-start-locations
  verified:
    'on': '2026-07-19'
    method: api
- id: tx/dallas/homeward-bound-inc-dallas-outpatient-program
  name: Homeward Bound Inc Dallas Outpatient Program
  categories:
  - su-treatment
  - mh-treatment
  address:
    street: 2535 Lone Star Drive
    city: Dallas
    state: tx
    zip: '75212'
  place: '4819000'
  geo:
    lat: 32.76943
    lng: -96.8635
  phone: 214-941-3500 x246
  website: https://www.homewardboundinc.org
  sources:
  - samhsa/findtreatment
  verified:
    'on': '2026-07-19'
    method: api
- id: tx/dallas/homeward-bound-inc-dallas-residential-treatment
  name: Homeward Bound Inc Dallas Residential Treatment Center
  categories:
  - su-treatment
  address:
    street: 5300 University Hills Boulevard
    city: Dallas
    state: tx
    zip: '75241'
  place: '4819000'
  geo:
    lat: 32.68074
    lng: -96.80521
  phone: 214-941-3500
  website: https://www.homewardboundinc.org
  sources:
  - samhsa/findtreatment
  verified:
    'on': '2026-07-19'
    method: api
- id: tx/dallas/housing-authority-of-the-city-of-dallas-texa
  name: Housing Authority Of The City Of Dallas, Texa
  categories:
  - housing-assistance
  address: {street: 3939 N Hampton Rd, city: Dallas, state: tx, zip: '75212'}
  description: Public housing and Housing Choice Voucher agency
  place: '4819000'
  geo: {lat: 32.79003, lng: -96.85676}
  phone: 214-951-8300
  sources:
  - hud/resource-locator
  verified: {'on': '2026-07-19', method: api}
- id: tx/dallas/kind-health-texas-pllc
  name: Kind Health Texas PLLC
  categories:
  - su-treatment
  - mh-treatment
  address:
    city: Dallas
    state: tx
    zip: '75219'
  place: '4819000'
  phone: 855-374-1055
  website: https://kindtexas.com
  sources:
  - samhsa/findtreatment
  verified:
    'on': '2026-07-19'
    method: api
- id: tx/dallas/lake-june
  name: Lake June
  categories:
  - child-care
  address:
    street: 9030 Lake June Rd
    city: Dallas
    state: tx
    zip: '75217'
  place: '4819000'
  geo:
    lat: 32.73352
    lng: -96.66375
  phone: 214-398-9696
  sources:
  - acf/head-start-locations
  verified:
    'on': '2026-07-19'
    method: api
- id: tx/dallas/lbu-at-td-marshall
  name: LBU at TD Marshall
  categories:
  - community-health-center
  address:
    street: 915 Brookmere Dr
    city: Dallas
    state: tx
    zip: '75216'
  place: '4819000'
  geo:
    lat: 32.6938
    lng: -96.81126
  phone: 214-540-0300
  website: https://losbarriosunidos.org
  external_ids:
    bphc: BPS-H80-037986
  sources:
  - hrsa/health-center-sites
  verified:
    'on': '2026-07-19'
    method: api
- id: tx/dallas/lbu-oak-cliff
  name: LBU Oak Cliff
  categories:
  - community-health-center
  address:
    street: 4732 W Illinois Ave
    city: Dallas
    state: tx
    zip: '75211'
  place: '4819000'
  geo:
    lat: 32.71983
    lng: -96.90222
  phone: 214-540-0300
  website: https://www.losbarriosunidos.org
  external_ids:
    bphc: BPS-H80-011346
  sources:
  - hrsa/health-center-sites
  verified:
    'on': '2026-07-19'
    method: api
- id: tx/dallas/lbu-south-oak-cliff
  name: LBU South Oak Cliff
  categories:
  - community-health-center
  address:
    street: 5787 S Hampton Rd, Ste 365
    city: Dallas
    state: tx
    zip: '75232'
  place: '4819000'
  geo:
    lat: 32.67827
    lng: -96.85713
  phone: 214-540-0300
  external_ids:
    bphc: BPS-H80-030881
  sources:
  - hrsa/health-center-sites
  verified:
    'on': '2026-07-19'
    method: api
- id: tx/dallas/life-management-resources
  name: Life Management Resources
  categories:
  - su-treatment
  address:
    street: 17304 Preston Road
    city: Dallas
    state: tx
    zip: '75252'
  place: '4819000'
  geo:
    lat: 32.9863
    lng: -96.80127
  phone: 972-985-7565
  website: https://www.lifemanagementresources.com
  sources:
  - samhsa/findtreatment
  verified:
    'on': '2026-07-19'
    method: api
- id: tx/dallas/lighthouse-recovery-centers-llc
  name: Lighthouse Recovery Centers LLC
  categories:
  - su-treatment
  - mh-treatment
  address:
    street: 3333 Welborn Street
    city: Dallas
    state: tx
    zip: '75219'
  place: '4819000'
  geo:
    lat: 32.80996
    lng: -96.80626
  phone: 214-717-5884
  website: https://lighthouserecoverytx.com
  sources:
  - samhsa/findtreatment
  verified:
    'on': '2026-07-19'
    method: api
- id: tx/dallas/little-free-pantry-on-greenbriar
  name: Little Free Pantry on Greenbriar
  categories:
  - food-pantry
  place: '4819000'
  geo:
    lat: 32.76431
    lng: -96.81994
  external_ids:
    lfp: '1649'
  sources:
  - littlefreepantry/map
  verified:
    'on': '2026-07-19'
    method: scrape
- id: tx/dallas/los-barrios-unidos-community-clinic-inc
  name: LOS BARRIOS UNIDOS COMMUNITY CLINIC, INC.
  categories:
  - community-health-center
  address:
    street: 809 Singleton Blvd
    city: Dallas
    state: tx
    zip: '75212'
  place: '4819000'
  geo:
    lat: 32.77905
    lng: -96.83638
  phone: 214-571-6132
  website: https://www.losbarriosunidos.org
  external_ids:
    bphc: BPS-H80-004865
  sources:
  - hrsa/health-center-sites
  verified:
    'on': '2026-07-19'
    method: api
- id: tx/dallas/los-barrios-unidos-community-clinic-inc-2
  name: Los Barrios Unidos Community Clinic, Inc.
  categories:
  - community-health-center
  address:
    street: 3111 Sylvan Ave
    city: Dallas
    state: tx
    zip: '75212'
  place: '4819000'
  geo:
    lat: 32.78038
    lng: -96.83612
  phone: 214-571-6132
  website: https://www.losbarriosunidos.org
  external_ids:
    bphc: BPS-H80-000846
  sources:
  - hrsa/health-center-sites
  verified:
    'on': '2026-07-19'
    method: api
- id: tx/dallas/lumin-bachman-lake-community-school-main
  name: Lumin Bachman Lake Community School-main
  categories:
  - child-care
  address:
    street: 9507 Overlake Dr
    city: Dallas
    state: tx
    zip: '75220'
  place: '4819000'
  geo:
    lat: 32.85643
    lng: -96.86867
  phone: 214-351-6700
  sources:
  - acf/head-start-locations
  verified:
    'on': '2026-07-19'
    method: api
- id: tx/dallas/martin-luther-king-jr-family-clinic-inc-d-b-a-fo
  name: Martin Luther King, Jr. Family Clinic, Inc. d/b/a Foremost Family Health Centers
  categories:
  - community-health-center
  address:
    street: 2922B Martin Luther King Jr Blvd
    city: Dallas
    state: tx
    zip: '75215'
  place: '4819000'
  geo:
    lat: 32.76939
    lng: -96.76592
  phone: 214-426-3645
  website: https://www.foremostfhc.org
  external_ids:
    bphc: BPS-H80-001291
  sources:
  - hrsa/health-center-sites
  verified:
    'on': '2026-07-19'
    method: api
- id: tx/dallas/meadows-outpatient-center-dallas
  name: Meadows Outpatient Center Dallas
  categories:
  - su-treatment
  - mh-treatment
  address:
    street: 17101 Preston Road
    city: Dallas
    state: tx
    zip: '75248'
  place: '4819000'
  phone: 866-913-5010
  website: https://themeadowsiop.com/locations/meadows-outpatient-dallas/
  sources:
  - samhsa/findtreatment
  verified:
    'on': '2026-07-19'
    method: api
- id: tx/dallas/medical-city-green-oaks-hospital
  name: Medical City Green Oaks Hospital
  categories:
  - su-treatment
  - mh-treatment
  address:
    street: 7808 Clodus Fields Drive
    city: Dallas
    state: tx
    zip: '75251'
  place: '4819000'
  geo:
    lat: 32.91286
    lng: -96.77157
  phone: 972-991-9504
  website: https://medicalcityhealthcare.com
  sources:
  - samhsa/findtreatment
  verified:
    'on': '2026-07-19'
    method: api
- id: tx/dallas/menninger-solutions-outpatient-service
  name: Menninger Solutions Outpatient Service
  categories:
  - su-treatment
  address:
    street: 4300 MacArthur Avenue
    city: Dallas
    state: tx
    zip: '75209'
  place: '4819000'
  geo:
    lat: 32.82284
    lng: -96.81709
  phone: 214-369-1155
  website: https://www.MenningerClinic.org
  sources:
  - samhsa/findtreatment
  verified:
    'on': '2026-07-19'
    method: api
- id: tx/dallas/metrocare-hillside-adult-mental-health-westmorel
  name: Metrocare Hillside Adult Mental Health Westmoreland AOP Clinic
  categories:
  - su-treatment
  - mh-treatment
  address:
    street: 3230 Remond Drive
    city: Dallas
    state: tx
    zip: '75211'
  place: '4819000'
  geo:
    lat: 32.76388
    lng: -96.87348
  phone: 469-780-2125
  website: https://www.metrocareservices.org
  sources:
  - samhsa/findtreatment
  verified:
    'on': '2026-07-19'
    method: api
- id: tx/dallas/metrocare-hillside-child-and-teen-clinic
  name: Metrocare Hillside Child and Teen Clinic
  categories:
  - su-treatment
  - mh-treatment
  address:
    street: 3230 Remond Drive
    city: Dallas
    state: tx
    zip: '75211'
  place: '4819000'
  geo:
    lat: 32.76388
    lng: -96.87348
  phone: 214-333-7015
  website: https://www.metrocareservices.org
  sources:
  - samhsa/findtreatment
  verified:
    'on': '2026-07-19'
    method: api
- id: tx/dallas/metrocare-hillside-child-and-teen-clinic-2
  name: Metrocare Hillside Child and Teen Clinic
  categories:
  - su-treatment
  - mh-treatment
  address:
    street: 1881 Sylvan Avenue
    city: Dallas
    state: tx
    zip: '75208'
  place: '4819000'
  geo:
    lat: 32.76871
    lng: -96.83645
  phone: 469-866-3614
  website: https://
  sources:
  - samhsa/findtreatment
  verified:
    'on': '2026-07-19'
    method: api
- id: tx/dallas/metrocare-services
  name: MetroCare Services
  categories:
  - su-treatment
  - mh-treatment
  address:
    street: 4701 Samuell Boulevard
    city: Dallas
    state: tx
    zip: '75228'
  place: '4819000'
  geo:
    lat: 32.79374
    lng: -96.71491
  phone: 214-743-1200
  website: https://www.metrocareservices.org
  sources:
  - samhsa/findtreatment
  verified:
    'on': '2026-07-19'
    method: api
- id: tx/dallas/metrocare-special-needs-offenders-program-snop
  name: Metrocare Special Needs Offenders Program (SNOP)
  categories:
  - su-treatment
  - mh-treatment
  address:
    street: 3330 South Lancaster Road
    city: Dallas
    state: tx
    zip: '75216'
  place: '4819000'
  geo:
    lat: 32.70686
    lng: -96.80002
  phone: 469-780-2125
  website: https://www.metrocareservices.org
  sources:
  - samhsa/findtreatment
  verified:
    'on': '2026-07-19'
    method: api
- id: tx/dallas/mi-escuelita-carolyn-strickland-formerly-crossov
  name: Mi Escuelita @ Carolyn Strickland - Formerly Crossover
  categories:
  - child-care
  address:
    street: 4231 Maple Ave
    city: Dallas
    state: tx
    zip: '75219'
  place: '4819000'
  geo:
    lat: 32.808
    lng: -96.81932
  phone: 214-526-0220
  sources:
  - acf/head-start-locations
  verified:
    'on': '2026-07-19'
    method: api
- id: tx/dallas/mi-escuelita-casa-view
  name: Mi Escuelita Casa View
  categories:
  - child-care
  address:
    street: 11540 Ferguson Rd
    city: Dallas
    state: tx
    zip: '75228'
  place: '4819000'
  geo:
    lat: 32.85204
    lng: -96.6527
  phone: 972-913-6462
  sources:
  - acf/head-start-locations
  verified:
    'on': '2026-07-19'
    method: api
- id: tx/dallas/mi-escuelita-cockrell-hill
  name: Mi Escuelita @ Cockrell Hill
  categories:
  - child-care
  address:
    street: 4031 W Clarendon Dr
    city: Dallas
    state: tx
    zip: '75211'
  place: '4819000'
  geo:
    lat: 32.73508
    lng: -96.88627
  phone: 214-330-5240
  sources:
  - acf/head-start-locations
  verified:
    'on': '2026-07-19'
    method: api
- id: tx/dallas/mi-escuelita-frank-diaz
  name: Mi Escuelita @ Frank Diaz
  categories:
  - child-care
  address:
    street: 4931 Bernal Dr
    city: Dallas
    state: tx
    zip: '75212'
  place: '4819000'
  geo:
    lat: 32.78254
    lng: -96.90255
  phone: 214-638-1688
  sources:
  - acf/head-start-locations
  verified:
    'on': '2026-07-19'
    method: api
- id: tx/dallas/mobile-dental-1
  name: 'Mobile Dental #1'
  categories:
  - community-health-center
  address:
    street: 5280 Tex Oak Ave
    city: Dallas
    state: tx
    zip: '75235'
  place: '4819000'
  geo:
    lat: 32.8152
    lng: -96.83485
  phone: 214-590-0153
  website: https://www.parklandhospital.com/medical_services/outreach/homeless_outreach.html
  external_ids:
    bphc: BPS-H80-009058
  sources:
  - hrsa/health-center-sites
  verified:
    'on': '2026-07-19'
    method: api
- id: tx/dallas/mobile-medical-7
  name: 'Mobile Medical #7'
  categories:
  - community-health-center
  address:
    street: 5280 Tex Oak Ave
    city: Dallas
    state: tx
    zip: '75235'
  place: '4819000'
  geo:
    lat: 32.8152
    lng: -96.83485
  phone: 214-590-0160
  website: https://www.parklandhealth.org/homeless-outreach
  external_ids:
    bphc: BPS-H80-036839
  sources:
  - hrsa/health-center-sites
  verified:
    'on': '2026-07-19'
    method: api
- id: tx/dallas/mobile-medical-unit-1
  name: 'Mobile Medical Unit #1'
  categories:
  - community-health-center
  address:
    street: 5280 Tex Oak Ave
    city: Dallas
    state: tx
    zip: '75235'
  place: '4819000'
  geo:
    lat: 32.8152
    lng: -96.83485
  phone: 214-590-0153
  website: http://www.parklandhospital.com/phhs/homeless-outreach.aspx
  external_ids:
    bphc: BPS-H80-004746
  sources:
  - hrsa/health-center-sites
  verified:
    'on': '2026-07-19'
    method: api
- id: tx/dallas/mobile-medical-unit-2
  name: 'Mobile Medical Unit #2'
  categories:
  - community-health-center
  address:
    street: 5280 Tex Oak Ave
    city: Dallas
    state: tx
    zip: '75235'
  place: '4819000'
  geo:
    lat: 32.8152
    lng: -96.83485
  phone: 214-590-0153
  website: http://www.parklandhospital.com/phhs/homeless-outreach.aspx
  external_ids:
    bphc: BPS-H80-004380
  sources:
  - hrsa/health-center-sites
  verified:
    'on': '2026-07-19'
    method: api
- id: tx/dallas/mobile-medical-unit-3
  name: 'Mobile Medical Unit #3'
  categories:
  - community-health-center
  address:
    street: 5280 Tex Oak Ave
    city: Dallas
    state: tx
    zip: '75235'
  place: '4819000'
  geo:
    lat: 32.8152
    lng: -96.83485
  phone: 214-590-0153
  website: http://www.parklandhospital.com/phhs/homeless-outreach.aspx
  external_ids:
    bphc: BPS-H80-002256
  sources:
  - hrsa/health-center-sites
  verified:
    'on': '2026-07-19'
    method: api
- id: tx/dallas/mobile-medical-unit-4
  name: 'Mobile Medical Unit #4'
  categories:
  - community-health-center
  address:
    street: 5280 Tex Oak Ave
    city: Dallas
    state: tx
    zip: '75235'
  place: '4819000'
  geo:
    lat: 32.8152
    lng: -96.83485
  phone: 214-590-0153
  website: http://www.parklandhospital.com/phhs/homeless-outreach.aspx
  external_ids:
    bphc: BPS-H80-006656
  sources:
  - hrsa/health-center-sites
  verified:
    'on': '2026-07-19'
    method: api
- id: tx/dallas/mobile-medical-unit-5
  name: 'Mobile Medical Unit #5'
  categories:
  - community-health-center
  address:
    street: 5280 Tex Oak Ave
    city: Dallas
    state: tx
    zip: '75235'
  place: '4819000'
  geo:
    lat: 32.8152
    lng: -96.83485
  phone: 214-590-0153
  website: https://www.parklandhospital.com/phhs/homeless-outreach.aspx
  external_ids:
    bphc: BPS-H80-021936
  sources:
  - hrsa/health-center-sites
  verified:
    'on': '2026-07-19'
    method: api
- id: tx/dallas/mobile-medical-unit-6
  name: 'Mobile Medical Unit #6'
  categories:
  - community-health-center
  address:
    street: 5280 Tex Oak Ave
    city: Dallas
    state: tx
    zip: '75235'
  place: '4819000'
  geo:
    lat: 32.8152
    lng: -96.83485
  phone: 214-590-0153
  website: https://www.parklandhospital.com/phhs/homeless-outreach.aspx
  external_ids:
    bphc: BPS-H80-021917
  sources:
  - hrsa/health-center-sites
  verified:
    'on': '2026-07-19'
    method: api
- id: tx/dallas/nexus-family-recovery-center-inc
  name: Nexus Family Recovery Center Inc
  categories:
  - su-treatment
  address:
    street: 8733 La Prada Drive
    city: Dallas
    state: tx
    zip: '75228'
  place: '4819000'
  geo:
    lat: 32.81198
    lng: -96.6661
  phone: 214-321-0156
  website: https://www.nexusrecovery.org
  sources:
  - samhsa/findtreatment
  verified:
    'on': '2026-07-19'
    method: api
- id: tx/dallas/osier-health-pc-dba-willow-behavioral-health
  name: Osier Health PC DBA Willow Behavioral Health
  categories:
  - su-treatment
  - mh-treatment
  address:
    street: 1999 Bryan Street
    city: Dallas
    state: tx
    zip: '75201'
  place: '4819000'
  geo:
    lat: 32.78468
    lng: -96.79689
  phone: 646-814-1530
  website: https://www.willowbehavioralhealth.com
  sources:
  - samhsa/findtreatment
  verified:
    'on': '2026-07-19'
    method: api
- id: tx/dallas/otto-m-fridia
  name: Otto M. Fridia
  categories:
  - child-care
  address:
    street: 6011 Old Ox Rd
    city: Dallas
    state: tx
    zip: '75241'
  place: '4819000'
  geo:
    lat: 32.67385
    lng: -96.79705
  phone: 972-213-1479
  sources:
  - acf/head-start-locations
  verified:
    'on': '2026-07-19'
    method: api
- id: tx/dallas/phntx-administration
  name: PHNTX Administration
  categories:
  - community-health-center
  address:
    street: 3900 Junius St, Suite 300
    city: Dallas
    state: tx
    zip: '75246'
  place: '4819000'
  geo:
    lat: 32.7914
    lng: -96.77672
  phone: 214-521-5191
  website: https://phntx.org
  external_ids:
    bphc: BPS-LAL-038994
  sources:
  - hrsa/health-center-sites
  verified:
    'on': '2026-07-19'
    method: api
- id: tx/dallas/phoenix-associates-counseling-services
  name: Phoenix Associates Counseling Services
  categories:
  - su-treatment
  - mh-treatment
  address:
    street: 11886 Greenville Avenue
    city: Dallas
    state: tx
    zip: '75243'
  place: '4819000'
  geo:
    lat: 32.91054
    lng: -96.74449
  phone: 817-338-0311
  website: https://www.phoenixacs.org
  sources:
  - samhsa/findtreatment
  verified:
    'on': '2026-07-19'
    method: api
- id: tx/dallas/prism-health-north-texas-at-farmers-branch-denta
  name: Prism Health North Texas at Farmers Branch Dental Health Center
  categories:
  - community-health-center
  address:
    street: 13551 Dennis Ln
    city: Dallas
    state: tx
    zip: '75234'
  place: '4819000'
  geo:
    lat: 32.92791
    lng: -96.89117
  phone: 972-241-2259
  website: https://www.phntx.org
  external_ids:
    bphc: BPS-LAL-038980
  sources:
  - hrsa/health-center-sites
  verified:
    'on': '2026-07-19'
    method: api
- id: tx/dallas/prism-health-north-texas-at-oak-cliff-health-cen
  name: Prism Health North Texas at Oak Cliff Health Center
  categories:
  - community-health-center
  address:
    street: 219 Sunset Ave
    city: Dallas
    state: tx
    zip: '75208'
  place: '4819000'
  geo:
    lat: 32.74441
    lng: -96.82556
  phone: 972-807-7370
  website: https://www.phntx.org
  external_ids:
    bphc: BPS-LAL-038982
  sources:
  - hrsa/health-center-sites
  verified:
    'on': '2026-07-19'
    method: api
- id: tx/dallas/prism-health-north-texas-at-oak-lawn-health-cent
  name: Prism Health North Texas at Oak Lawn Health Center
  categories:
  - community-health-center
  address:
    street: 2801 Lemmon Ave, Suite 200
    city: Dallas
    state: tx
    zip: '75204'
  place: '4819000'
  geo:
    lat: 32.80383
    lng: -96.79646
  phone: 469-687-3200
  website: https://www.phntx.org
  external_ids:
    bphc: BPS-LAL-038979
  sources:
  - hrsa/health-center-sites
  verified:
    'on': '2026-07-19'
    method: api
- id: tx/dallas/prism-health-north-texas-at-south-dallas-health
  name: Prism Health North Texas at South Dallas Health Center
  categories:
  - community-health-center
  address:
    street: 4922 Spring Ave
    city: Dallas
    state: tx
    zip: '75210'
  place: '4819000'
  geo:
    lat: 32.77694
    lng: -96.73863
  phone: 214-421-7848
  website: https://www.phntx.org
  external_ids:
    bphc: BPS-LAL-038978
  sources:
  - hrsa/health-center-sites
  verified:
    'on': '2026-07-19'
    method: api
- id: tx/dallas/prism-health-north-texas-at-upg-health-center
  name: Prism Health North Texas at UPG Health Center
  categories:
  - community-health-center
  address:
    street: 2801 Lemmon Ave, Suite 400
    city: Dallas
    state: tx
    zip: '75204'
  place: '4819000'
  geo:
    lat: 32.80383
    lng: -96.79646
  phone: 214-303-1033
  website: http://www.uptownphysiciansgroup.com
  external_ids:
    bphc: BPS-LAL-038985
  sources:
  - hrsa/health-center-sites
  verified:
    'on': '2026-07-19'
    method: api
- id: tx/dallas/prism-health-north-texas-at-worth-street-health
  name: Prism Health North Texas at Worth Street Health Center
  categories:
  - community-health-center
  address:
    street: 4004 Worth St, Ste 100
    city: Dallas
    state: tx
    zip: '75246'
  place: '4819000'
  geo:
    lat: 32.79145
    lng: -96.77555
  phone: 214-623-6830
  website: https://www.phntx.org
  external_ids:
    bphc: BPS-LAL-038976
  sources:
  - hrsa/health-center-sites
  verified:
    'on': '2026-07-19'
    method: api
- id: tx/dallas/prism-health-north-texas-east-dallas-dental-heal
  name: Prism Health North Texas East Dallas Dental Health Center
  categories:
  - community-health-center
  address:
    street: 3910 Gaston Ave, Suite 175
    city: Dallas
    state: tx
    zip: '75246'
  place: '4819000'
  geo:
    lat: 32.79244
    lng: -96.77809
  phone: 214-257-1082
  website: https://www.phntx.org
  external_ids:
    bphc: BPS-LAL-038983
  sources:
  - hrsa/health-center-sites
  verified:
    'on': '2026-07-19'
    method: api
- id: tx/dallas/prism-health-north-texas-pharmacy-at-oak-cliff
  name: Prism Health North Texas Pharmacy at Oak Cliff
  categories:
  - community-health-center
  address:
    street: 219 Sunset Ave, Suite 116 A
    city: Dallas
    state: tx
    zip: '75208'
  place: '4819000'
  geo:
    lat: 32.74446
    lng: -96.82556
  phone: 469-749-7822
  external_ids:
    bphc: BPS-LAL-041805
  sources:
  - hrsa/health-center-sites
  verified:
    'on': '2026-07-19'
    method: api
- id: tx/dallas/prism-health-north-texas-pharmacy-at-oak-lawn
  name: Prism Health North Texas Pharmacy at Oak Lawn
  categories:
  - community-health-center
  address:
    street: 2801 Lemmon Ave, Suite 100
    city: Dallas
    state: tx
    zip: '75204'
  place: '4819000'
  geo:
    lat: 32.80383
    lng: -96.79646
  phone: 469-749-7824
  external_ids:
    bphc: BPS-LAL-041806
  sources:
  - hrsa/health-center-sites
  verified:
    'on': '2026-07-19'
    method: api
- id: tx/dallas/prism-health-north-texas-pharmacy-at-south-dalal
  name: Prism Health North Texas Pharmacy at South Dalals
  categories:
  - community-health-center
  address:
    street: 4907 Spring Ave
    city: Dallas
    state: tx
    zip: '75210'
  place: '4819000'
  geo:
    lat: 32.77771
    lng: -96.73872
  phone: 214-565-8551
  external_ids:
    bphc: BPS-LAL-041804
  sources:
  - hrsa/health-center-sites
  verified:
    'on': '2026-07-19'
    method: api
- id: tx/dallas/recovery-monitoring-solutions-llc
  name: Recovery Monitoring Solutions LLC
  categories:
  - su-treatment
  address:
    street: 9090 North Stemmons Freeway
    city: Dallas
    state: tx
    zip: '75247'
  place: '4819000'
  geo:
    lat: 32.83796
    lng: -96.87422
  phone: 469-453-5141
  website: https://www.recoveryms.com
  sources:
  - samhsa/findtreatment
  verified:
    'on': '2026-07-19'
    method: api
- id: tx/dallas/rita-sue-and-allan-goldman-child-and-family-cent
  name: Rita Sue and Allan Goldman Child and Family Center
  categories:
  - child-care
  address:
    street: 3662 W Camp Wisdom Rd
    street2: Ste 1023
    city: Dallas
    state: tx
    zip: '75237'
  place: '4819000'
  geo:
    lat: 32.662
    lng: -96.87904
  phone: 214-368-8686
  sources:
  - acf/head-start-locations
  verified:
    'on': '2026-07-19'
    method: api
- id: tx/dallas/step-med
  name: STEP Med
  categories:
  - su-treatment
  address:
    street: 2929 Martin Luther King Jr Boulevard
    city: Dallas
    state: tx
    zip: '75215'
  place: '4819000'
  geo:
    lat: 32.77113
    lng: -96.76681
  phone: 214-421-9100
  website: https://stepmed.org
  sources:
  - samhsa/findtreatment
  verified:
    'on': '2026-07-19'
    method: api
- id: tx/dallas/stewpot-metrocare-homeless-services
  name: Stewpot Metrocare Homeless Services
  categories:
  - su-treatment
  - mh-treatment
  address:
    street: 1835 Young Street
    city: Dallas
    state: tx
    zip: '75201'
  place: '4819000'
  geo:
    lat: 32.77912
    lng: -96.79404
  phone: 214-670-1143
  website: https://www.metrocareservices.org/location/the-stewpot-homeless-services/
  sources:
  - samhsa/findtreatment
  verified:
    'on': '2026-07-19'
    method: api
- id: tx/dallas/texas-native-health
  name: Texas Native Health
  categories:
  - su-treatment
  - mh-treatment
  address:
    street: 1283 Record Crossing Road
    city: Dallas
    state: tx
    zip: '75235'
  place: '4819000'
  geo:
    lat: 32.81598
    lng: -96.86146
  phone: 214-941-1050
  website: https://www.texasnativehealth.org
  sources:
  - samhsa/findtreatment
  verified:
    'on': '2026-07-19'
    method: api
- id: tx/dallas/the-bridge
  name: The Bridge
  categories:
  - community-health-center
  address:
    street: 1818 Corsicana St
    city: Dallas
    state: tx
    zip: '75201'
  place: '4819000'
  geo:
    lat: 32.77595
    lng: -96.79174
  phone: 214-670-1145
  website: http://www.parklandhospital.com/phhs/homeless-outreach.aspx
  external_ids:
    bphc: BPS-H80-007599
  sources:
  - hrsa/health-center-sites
  verified:
    'on': '2026-07-19'
    method: api
- id: tx/dallas/the-people-s-fridge-dallas
  name: The People's Fridge - Dallas
  place: '4819000'
  geo:
    lat: 32.69
    lng: -96.81354
  provisional: true
  sources:
  - mutualaidhub/firestore
  verified:
    'on': '2026-07-19'
    method: api
  categories:
  - community-fridge
- id: tx/dallas/vogal-alcove-childcare
  name: Vogal Alcove Childcare
  categories:
  - child-care
  address:
    street: 1738 Gano St
    city: Dallas
    state: tx
    zip: '75215'
  place: '4819000'
  geo:
    lat: 32.77227
    lng: -96.78759
  phone: 214-368-8686
  sources:
  - acf/head-start-locations
  verified:
    'on': '2026-07-19'
    method: api
- id: tx/dallas/vogel-north
  name: Vogel North
  categories:
  - child-care
  address:
    street: 19373 Preston Rd
    city: Dallas
    state: tx
    zip: '75252'
  place: '4819000'
  geo:
    lat: 33.01152
    lng: -96.79796
  phone: 469-936-0583
  sources:
  - acf/head-start-locations
  verified:
    'on': '2026-07-19'
    method: api
- id: tx/dallas/wanda-meshack-smith
  name: Wanda Meshack Smith
  categories:
  - child-care
  address:
    street: 3950 Gannon Ln
    city: Dallas
    state: tx
    zip: '75237'
  place: '4819000'
  geo:
    lat: 32.65304
    lng: -96.88382
  phone: 972-283-7700
  sources:
  - acf/head-start-locations
  verified:
    'on': '2026-07-19'
    method: api
- id: tx/dallas/wtcr-dallas
  name: WTCR Dallas
  categories:
  - su-treatment
  address:
    street: 1808 Market Center Boulevard
    city: Dallas
    state: tx
    zip: '75207'
  place: '4819000'
  geo:
    lat: 32.79482
    lng: -96.82294
  phone: 214-630-7146
  website: https://www.wtcr.net
  sources:
  - samhsa/findtreatment
  verified:
    'on': '2026-07-19'
    method: api
- id: tx/dallas/your-discovery-place-inc
  name: Your Discovery Place Inc
  categories:
  - su-treatment
  address:
    street: 1910 Pacific Avenue
    city: Dallas
    state: tx
    zip: '75201'
  place: '4819000'
  geo:
    lat: 32.78265
    lng: -96.79546
  phone: 855-207-0596
  website: https://www.ydpinc.org
  sources:
  - samhsa/findtreatment
  verified:
    'on': '2026-07-19'
    method: api
- id: tx/dallas/zen-counseling-and-wellness
  name: Zen Counseling and Wellness
  categories:
  - su-treatment
  - mh-treatment
  address:
    street: 6125 Luther Lane
    city: Dallas
    state: tx
    zip: '75225'
  place: '4819000'
  phone: 817-784-7738
  website: https://www.zencounselingwellness.com
  sources:
  - samhsa/findtreatment
  verified:
    'on': '2026-07-19'
    method: api
