- id: tx/del-valle/communitycare-del-valle
  name: CommUnityCare Del Valle
  categories:
  - community-health-center
  cost: sliding-scale
  address:
    street: 7050 Elroy Rd
    city: Del Valle
    state: tx
    zip: '78617'
  geo:
    lat: 30.15652
    lng: -97.64189
  phone: 512-978-9760
  external_ids:
    bphc: BPS-H80-039809
  sources:
  - hrsa/health-center-sites
  verified:
    'on': '2026-07-19'
    method: api
- id: tx/del-valle/del-valle-cdc
  name: Del Valle CDC
  categories:
  - child-care
  address:
    street: 5301 Ross Rd
    city: Del Valle
    state: tx
    zip: '78617'
  geo:
    lat: 30.17524
    lng: -97.62222
  phone: 512-386-3739
  sources:
  - acf/head-start-locations
  verified:
    'on': '2026-07-19'
    method: api
- id: tx/del-valle/del-valle-h-s
  name: Del Valle H S
  categories:
  - meal-program
  address: {street: 5201 Ross Rd., city: Del Valle, state: tx, zip: '78617'}
  description: Free summer meals for kids and teens (2026 season) — sponsored by DEL VALLE ISD.
  geo: {lat: 30.18093, lng: -97.61332}
  external_ids: {usda_master: Cycle 06_TX_SSO_0830}
  sources:
  - usda/summer-meal-sites
  verified: {'on': '2026-07-19', method: api}
- id: tx/del-valle/del-valle-j-h
  name: Del Valle J H
  categories:
  - meal-program
  address: {street: 5500 Ross Rd, city: Del Valle, state: tx, zip: '78617'}
  description: Free summer meals for kids and teens (2026 season) — sponsored by DEL VALLE ISD.
  geo: {lat: 30.17229, lng: -97.62138}
  external_ids: {usda_master: Cycle 06_TX_SSO_0832}
  sources:
  - usda/summer-meal-sites
  verified: {'on': '2026-07-19', method: api}
- id: tx/del-valle/garfield-del-valle-library
  name: Garfield Del Valle Library
  categories:
  - meal-program
  address: {street: 5121 Albert Brown Dr, city: Del Valle, state: tx, zip: '78617'}
  description: Free summer meals for kids and teens (2026 season) — sponsored by Central Texas Food Bank,
    Inc..
  geo: {lat: 30.18765, lng: -97.56057}
  external_ids: {usda_master: Cycle 06_TX_SFSP_1162}
  sources:
  - usda/summer-meal-sites
  verified: {'on': '2026-07-19', method: api}
- id: tx/del-valle/nc-stony-point-park
  name: Nc_Stony Point Park
  categories:
  - meal-program
  address: {street: 105 Stony Creek Drive, city: Del Valle, state: tx, zip: '78617'}
  description: Free summer meals for kids and teens (2026 season) — sponsored by Central Texas Food Bank,
    Inc..
  geo: {lat: 30.13641, lng: -97.56746}
  external_ids: {usda_master: Cycle 07_TX_SFSP_3779}
  sources:
  - usda/summer-meal-sites
  verified: {'on': '2026-07-19', method: api}
- id: tx/del-valle/stony-point-head-start-center
  name: Stony Point Head Start Center
  categories:
  - child-care
  address:
    street: 108 Point Dr
    city: Del Valle
    state: tx
    zip: '78617'
  geo:
    lat: 30.13409
    lng: -97.56691
  sources:
  - acf/head-start-locations
  verified:
    'on': '2026-07-19'
    method: api
