- id: tx/denton/denton-county-mhmr-center-child-and-adolescent-o
  name: Denton County MHMR Center Child and Adolescent Outpatient Clinic
  categories:
  - su-treatment
  - mh-treatment
  address:
    street: 3835 Morse Street
    city: Denton
    state: tx
    zip: '76208'
  place: '4819972'
  geo:
    lat: 33.20539
    lng: -97.08821
  phone: 940-381-5000
  website: https://www.dentonmhmr.org
  sources:
  - samhsa/findtreatment
  verified:
    'on': '2026-07-19'
    method: api
- id: tx/denton/denton-county-mhmr-center-denton-outpatient-clin
  name: Denton County MHMR Center Denton Outpatient Clinic and SUDS
  categories:
  - su-treatment
  - mh-treatment
  address:
    street: 2519 Scripture Street
    city: Denton
    state: tx
    zip: '76201'
  place: '4819972'
  geo:
    lat: 33.21853
    lng: -97.16497
  phone: 940-381-5000
  website: https://www.dentonmhmr.org
  sources:
  - samhsa/findtreatment
  verified:
    'on': '2026-07-19'
    method: api
- id: tx/denton/denton-housing-authority
  name: Denton Housing Authority
  categories:
  - housing-assistance
  address: {street: 1225 Wilson St, city: Denton, state: tx, zip: '76205'}
  description: Housing Choice Voucher (Section 8) agency
  place: '4819972'
  geo: {lat: 33.20821, lng: -97.11802}
  phone: 940-383-3039
  sources:
  - hud/resource-locator
  verified: {'on': '2026-07-19', method: api}
- id: tx/denton/denton-isd-ann-windle-school-for-young-children
  name: Denton ISD Ann Windle School for Young Children
  categories:
  - child-care
  address:
    street: 901 Audra Ln
    city: Denton
    state: tx
    zip: '76209'
  place: '4819972'
  geo:
    lat: 33.22172
    lng: -97.10823
  phone: 940-369-3900
  sources:
  - acf/head-start-locations
  verified:
    'on': '2026-07-19'
    method: api
- id: tx/denton/first-presbyterian-church-denton-tx
  name: First Presbyterian Church Denton, TX
  categories:
  - food-pantry
  place: '4819972'
  geo:
    lat: 33.2305
    lng: -97.14389
  external_ids:
    lfp: '2948'
  sources:
  - littlefreepantry/map
  verified:
    'on': '2026-07-19'
    method: scrape
- id: tx/denton/hsnt-administrative-office
  name: HSNT Administrative Office
  categories:
  - community-health-center
  address:
    street: 4401 N Interstate 35, Unit 312
    city: Denton
    state: tx
    zip: '76207'
  place: '4819972'
  geo:
    lat: 33.23569
    lng: -97.17697
  phone: 940-381-1501
  website: https://www.healthntx.org
  external_ids:
    bphc: BPS-H80-013848
  sources:
  - hrsa/health-center-sites
  verified:
    'on': '2026-07-19'
    method: api
- id: tx/denton/hsnt-denton-medical-center-4304
  name: HSNT Denton Medical Center 4304
  categories:
  - community-health-center
  address:
    street: 4304 Mesa Dr
    city: Denton
    state: tx
    zip: '76207'
  place: '4819972'
  geo:
    lat: 33.23454
    lng: -97.1768
  phone: 940-381-1501
  website: https://www.healthntx.org
  external_ids:
    bphc: BPS-H80-016873
  sources:
  - hrsa/health-center-sites
  verified:
    'on': '2026-07-19'
    method: api
- id: tx/denton/hsnt-denton-medical-center-4308
  name: HSNT Denton Medical Center 4308
  categories:
  - community-health-center
  address:
    street: 4308 Mesa Dr
    city: Denton
    state: tx
    zip: '76207'
  place: '4819972'
  geo:
    lat: 33.23477
    lng: -97.17687
  phone: 940-381-1501
  website: https://healthntx.org
  external_ids:
    bphc: BPS-H80-012002
  sources:
  - hrsa/health-center-sites
  verified:
    'on': '2026-07-19'
    method: api
- id: tx/denton/hsnt-denton-south-center
  name: HSNT Denton South Center
  categories:
  - community-health-center
  address:
    street: 3537 S Interstate 35 E STE 210
    city: Denton
    state: tx
    zip: '76210'
  place: '4819972'
  geo:
    lat: 33.17534
    lng: -97.09179
  phone: 940-381-2313
  website: https://www.healthntx.org
  external_ids:
    bphc: BPS-H80-014155
  sources:
  - hrsa/health-center-sites
  verified:
    'on': '2026-07-19'
    method: api
- id: tx/denton/hsnt-serve-denton-center
  name: HSNT Serve Denton Center
  categories:
  - community-health-center
  address:
    street: 306 N Loop 288, Suite 200
    city: Denton
    state: tx
    zip: '76209'
  place: '4819972'
  geo:
    lat: 33.21696
    lng: -97.08968
  phone: 940-381-1501
  website: https://www.healthservicesntx.org
  external_ids:
    bphc: BPS-H80-027689
  sources:
  - hrsa/health-center-sites
  verified:
    'on': '2026-07-19'
    method: api
- id: tx/denton/little-free-pantry
  name: Little Free Pantry
  categories:
  - food-pantry
  place: '4819972'
  geo:
    lat: 33.195
    lng: -97.14839
  external_ids:
    lfp: '1689'
  sources:
  - littlefreepantry/map
  verified:
    'on': '2026-07-19'
    method: scrape
- id: tx/denton/manhattan-drive-lfp
  name: Manhattan Drive LFP
  categories:
  - food-pantry
  place: '4819972'
  geo:
    lat: 33.24689
    lng: -97.11986
  external_ids:
    lfp: '407'
  sources:
  - littlefreepantry/map
  verified:
    'on': '2026-07-19'
    method: scrape
- id: tx/denton/olive-branch-recovery-ut-obot-service-location
  name: Olive Branch Recovery UT OBOT Service Location
  categories:
  - su-treatment
  address:
    street: 1332 Teasley Lane
    city: Denton
    state: tx
    zip: '76205'
  place: '4819972'
  geo:
    lat: 33.19958
    lng: -97.1226
  phone: 940-220-8899
  website: https://olivebranchrecovery.com
  sources:
  - samhsa/findtreatment
  verified:
    'on': '2026-07-19'
    method: api
- id: tx/denton/roland
  name: Roland
  categories:
  - food-pantry
  place: '4819972'
  geo:
    lat: 33.22408
    lng: -97.1339
  external_ids:
    lfp: '4577'
  sources:
  - littlefreepantry/map
  verified:
    'on': '2026-07-19'
    method: scrape
