- id: tx/devine/ciavarra-elementary
  name: Ciavarra Elementary
  categories:
  - child-care
  address:
    street: 112W N Benton Ave
    city: Devine
    state: tx
    zip: '78016'
  place: '4820152'
  geo:
    lat: 29.14131
    lng: -98.90512
  phone: 830-851-0395
  sources:
  - acf/head-start-locations
  verified:
    'on': '2026-07-19'
    method: api
- id: tx/devine/devine-behavioral-health
  name: Devine Behavioral Health
  categories:
  - community-health-center
  address:
    street: 1010 W Hondo Ave BLDG 100
    city: Devine
    state: tx
    zip: '78016'
  place: '4820152'
  geo:
    lat: 29.14741
    lng: -98.91611
  phone: 830-663-9786
  external_ids:
    bphc: BPS-H80-029720
  sources:
  - hrsa/health-center-sites
  verified:
    'on': '2026-07-19'
    method: api
- id: tx/devine/devine-clinic
  name: DEVINE CLINIC
  categories:
  - community-health-center
  address:
    street: 1010 W Hondo Ave
    city: Devine
    state: tx
    zip: '78016'
  place: '4820152'
  geo:
    lat: 29.14749
    lng: -98.91583
  phone: 830-663-5450
  website: https://tachc.org
  external_ids:
    bphc: BPS-H80-005176
  sources:
  - hrsa/health-center-sites
  verified:
    'on': '2026-07-19'
    method: api
- id: tx/devine/devine-housing-authority
  name: Devine Housing Authority
  categories:
  - housing-assistance
  address:
    street: 210 S Upson Dr
    city: Devine
    state: tx
    zip: '78016'
  description: Public housing and Housing Choice Voucher agency
  place: '4820152'
  geo:
    lat: 29.13973
    lng: -98.90761
  phone: 830-663-9845
  sources:
  - hud/resource-locator
  verified:
    'on': '2026-07-19'
    method: api
- id: tx/devine/devine-int
  name: Devine Int
  categories:
  - meal-program
  address:
    street: 900 Atkins Ave
    city: Devine
    state: tx
    zip: '78016'
  description: Free summer meals for kids and teens (2026 season) — sponsored by DEVINE ISD.
  place: '4820152'
  geo:
    lat: 29.14709
    lng: -98.91408
  external_ids:
    usda_master: Cycle 01_TX_SSO_0449
  sources:
  - usda/summer-meal-sites
  verified:
    'on': '2026-07-19'
    method: api
- id: tx/devine/south-texas-rural-health-services-inc-devine-wel
  name: South Texas Rural Health Services Inc Devine Wellness Center
  categories:
  - su-treatment
  - mh-treatment
  address:
    street: 1010 West Hondo Avenue
    city: Devine
    state: tx
    zip: '78016'
  place: '4820152'
  geo:
    lat: 29.1474
    lng: -98.91557
  phone: 830-663-9786
  website: https://southtexasruralhealth.com
  sources:
  - samhsa/findtreatment
  verified:
    'on': '2026-07-19'
    method: api
