- id: tx/elgin/burning-tree-lodge
  name: Burning Tree Lodge
  categories:
  - su-treatment
  address:
    street: 122 Fisher Street
    city: Elgin
    state: tx
    zip: '78621'
  place: '4823044'
  geo:
    lat: 30.3337
    lng: -97.36464
  phone: 866-287-2877
  website: https://www.burningtreelodge.com
  sources:
  - samhsa/findtreatment
  verified:
    'on': '2026-07-19'
    method: api
- id: tx/elgin/elgin-child-development-center
  name: Elgin Child Development Center
  categories:
  - child-care
  address:
    street: 1002 N Avenue C
    city: Elgin
    state: tx
    zip: '78621'
  place: '4823044'
  geo:
    lat: 30.35268
    lng: -97.37041
  phone: 512-285-4022
  sources:
  - acf/head-start-locations
  verified:
    'on': '2026-07-19'
    method: api
- id: tx/elgin/elgin-high-school
  name: Elgin High School
  categories:
  - meal-program
  address: {street: 14000 County Line Road, city: Elgin, state: tx, zip: '78621'}
  description: Free summer meals for kids and teens (2026 season) — sponsored by ELGIN ISD.
  place: '4823044'
  geo: {lat: 30.36587, lng: -97.40343}
  external_ids: {usda_master: Cycle 01_TX_SFSP_0518}
  sources:
  - usda/summer-meal-sites
  verified: {'on': '2026-07-19', method: api}
- id: tx/elgin/elgin-housing-authority
  name: Elgin Housing Authority
  categories:
  - housing-assistance
  address:
    street: 515 Old McDade Rd
    city: Elgin
    state: tx
    zip: '78621'
  description: Public housing and Housing Choice Voucher agency
  place: '4823044'
  geo:
    lat: 30.34587
    lng: -97.36343
  phone: 512-281-2772
  sources:
  - hud/resource-locator
  verified:
    'on': '2026-07-19'
    method: api
- id: tx/elgin/family-health-center-at-elgin
  name: Family Health Center at Elgin
  categories:
  - community-health-center
  address:
    street: 711 W 10th St
    city: Elgin
    state: tx
    zip: '78621'
  place: '4823044'
  geo:
    lat: 30.34745
    lng: -97.38054
  phone: 512-229-3334
  external_ids:
    bphc: BPS-H80-031253
  sources:
  - hrsa/health-center-sites
  verified:
    'on': '2026-07-19'
    method: api
- id: tx/elgin/nc-first-baptist-church
  name: Nc_First Baptist Church
  categories:
  - meal-program
  address: {street: 13916 County Line Road, city: Elgin, state: tx, zip: '78621'}
  description: Free summer meals for kids and teens (2026 season) — sponsored by Central Texas Food Bank,
    Inc..
  place: '4823044'
  geo: {lat: 30.36404, lng: -97.40456}
  external_ids: {usda_master: Cycle 07_TX_SFSP_3672}
  sources:
  - usda/summer-meal-sites
  verified: {'on': '2026-07-19', method: api}
- id: tx/elgin/nc-new-life-baptist-fellowship
  name: Nc_New Life Baptist Fellowship
  categories:
  - meal-program
  address: {street: 175 S Hwy 95, city: Elgin, state: tx, zip: '78621'}
  description: Free summer meals for kids and teens (2026 season) — sponsored by Central Texas Food Bank,
    Inc..
  place: '4823044'
  geo: {lat: 30.32999, lng: -97.36173}
  external_ids: {usda_master: Cycle 07_TX_SFSP_3746}
  sources:
  - usda/summer-meal-sites
  verified: {'on': '2026-07-19', method: api}
- id: tx/elgin/trinity-ranch-el
  name: Trinity Ranch El
  categories:
  - meal-program
  address: {street: 132 Grist Mill Lane, city: Elgin, state: tx, zip: '78621'}
  description: Free summer meals for kids and teens (2026 season) — sponsored by ELGIN ISD.
  place: '4823044'
  geo: {lat: 30.33431, lng: -97.39109}
  external_ids: {usda_master: Cycle 01_TX_SFSP_1594}
  sources:
  - usda/summer-meal-sites
  verified: {'on': '2026-07-19', method: api}
