- id: tx/elsa/carlos-truan-j-h-0043
  name: Carlos Truan J H (0043)
  categories:
  - meal-program
  address: {street: Mile 4 N And Mile 17, city: Elsa, state: tx, zip: '78543'}
  description: Free summer meals for kids and teens (2026 season) — sponsored by EDCOUCH-ELSA ISD.
  place: '4824036'
  geo: {lat: 26.29355, lng: -97.98692}
  external_ids: {usda_master: Cycle 01_TX_SSO_0273}
  sources:
  - usda/summer-meal-sites
  verified: {'on': '2026-07-19', method: api}
- id: tx/elsa/city-of-elsa-pacific-trails-spash-pad
  name: City Of Elsa Pacific Trails Spash Pad
  categories:
  - meal-program
  address: {street: 103 W. Vfw Ave., city: Elsa, state: tx, zip: '78543'}
  description: Free summer meals for kids and teens (2026 season) — sponsored by EDCOUCH-ELSA ISD.
  place: '4824036'
  geo: {lat: 26.29632, lng: -97.99332}
  external_ids: {usda_master: Cycle 06_TX_SSO_0627}
  sources:
  - usda/summer-meal-sites
  verified: {'on': '2026-07-19', method: api}
- id: tx/elsa/edcouch-elsa-h-s
  name: Edcouch-Elsa H S
  categories:
  - meal-program
  address: {street: N Yellowjacket Dr, city: Elsa, state: tx, zip: '78543'}
  description: Free summer meals for kids and teens (2026 season) — sponsored by EDCOUCH-ELSA ISD.
  place: '4824036'
  geo: {lat: 26.29694, lng: -97.9772}
  external_ids: {usda_master: Cycle 01_TX_SSO_0506}
  sources:
  - usda/summer-meal-sites
  verified: {'on': '2026-07-19', method: api}
- id: tx/elsa/elsa-housing-authority
  name: Elsa Housing Authority
  categories:
  - housing-assistance
  address:
    city: Elsa
    state: tx
    zip: '78543'
  description: Public housing and Housing Choice Voucher agency
  place: '4824036'
  geo:
    lat: 26.29543
    lng: -97.99595
  phone: 956-262-1231
  sources:
  - hud/resource-locator
  verified:
    'on': '2026-07-19'
    method: api
- id: tx/elsa/idea-elsa-academy
  name: Idea Elsa Academy
  categories:
  - meal-program
  address: {street: 420 S Fannin, city: Elsa, state: tx, zip: '78543'}
  description: Free summer meals for kids and teens (2026 season) — sponsored by IDEA ACADEMY.
  place: '4824036'
  geo: {lat: 26.2915, lng: -97.98909}
  external_ids: {usda_master: Cycle 06_TX_SSO_1480}
  sources:
  - usda/summer-meal-sites
  verified: {'on': '2026-07-19', method: api}
- id: tx/elsa/john-f-kennedy-fine-arts-academy
  name: John F Kennedy Fine Arts Academy
  categories:
  - meal-program
  address: {street: 500 W. 9Th Street, city: Elsa, state: tx, zip: '78543'}
  description: Free summer meals for kids and teens (2026 season) — sponsored by EDCOUCH-ELSA ISD.
  place: '4824036'
  geo: {lat: 26.30057, lng: -98.00024}
  external_ids: {usda_master: Cycle 01_TX_SSO_0782}
  sources:
  - usda/summer-meal-sites
  verified: {'on': '2026-07-19', method: api}
