- id: tx/fort-worth/arise-recovery-centers
  name: Arise Recovery Centers
  categories:
  - su-treatment
  address:
    street: 6115 Camp Bowie Boulevard
    city: Fort Worth
    state: tx
    zip: '76116'
  place: '4827000'
  geo:
    lat: 32.72779
    lng: -97.41524
  phone: 817-381-0633
  website: https://www.ariserecoverycenters.com
  sources:
  - samhsa/findtreatment
  verified:
    'on': '2026-07-19'
    method: api
- id: tx/fort-worth/asic-recovery-services
  name: ASIC Recovery Services
  categories:
  - su-treatment
  - mh-treatment
  address:
    street: 3256 Lackland Road
    city: Fort Worth
    state: tx
    zip: '76116'
  place: '4827000'
  geo:
    lat: 32.72514
    lng: -97.43524
  phone: 817-616-0504
  website: https://asicrecoveryservices.com
  sources:
  - samhsa/findtreatment
  verified:
    'on': '2026-07-19'
    method: api
- id: tx/fort-worth/belknap-corporate-office
  name: Belknap Corporate Office
  categories:
  - child-care
  address:
    street: 3000 E Belknap St
    city: Fort Worth
    state: tx
    zip: '76111'
  place: '4827000'
  geo:
    lat: 32.77136
    lng: -97.3038
  sources:
  - acf/head-start-locations
  verified:
    'on': '2026-07-19'
    method: api
- id: tx/fort-worth/blanche
  name: Blanche
  categories:
  - child-care
  address:
    street: 2900 Stalcup Rd
    city: Fort Worth
    state: tx
    zip: '76119'
  place: '4827000'
  geo:
    lat: 32.7171
    lng: -97.23815
  phone: 817-457-1939
  sources:
  - acf/head-start-locations
  verified:
    'on': '2026-07-19'
    method: api
- id: tx/fort-worth/child-care-studio-at-meacham
  name: Child Care Studio at Meacham
  categories:
  - child-care
  address:
    street: 2700 Meacham Blvd
    street2: '# 4699'
    city: Fort Worth
    state: tx
    zip: '76137'
  place: '4827000'
  geo:
    lat: 32.82329
    lng: -97.30629
  phone: 682-354-5585
  sources:
  - acf/head-start-locations
  verified:
    'on': '2026-07-19'
    method: api
- id: tx/fort-worth/clearfork-academy-php-iop
  name: Clearfork Academy PHP/IOP
  categories:
  - su-treatment
  - mh-treatment
  address:
    city: Fort Worth
    state: tx
    zip: '76107'
  place: '4827000'
  phone: 903-765-5474
  website: https://clearforkacademy.com
  sources:
  - samhsa/findtreatment
  verified:
    'on': '2026-07-19'
    method: api
- id: tx/fort-worth/dan-powell-early-learning-academy
  name: Dan Powell Early Learning Academy
  categories:
  - child-care
  address:
    street: 8875 Oak Grove Rd
    city: Fort Worth
    state: tx
    zip: '76140'
  place: '4827000'
  geo:
    lat: 32.62393
    lng: -97.30331
  phone: 817-568-3523
  sources:
  - acf/head-start-locations
  verified:
    'on': '2026-07-19'
    method: api
- id: tx/fort-worth/diamond-road-cdc
  name: Diamond Road CDC
  categories:
  - child-care
  address:
    street: 2526 Diamond Rd
    city: Fort Worth
    state: tx
    zip: '76106'
  place: '4827000'
  geo:
    lat: 32.80373
    lng: -97.32407
  phone: 817-625-5509
  sources:
  - acf/head-start-locations
  verified:
    'on': '2026-07-19'
    method: api
- id: tx/fort-worth/ehs-j-a-hargrave
  name: EHS J.A. Hargrave
  categories:
  - child-care
  address:
    street: 9200 Poynter St
    city: Fort Worth
    state: tx
    zip: '76123'
  place: '4827000'
  geo:
    lat: 32.60794
    lng: -97.36499
  phone: 682-703-8266
  sources:
  - acf/head-start-locations
  verified:
    'on': '2026-07-19'
    method: api
- id: tx/fort-worth/family-services-center-belknap
  name: Family Services Center Belknap
  categories:
  - child-care
  address:
    street: 3005 E Belknap St
    city: Fort Worth
    state: tx
    zip: '76111'
  place: '4827000'
  geo:
    lat: 32.77245
    lng: -97.30378
  phone: 817-838-0055
  sources:
  - acf/head-start-locations
  verified:
    'on': '2026-07-19'
    method: api
- id: tx/fort-worth/fort-worth-counseling-and-intervention
  name: Fort Worth Counseling and Intervention
  categories:
  - su-treatment
  - mh-treatment
  address:
    street: 451 University Drive
    city: Fort Worth
    state: tx
    zip: '76107'
  place: '4827000'
  geo:
    lat: 32.75416
    lng: -97.36085
  phone: 817-304-7549
  website: https://www.fwcai.com
  sources:
  - samhsa/findtreatment
  verified:
    'on': '2026-07-19'
    method: api
- id: tx/fort-worth/fuller-cdc
  name: Fuller CDC
  categories:
  - child-care
  address:
    street: 800 W Fuller Ave
    city: Fort Worth
    state: tx
    zip: '76115'
  place: '4827000'
  geo:
    lat: 32.67745
    lng: -97.33364
  phone: 817-838-0055
  sources:
  - acf/head-start-locations
  verified:
    'on': '2026-07-19'
    method: api
- id: tx/fort-worth/funkytown-fridge-poly
  name: FunkyTown Fridge - Poly
  place: '4827000'
  geo:
    lat: 32.7223
    lng: -97.2798
  website: https://www.funkytownfridge.org/
  provisional: true
  sources:
  - mutualaidhub/firestore
  verified:
    'on': '2026-07-19'
    method: api
  categories:
  - community-fridge
  - food-pantry
- id: tx/fort-worth/funkytown-fridge-southside
  name: FunkyTown Fridge - Southside
  place: '4827000'
  geo:
    lat: 32.70421
    lng: -97.32569
  website: https://www.funkytownfridge.org/
  provisional: true
  sources:
  - mutualaidhub/firestore
  verified:
    'on': '2026-07-19'
    method: api
  categories:
  - community-fridge
  - food-pantry
- id: tx/fort-worth/helping-open-peoples-eyes-inc-hope-outpatient
  name: Helping Open Peoples Eyes Inc (HOPE) Outpatient
  categories:
  - su-treatment
  address:
    street: 605 East Berry Street
    city: Fort Worth
    state: tx
    zip: '76110'
  place: '4827000'
  geo:
    lat: 32.70625
    lng: -97.32126
  phone: 817-927-5441
  website: https://www.txhopeinc.com
  sources:
  - samhsa/findtreatment
  verified:
    'on': '2026-07-19'
    method: api
- id: tx/fort-worth/home-based
  name: Home Based
  categories:
  - child-care
  address:
    street: 3800 Sandshell Dr
    street2: Ste 130
    city: Fort Worth
    state: tx
    zip: '76137'
  place: '4827000'
  geo:
    lat: 32.84158
    lng: -97.30281
  phone: 817-817-1556
  sources:
  - acf/head-start-locations
  verified:
    'on': '2026-07-19'
    method: api
- id: tx/fort-worth/housing-authority-of-fort-worth
  name: Housing Authority Of Fort Worth
  categories:
  - housing-assistance
  address: {street: 1407 Texas St, city: Fort Worth, state: tx, zip: '76102'}
  description: Public housing and Housing Choice Voucher agency
  place: '4827000'
  geo: {lat: 32.74878, lng: -97.3408}
  phone: 817-333-3400
  sources:
  - hud/resource-locator
  verified: {'on': '2026-07-19', method: api}
- id: tx/fort-worth/ja-hargrave
  name: JA Hargrave
  categories:
  - child-care
  address:
    street: 9200 Poynter St
    city: Fort Worth
    state: tx
    zip: '76123'
  place: '4827000'
  geo:
    lat: 32.60796
    lng: -97.36487
  phone: 682-703-8266
  sources:
  - acf/head-start-locations
  verified:
    'on': '2026-07-19'
    method: api
- id: tx/fort-worth/lena-pope-home-inc
  name: Lena Pope Home Inc
  categories:
  - su-treatment
  - mh-treatment
  address:
    street: 3001 Sanguinet Street
    city: Fort Worth
    state: tx
    zip: '76107'
  place: '4827000'
  geo:
    lat: 32.73066
    lng: -97.39111
  phone: 817-255-2652
  website: https://www.lenapope.org
  sources:
  - samhsa/findtreatment
  verified:
    'on': '2026-07-19'
    method: api
- id: tx/fort-worth/lena-pope-home-inc-2
  name: Lena Pope Home Inc
  categories:
  - su-treatment
  - mh-treatment
  address:
    street: 3200 Sanguinet Street
    city: Fort Worth
    state: tx
    zip: '76107'
  place: '4827000'
  geo:
    lat: 32.72869
    lng: -97.39187
  phone: 817-255-2652
  website: https://www.lenapope.org
  sources:
  - samhsa/findtreatment
  verified:
    'on': '2026-07-19'
    method: api
- id: tx/fort-worth/lil-hoppers
  name: Lil Hoppers
  categories:
  - child-care
  address:
    street: 3330 E Lancaster Ave
    city: Fort Worth
    state: tx
    zip: '76103'
  place: '4827000'
  geo:
    lat: 32.73965
    lng: -97.27667
  phone: 682-708-7417
  sources:
  - acf/head-start-locations
  verified:
    'on': '2026-07-19'
    method: api
- id: tx/fort-worth/medmark-treatment-centers-fort-worth
  name: MedMark Treatment Centers Fort Worth
  categories:
  - su-treatment
  address:
    street: 5201 McCart Street
    city: Fort Worth
    state: tx
    zip: '76115'
  place: '4827000'
  geo:
    lat: 32.66982
    lng: -97.35333
  phone: 817-207-8700
  website: https://medmark.com/locations/texas/fort-worth
  sources:
  - samhsa/findtreatment
  verified:
    'on': '2026-07-19'
    method: api
- id: tx/fort-worth/mesa-springs
  name: Mesa Springs
  categories:
  - su-treatment
  - mh-treatment
  address:
    street: 5560 Mesa Springs Drive
    city: Fort Worth
    state: tx
    zip: '76132'
  place: '4827000'
  geo:
    lat: 32.6398
    lng: -97.41276
  phone: 817-292-4600
  website: https://www.mesasprings.com
  sources:
  - samhsa/findtreatment
  verified:
    'on': '2026-07-19'
    method: api
- id: tx/fort-worth/mh-mr-of-tarrant-county-add-serv-div-tarrant-yth
  name: MH/MR of Tarrant County Add Serv Div Tarrant Yth Recov Campus
  categories:
  - su-treatment
  address:
    street: 3840 Hulen Street
    city: Fort Worth
    state: tx
    zip: '76107'
  place: '4827000'
  phone: 817-569-4270 x4270
  website: https://www.mhmrtc.org
  sources:
  - samhsa/findtreatment
  verified:
    'on': '2026-07-19'
    method: api
- id: tx/fort-worth/mh-mr-of-tarrant-county-cats-substance-abuse-tre
  name: MH/MR of Tarrant County CATS Substance Abuse Treatment Prog
  categories:
  - su-treatment
  address:
    street: 1502 East Lancaster Avenue
    city: Fort Worth
    state: tx
    zip: '76102'
  place: '4827000'
  geo:
    lat: 32.74596
    lng: -97.31305
  phone: 817-569-5360
  website: https://www.mhmrtarrant.org
  sources:
  - samhsa/findtreatment
  verified:
    'on': '2026-07-19'
    method: api
- id: tx/fort-worth/mh-mr-of-tarrant-county-pine-street-res
  name: MH/MR of Tarrant County Pine Street Res
  categories:
  - su-treatment
  address:
    street: 1501 East El Paso Street
    city: Fort Worth
    state: tx
    zip: '76102'
  place: '4827000'
  geo:
    lat: 32.7442
    lng: -97.31272
  phone: 817-569-4600
  website: https://www.mhmrtarrant.org
  sources:
  - samhsa/findtreatment
  verified:
    'on': '2026-07-19'
    method: api
- id: tx/fort-worth/morris-foundation-cdc
  name: Morris Foundation CDC
  categories:
  - child-care
  address:
    street: 27014 Moresby Street
    city: Fort Worth
    state: tx
    zip: '76105'
  place: '4827000'
  geo:
    lat: 32.70777
    lng: -97.28882
  phone: 682-255-0623
  sources:
  - acf/head-start-locations
  verified:
    'on': '2026-07-19'
    method: api
- id: tx/fort-worth/north-fort-worth
  name: North Fort Worth
  categories:
  - child-care
  address:
    street: 901 NW 30th St
    city: Fort Worth
    state: tx
    zip: '76106'
  place: '4827000'
  geo:
    lat: 32.79921
    lng: -97.35999
  phone: 817-624-1381
  sources:
  - acf/head-start-locations
  verified:
    'on': '2026-07-19'
    method: api
- id: tx/fort-worth/north-texas-addiction-counseling-and-education-i
  name: North Texas Addiction Counseling and Education Inc
  categories:
  - su-treatment
  address:
    street: 3539 NW Jim Wright Freeway
    city: Fort Worth
    state: tx
    zip: '76106'
  place: '4827000'
  geo:
    lat: 32.81474
    lng: -97.40841
  phone: 682-224-1441
  website: https://www.ntace.org
  sources:
  - samhsa/findtreatment
  verified:
    'on': '2026-07-19'
    method: api
- id: tx/fort-worth/northside-community-health-center
  name: Northside Community Health Center
  categories:
  - community-health-center
  address:
    street: 2332 Beverly Hills Dr
    city: Fort Worth
    state: tx
    zip: '76114'
  place: '4827000'
  geo:
    lat: 32.79551
    lng: -97.39367
  phone: 817-625-4254
  website: https://www.ntachc.org
  external_ids:
    bphc: BPS-H80-024741
  sources:
  - hrsa/health-center-sites
  verified:
    'on': '2026-07-19'
    method: api
- id: tx/fort-worth/pathlight-mood-and-anxiety-center
  name: Pathlight Mood and Anxiety Center
  categories:
  - su-treatment
  - mh-treatment
  address:
    street: 4200 South Hulen Street
    city: Fort Worth
    state: tx
    zip: '76109'
  place: '4827000'
  geo:
    lat: 32.68435
    lng: -97.39343
  phone: 817-618-9933
  website: https://www.pathlightbh.com
  sources:
  - samhsa/findtreatment
  verified:
    'on': '2026-07-19'
    method: api
- id: tx/fort-worth/perfect-praise-academy
  name: Perfect Praise Academy
  categories:
  - child-care
  address:
    street: 2409 Louisiana Ave
    city: Fort Worth
    state: tx
    zip: '76104'
  place: '4827000'
  geo:
    lat: 32.71823
    lng: -97.3216
  phone: 817-927-1807
  sources:
  - acf/head-start-locations
  verified:
    'on': '2026-07-19'
    method: api
- id: tx/fort-worth/phoenix-associates-csl-services-inc
  name: Phoenix Associates Csl Services Inc
  categories:
  - su-treatment
  - mh-treatment
  address:
    street: 6850 Manhattan Boulevard
    city: Fort Worth
    state: tx
    zip: '76120'
  place: '4827000'
  geo:
    lat: 32.77451
    lng: -97.21003
  phone: 817-338-0311
  website: https://www.phoenixacs.org
  sources:
  - samhsa/findtreatment
  verified:
    'on': '2026-07-19'
    method: api
- id: tx/fort-worth/polytechnic-child-development-center
  name: Polytechnic Child Development Center
  categories:
  - child-care
  address:
    street: 3401 Avenue I
    street2: Apt 617
    city: Fort Worth
    state: tx
    zip: '76105'
  place: '4827000'
  geo:
    lat: 32.72817
    lng: -97.27629
  phone: 817-536-1731
  sources:
  - acf/head-start-locations
  verified:
    'on': '2026-07-19'
    method: api
- id: tx/fort-worth/reagan
  name: Reagan
  categories:
  - child-care
  address:
    street: 3200 Reagan Dr
    city: Fort Worth
    state: tx
    zip: '76116'
  place: '4827000'
  geo:
    lat: 32.72603
    lng: -97.44809
  phone: 817-560-0372
  sources:
  - acf/head-start-locations
  verified:
    'on': '2026-07-19'
    method: api
- id: tx/fort-worth/recovery-resource-council
  name: Recovery Resource Council
  categories:
  - su-treatment
  address:
    street: 157 Blandin Street
    city: Fort Worth
    state: tx
    zip: '76111'
  place: '4827000'
  geo:
    lat: 32.76785
    lng: -97.30697
  phone: 817-332-6329
  website: https://www.recoverycouncil.org
  sources:
  - samhsa/findtreatment
  verified:
    'on': '2026-07-19'
    method: api
- id: tx/fort-worth/riverside
  name: Riverside
  categories:
  - child-care
  address:
    street: 2400 E 1st St
    city: Fort Worth
    state: tx
    zip: '76111'
  place: '4827000'
  geo:
    lat: 32.765
    lng: -97.31042
  phone: 817-838-9131
  sources:
  - acf/head-start-locations
  verified:
    'on': '2026-07-19'
    method: api
- id: tx/fort-worth/rj-wilson
  name: RJ Wilson
  categories:
  - child-care
  address:
    street: 900 W Fogg St
    city: Fort Worth
    state: tx
    zip: '76110'
  place: '4827000'
  geo:
    lat: 32.69193
    lng: -97.33533
  phone: 817-814-7700
  sources:
  - acf/head-start-locations
  verified:
    'on': '2026-07-19'
    method: api
- id: tx/fort-worth/rosedale-v-cdc
  name: Rosedale V CDC
  categories:
  - child-care
  address:
    street: 4244 E Rosedale St
    city: Fort Worth
    state: tx
    zip: '76105'
  place: '4827000'
  geo:
    lat: 32.73093
    lng: -97.25996
  phone: 817-535-7711
  sources:
  - acf/head-start-locations
  verified:
    'on': '2026-07-19'
    method: api
- id: tx/fort-worth/rosie-k-mauk
  name: Rosie K. Mauk
  categories:
  - child-care
  address:
    street: 512 W 4th St
    city: Fort Worth
    state: tx
    zip: '76102'
  place: '4827000'
  geo:
    lat: 32.75299
    lng: -97.33492
  phone: 817-332-6191
  sources:
  - acf/head-start-locations
  verified:
    'on': '2026-07-19'
    method: api
- id: tx/fort-worth/southeast-community-health-center
  name: Southeast Community Health Center
  categories:
  - community-health-center
  address:
    street: 2909 Mitchell Blvd
    city: Fort Worth
    state: tx
    zip: '76105'
  place: '4827000'
  geo:
    lat: 32.71679
    lng: -97.28839
  phone: 817-916-4333
  website: https://www.ntachc.org
  external_ids:
    bphc: BPS-H80-014334
  sources:
  - hrsa/health-center-sites
  verified:
    'on': '2026-07-19'
    method: api
- id: tx/fort-worth/southside-ehs-cdc
  name: Southside EHS CDC
  categories:
  - child-care
  address:
    street: 4230 E Rosedale St
    city: Fort Worth
    state: tx
    zip: '76105'
  place: '4827000'
  geo:
    lat: 32.73089
    lng: -97.26073
  phone: 817-535-0485
  sources:
  - acf/head-start-locations
  verified:
    'on': '2026-07-19'
    method: api
- id: tx/fort-worth/spinster-farm
  name: Spinster Farm
  categories:
  - food-pantry
  place: '4827000'
  geo:
    lat: 32.72898
    lng: -97.33787
  external_ids:
    lfp: '575'
  sources:
  - littlefreepantry/map
  verified:
    'on': '2026-07-19'
    method: scrape
- id: tx/fort-worth/substance-abuse-guidance-and-education-sage
  name: Substance Abuse Guidance and Education (SAGE)
  categories:
  - su-treatment
  address:
    street: 4601 Boat Club Road
    city: Fort Worth
    state: tx
    zip: '76135'
  place: '4827000'
  geo:
    lat: 32.82334
    lng: -97.42069
  phone: 817-238-9911
  website: https://sagerestoredtreatment.org
  sources:
  - samhsa/findtreatment
  verified:
    'on': '2026-07-19'
    method: api
- id: tx/fort-worth/symetria-recovery-fort-worth
  name: Symetria Recovery Fort Worth
  categories:
  - su-treatment
  address:
    street: 7229 Hawkins View Drive
    city: Fort Worth
    state: tx
    zip: '76132'
  place: '4827000'
  geo:
    lat: 32.66402
    lng: -97.41849
  phone: 866-440-7429
  website: https://www.symetriarecovery.com/locations/texas-rehabs/fort-worth-suboxone-clinic/
  sources:
  - samhsa/findtreatment
  verified:
    'on': '2026-07-19'
    method: api
- id: tx/fort-worth/tarrant-county-housing-assistance-office
  name: Tarrant County Housing Assistance Office
  categories:
  - housing-assistance
  address: {street: '2100 Circle Dr # 200', city: Fort Worth, state: tx, zip: '76119'}
  description: Housing Choice Voucher (Section 8) agency
  place: '4827000'
  geo: {lat: 32.6764, lng: -97.30496}
  phone: 817-531-7654
  sources:
  - hud/resource-locator
  verified: {'on': '2026-07-19', method: api}
- id: tx/fort-worth/texas-treatment-services-llc-brentwood-treatment
  name: Texas Treatment Services LLC Brentwood Treatment Services
  categories:
  - su-treatment
  address:
    street: 4801 Brentwood Stair Road
    city: Fort Worth
    state: tx
    zip: '76103'
  place: '4827000'
  geo:
    lat: 32.75868
    lng: -97.25102
  phone: 817-492-9383
  website: https://texastreatment.com/index.html
  sources:
  - samhsa/findtreatment
  verified:
    'on': '2026-07-19'
    method: api
- id: tx/fort-worth/texas-treatment-services-llc-hemphill-treatment
  name: Texas Treatment Services LLC Hemphill Treatment Services
  categories:
  - su-treatment
  address:
    street: 700-A Hemphill Street
    city: Fort Worth
    state: tx
    zip: '76104'
  place: '4827000'
  geo:
    lat: 32.73694
    lng: -97.33213
  phone: 817-334-0111
  website: https://texastreatment.com/index.html
  sources:
  - samhsa/findtreatment
  verified:
    'on': '2026-07-19'
    method: api
- id: tx/fort-worth/van-zandt-guinn
  name: Van Zandt Guinn
  categories:
  - child-care
  address:
    street: 600 S Kentucky Ave
    city: Fort Worth
    state: tx
    zip: '76104'
  place: '4827000'
  geo:
    lat: 32.73867
    lng: -97.31844
  phone: 817-815-2000
  sources:
  - acf/head-start-locations
  verified:
    'on': '2026-07-19'
    method: api
- id: tx/fort-worth/volunteers-of-america-texas-inc-fort-worth-outpa
  name: Volunteers of America Texas Inc Fort Worth Outpatient
  categories:
  - su-treatment
  address:
    street: 4700 South Riverside Drive
    city: Fort Worth
    state: tx
    zip: '76119'
  place: '4827000'
  geo:
    lat: 32.69123
    lng: -97.30192
  phone: 817-369-8443
  website: https://www.voatx.org
  sources:
  - samhsa/findtreatment
  verified:
    'on': '2026-07-19'
    method: api
- id: tx/fort-worth/volunteers-of-america-texas-inc-riverside-treatm
  name: Volunteers of America Texas Inc Riverside Treatment Center
  categories:
  - su-treatment
  address:
    street: 4700 South Riverside Drive
    city: Fort Worth
    state: tx
    zip: '76119'
  place: '4827000'
  geo:
    lat: 32.69123
    lng: -97.30192
  phone: 817-534-3432
  website: https://www.voatx.org
  sources:
  - samhsa/findtreatment
  verified:
    'on': '2026-07-19'
    method: api
