- id: tx/freeport/adapt-foundation-inc-dba-brazos-place
  name: ADAPT Foundation Inc DBA Brazos Place
  categories:
  - su-treatment
  address:
    street: 1103 North Avenue H
    city: Freeport
    state: tx
    zip: '77541'
  place: '4827420'
  geo:
    lat: 28.97135
    lng: -95.36902
  phone: 979-233-3826 x1041
  website: https://www.brazosplace.org
  sources:
  - samhsa/findtreatment
  verified:
    'on': '2026-07-19'
    method: api
- id: tx/freeport/brazos-place-integrated-community-health-center
  name: Brazos Place Integrated Community Health Center
  categories:
  - community-health-center
  address:
    street: 1103 N Avenue H
    city: Freeport
    state: tx
    zip: '77541'
  place: '4827420'
  geo:
    lat: 28.97143
    lng: -95.36897
  phone: 281-824-1480
  external_ids:
    bphc: BPS-H80-021379
  sources:
  - hrsa/health-center-sites
  verified:
    'on': '2026-07-19'
    method: api
- id: tx/freeport/freeport-community-health-center
  name: Freeport Community Health Center
  categories:
  - community-health-center
  address:
    street: 905 N Gulf Blvd
    city: Freeport
    state: tx
    zip: '77541'
  place: '4827420'
  geo:
    lat: 28.96775
    lng: -95.36882
  phone: 979-239-1633
  website: https://sfachc.org
  external_ids:
    bphc: BPS-H80-012624
  sources:
  - hrsa/health-center-sites
  verified:
    'on': '2026-07-19'
    method: api
- id: tx/freeport/salvation-army-integrated-community-health-cente
  name: Salvation Army Integrated Community Health Center
  categories:
  - community-health-center
  address:
    street: 1618 N Avenue J
    city: Freeport
    state: tx
    zip: '77541'
  place: '4827420'
  geo:
    lat: 28.97607
    lng: -95.37261
  phone: 979-233-5420
  external_ids:
    bphc: BPS-H80-020869
  sources:
  - hrsa/health-center-sites
  verified:
    'on': '2026-07-19'
    method: api
- id: tx/freeport/upbring-head-start-freeport
  name: Upbring Head Start Freeport
  categories:
  - child-care
  address:
    street: 1019 W 6th St
    city: Freeport
    state: tx
    zip: '77541'
  place: '4827420'
  geo:
    lat: 28.94953
    lng: -95.36104
  phone: 346-326-6074
  sources:
  - acf/head-start-locations
  verified:
    'on': '2026-07-19'
    method: api
