- id: tx/freeport/adapt-foundation-inc-dba-brazos-place
  name: ADAPT Foundation Inc DBA Brazos Place
  categories:
  - su-treatment
  address:
    street: 1103 North Avenue H
    city: Freeport
    state: tx
    zip: '77541'
  place: '4827420'
  geo:
    lat: 28.97135
    lng: -95.36902
  phone: 979-233-3826 x1041
  website: https://www.brazosplace.org
  services:
  - Residential/24-hour residential
  - Residential detoxification
  - Long-term residential
  - Short-term residential
  - Young adults
  - Adult women
  - Pregnant/postpartum women
  - Clients with HIV or AIDS
  cost: varies
  sources:
  - samhsa/findtreatment
  verified:
    'on': '2026-07-19'
    method: api
- id: tx/freeport/brazos-place-integrated-community-health-center
  name: Brazos Place Integrated Community Health Center
  categories:
  - community-health-center
  cost: sliding-scale
  address: {street: 1103 N Avenue H, city: Freeport, state: tx, zip: '77541'}
  place: '4827420'
  geo: {lat: 28.97143, lng: -95.36897}
  phone: 281-824-1480
  external_ids: {bphc: BPS-H80-021379}
  sources:
  - hrsa/health-center-sites
  verified: {'on': '2026-07-19', method: api}
- id: tx/freeport/brazosport-h-s
  name: Brazosport H S
  categories:
  - meal-program
  address:
    street: 1800 W Second St
    city: Freeport
    state: tx
    zip: '77541'
  description: Free summer meals for kids and teens (2026 season) — sponsored by BRAZOSPORT ISD.
  place: '4827420'
  geo:
    lat: 28.95878
    lng: -95.37186
  external_ids:
    usda_master: Cycle 06_TX_SSO_0405
  sources:
  - usda/summer-meal-sites
  verified:
    'on': '2026-07-19'
    method: api
- id: tx/freeport/freeport-community-health-center
  name: Freeport Community Health Center
  categories:
  - community-health-center
  cost: sliding-scale
  address: {street: 905 N Gulf Blvd, city: Freeport, state: tx, zip: '77541'}
  place: '4827420'
  geo: {lat: 28.96775, lng: -95.36882}
  phone: 979-239-1633
  website: https://sfachc.org
  external_ids: {bphc: BPS-H80-012624}
  sources:
  - hrsa/health-center-sites
  verified: {'on': '2026-07-19', method: api}
- id: tx/freeport/freeport-library
  name: Freeport Library
  categories:
  - meal-program
  address:
    street: 410 Brazosport Blvd
    city: Freeport
    state: tx
    zip: '77541'
  description: Free summer meals for kids and teens (2026 season) — sponsored by BRAZOSPORT ISD.
  place: '4827420'
  geo:
    lat: 28.96469
    lng: -95.3733
  external_ids:
    usda_master: Cycle 06_TX_SSO_1141
  sources:
  - usda/summer-meal-sites
  verified:
    'on': '2026-07-19'
    method: api
- id: tx/freeport/o-hara-lanier-el
  name: O'Hara Lanier El
  categories:
  - meal-program
  address:
    street: 522 N Ave B
    city: Freeport
    state: tx
    zip: '77541'
  description: Free summer meals for kids and teens (2026 season) — sponsored by BRAZOSPORT ISD.
  place: '4827420'
  geo:
    lat: 28.96344
    lng: -95.36659
  external_ids:
    usda_master: Cycle 10_TX_SSO_2503
  sources:
  - usda/summer-meal-sites
  verified:
    'on': '2026-07-19'
    method: api
- id: tx/freeport/o-hara-lanier-middle
  name: O'Hara Lanier Middle
  categories:
  - meal-program
  address:
    street: 522 N Ave B
    city: Freeport
    state: tx
    zip: '77541'
  description: Free summer meals for kids and teens (2026 season) — sponsored by BRAZOSPORT ISD.
  place: '4827420'
  geo:
    lat: 28.96344
    lng: -95.36659
  external_ids:
    usda_master: Cycle 06_TX_SSO_2397
  sources:
  - usda/summer-meal-sites
  verified:
    'on': '2026-07-19'
    method: api
- id: tx/freeport/salvation-army-integrated-community-health-cente
  name: Salvation Army Integrated Community Health Center
  categories:
  - community-health-center
  cost: sliding-scale
  address: {street: 1618 N Avenue J, city: Freeport, state: tx, zip: '77541'}
  place: '4827420'
  geo: {lat: 28.97607, lng: -95.37261}
  phone: 979-233-5420
  external_ids: {bphc: BPS-H80-020869}
  sources:
  - hrsa/health-center-sites
  verified: {'on': '2026-07-19', method: api}
- id: tx/freeport/upbring-head-start-freeport
  name: Upbring Head Start Freeport
  categories:
  - child-care
  address:
    street: 1019 W 6th St
    city: Freeport
    state: tx
    zip: '77541'
  place: '4827420'
  geo:
    lat: 28.94953
    lng: -95.36104
  phone: 346-326-6074
  sources:
  - acf/head-start-locations
  verified:
    'on': '2026-07-19'
    method: api
