- id: tx/grapevine/care-clinic
  name: Care Clinic
  categories:
  - su-treatment
  - mh-treatment
  address:
    street: 2451 West Grapevine Mills Circle
    city: Grapevine
    state: tx
    zip: '76051'
  place: '4830644'
  geo:
    lat: 32.96878
    lng: -97.04535
  phone: 844-782-6963
  website: https://www.careclinicmd.com
  sources:
  - samhsa/findtreatment
  verified:
    'on': '2026-07-19'
    method: api
- id: tx/grapevine/colleyville-cowboys
  name: Colleyville Cowboys
  categories:
  - meal-program
  address:
    street: 3010 Mustang Dr
    city: Grapevine
    state: tx
    zip: '76051'
  description: Free summer meals for kids and teens (2026 season) — sponsored by J.E.W.E.L. Foundation.
  place: '4830644'
  geo:
    lat: 32.92001
    lng: -97.11152
  external_ids:
    usda_master: Cycle 06_TX_SFSP_0668
  sources:
  - usda/summer-meal-sites
  verified:
    'on': '2026-07-19'
    method: api
- id: tx/grapevine/cross-timbers-middle-school
  name: Cross Timbers Middle School
  categories:
  - meal-program
  address:
    street: 2301 Pool Rd
    city: Grapevine
    state: tx
    zip: '76051'
  description: Free summer meals for kids and teens (2026 season) — sponsored by GRAPEVINE-COLLEYVILLE
    ISD.
  place: '4830644'
  geo:
    lat: 32.91243
    lng: -97.12494
  external_ids:
    usda_master: Cycle 01_TX_SSO_0403
  sources:
  - usda/summer-meal-sites
  verified:
    'on': '2026-07-19'
    method: api
- id: tx/grapevine/grace-grapevine-little-free-pantry
  name: Grace Grapevine Little Free Pantry
  categories:
  - food-pantry
  place: '4830644'
  geo:
    lat: 32.93691
    lng: -97.06829
  external_ids:
    lfp: '4926'
  sources:
  - littlefreepantry/map
  verified:
    'on': '2026-07-19'
    method: scrape
- id: tx/grapevine/housing-authority-of-grapevine
  name: Housing Authority Of Grapevine
  categories:
  - housing-assistance
  address:
    street: 131 Starr Pl
    city: Grapevine
    state: tx
    zip: '76051'
  description: Public housing (Low-Rent) agency
  place: '4830644'
  geo:
    lat: 32.9399
    lng: -97.08092
  phone: 817-488-8132
  sources:
  - hud/resource-locator
  verified:
    'on': '2026-07-19'
    method: api
- id: tx/grapevine/valley-hope-of-grapevine
  name: Valley Hope of Grapevine
  categories:
  - su-treatment
  address:
    street: 2300 William D Tate Avenue
    city: Grapevine
    state: tx
    zip: '76051'
  place: '4830644'
  geo:
    lat: 32.91423
    lng: -97.10002
  phone: 785-877-5111
  website: https://www.valleyhope.org
  sources:
  - samhsa/findtreatment
  verified:
    'on': '2026-07-19'
    method: api
