- id: tx/greenville/carevide
  name: Carevide
  categories:
  - community-health-center
  address:
    street: 4500 Wesley St
    city: Greenville
    state: tx
    zip: '75401'
  place: '4830920'
  geo:
    lat: 33.12479
    lng: -96.10952
  phone: 903-455-5986
  website: https://carevide.org
  external_ids:
    bphc: BPS-H80-001507
  sources:
  - hrsa/health-center-sites
  verified:
    'on': '2026-07-19'
    method: api
- id: tx/greenville/carevide-2
  name: Carevide
  categories:
  - community-health-center
  address:
    street: 4311 Wesley St
    city: Greenville
    state: tx
    zip: '75401'
  place: '4830920'
  geo:
    lat: 33.12644
    lng: -96.10885
  phone: 903-455-5958
  website: https://carevide.org
  external_ids:
    bphc: BPS-H80-004998
  sources:
  - hrsa/health-center-sites
  verified:
    'on': '2026-07-19'
    method: api
- id: tx/greenville/carevide-3
  name: Carevide
  categories:
  - community-health-center
  address:
    street: 2824 Terrell Rd
    city: Greenville
    state: tx
    zip: '75402'
  place: '4830920'
  geo:
    lat: 33.10778
    lng: -96.11089
  phone: 903-455-5958
  website: https://carevide.org
  external_ids:
    bphc: BPS-H80-015164
  sources:
  - hrsa/health-center-sites
  verified:
    'on': '2026-07-19'
    method: api
- id: tx/greenville/carevide-dental
  name: Carevide Dental
  categories:
  - community-health-center
  address:
    street: 3005 Joe Ramsey Blvd E
    city: Greenville
    state: tx
    zip: '75401'
  place: '4830920'
  geo:
    lat: 33.12056
    lng: -96.11122
  phone: 903-455-4458
  website: https://carevide.org
  external_ids:
    bphc: BPS-H80-030808
  sources:
  - hrsa/health-center-sites
  verified:
    'on': '2026-07-19'
    method: api
- id: tx/greenville/carevide-pediatrics
  name: Carevide Pediatrics
  categories:
  - community-health-center
  address:
    street: 3005 Joe Ramsey Blvd E
    city: Greenville
    state: tx
    zip: '75401'
  place: '4830920'
  geo:
    lat: 33.12
    lng: -96.1113
  phone: 903-455-4458
  website: https://carevide.org
  external_ids:
    bphc: BPS-H80-015209
  sources:
  - hrsa/health-center-sites
  verified:
    'on': '2026-07-19'
    method: api
- id: tx/greenville/carver-elementary
  name: Carver Elementary
  categories:
  - meal-program
  address:
    street: 2110 College St
    city: Greenville
    state: tx
    zip: '75401'
  description: Free summer meals for kids and teens (2026 season) — sponsored by GREENVILLE ISD.
  place: '4830920'
  geo:
    lat: 33.1425
    lng: -96.12502
  external_ids:
    usda_master: Cycle 06_TX_SSO_0534
  sources:
  - usda/summer-meal-sites
  verified:
    'on': '2026-07-19'
    method: api
- id: tx/greenville/greenville-housing-authority
  name: Greenville Housing Authority
  categories:
  - housing-assistance
  address:
    street: 4417 Oneal St
    city: Greenville
    state: tx
    zip: '75401'
  description: Housing Choice Voucher (Section 8) agency
  place: '4830920'
  geo:
    lat: 33.13159
    lng: -96.12834
  phone: 903-455-1771
  sources:
  - hud/resource-locator
  verified:
    'on': '2026-07-19'
    method: api
- id: tx/greenville/greenville-va-clinic
  name: Greenville VA Clinic
  categories:
  - va-facility
  - health
  description: Primary Care CBOC
  address:
    street: 8325 Jack Finney Boulevard
    city: Greenville
    state: tx
    zip: '75402'
  place: '4830920'
  geo:
    lat: 33.08645
    lng: -96.08041
  phone: 903-450-1143
  website: https://www.va.gov/north-texas-health-care/locations/greenville-va-clinic/
  hours:
  - days:
    - mon
    - tue
    - wed
    - thu
    - fri
    open: 08:00
    close: '16:30'
  services:
  - Laboratory and pathology
  - Mental health care
  - Military sexual trauma care
  - My HealtheVet coordinator
  - Pharmacy
  - Primary care
  - Toxic exposure screening
  external_ids:
    va: vha_549GH
  sources:
  - va/facilities-api
  verified:
    'on': '2026-07-19'
    method: api
- id: tx/greenville/hunt-regional-outpatient-behav-health
  name: Hunt Regional Outpatient Behav Health
  categories:
  - mh-treatment
  address:
    street: 4001 Ridgecrest Road
    city: Greenville
    state: tx
    zip: '75402'
  place: '4830920'
  geo:
    lat: 33.12061
    lng: -96.12312
  phone: 903-453-2870
  website: https://www.huntregional.org/
  sources:
  - samhsa/findtreatment
  verified:
    'on': '2026-07-19'
    method: api
- id: tx/greenville/l-p-waters-eclc
  name: L. P. Waters  ECLC
  categories:
  - child-care
  address:
    street: 2504 Carver St
    city: Greenville
    state: tx
    zip: '75401'
  place: '4830920'
  geo:
    lat: 33.139
    lng: -96.13418
  phone: 903-457-2680
  sources:
  - acf/head-start-locations
  verified:
    'on': '2026-07-19'
    method: api
- id: tx/greenville/lakes-regional-community-center
  name: Lakes Regional Community Center
  categories:
  - su-treatment
  - mh-treatment
  address:
    street: 4200 Stuart Street
    city: Greenville
    state: tx
    zip: '75401'
  place: '4830920'
  geo:
    lat: 33.12679
    lng: -96.10607
  phone: 903-455-3987
  website: https://www.lakesregional.org
  sources:
  - samhsa/findtreatment
  verified:
    'on': '2026-07-19'
    method: api
- id: tx/greenville/the-blessing-box
  name: The Blessing Box
  categories:
  - food-pantry
  place: '4830920'
  geo:
    lat: 33.11567
    lng: -96.09284
  external_ids:
    lfp: '1981'
  sources:
  - littlefreepantry/map
  verified:
    'on': '2026-07-19'
    method: scrape
