- id: tx/houston/2xclusive-performing-arts
  name: 2Xclusive Performing Arts
  categories:
  - meal-program
  address:
    street: 5701 Fulton St
    city: Houston
    state: tx
    zip: '77009'
  description: Free summer meals for kids and teens (2026 season) — sponsored by THE HOUSTON FOOD BANK.
  place: '4835000'
  geo:
    lat: 29.81067
    lng: -95.36986
  external_ids:
    usda_master: Cycle 10_TX_SFSP_0004
  sources:
  - usda/summer-meal-sites
  verified:
    'on': '2026-07-19'
    method: api
- id: tx/houston/academy-of-accelerated-learning
  name: Academy Of Accelerated Learning
  categories:
  - meal-program
  address:
    street: 6711 Bellfort St.
    city: Houston
    state: tx
    zip: '77087'
  description: Free summer meals for kids and teens (2026 season) — sponsored by ACADEMY OF ACCELERATED
    LEARNING INC.
  place: '4835000'
  geo:
    lat: 29.66771
    lng: -95.31096
  external_ids:
    usda_master: Cycle 06_TX_SSO_0014
  sources:
  - usda/summer-meal-sites
  verified:
    'on': '2026-07-19'
    method: api
- id: tx/houston/academy-of-accelerated-learning-2
  name: Academy Of Accelerated Learning
  categories:
  - meal-program
  address:
    street: 7419 Ashcroft Drive
    city: Houston
    state: tx
    zip: '77081'
  description: Free summer meals for kids and teens (2026 season) — sponsored by ACADEMY OF ACCELERATED
    LEARNING INC.
  place: '4835000'
  geo:
    lat: 29.69774
    lng: -95.49076
  external_ids:
    usda_master: Cycle 06_TX_SSO_0015
  sources:
  - usda/summer-meal-sites
  verified:
    'on': '2026-07-19'
    method: api
- id: tx/houston/acres-homes
  name: Acres Homes
  categories:
  - child-care
  address:
    street: 6719 W Montgomery Rd
    city: Houston
    state: tx
    zip: '77091'
  place: '4835000'
  geo:
    lat: 29.85747
    lng: -95.42148
  phone: 713-694-1619
  sources:
  - acf/head-start-locations
  verified:
    'on': '2026-07-19'
    method: api
- id: tx/houston/adaego-recovery-center
  name: Adaego Recovery Center
  categories:
  - su-treatment
  - mh-treatment
  address:
    street: 4322 Herridge Street
    city: Houston
    state: tx
    zip: '77022'
  place: '4835000'
  geo:
    lat: 29.82766
    lng: -95.39433
  phone: 346-857-4883
  website: https://www.adaegorecovery.com
  sources:
  - samhsa/findtreatment
  verified:
    'on': '2026-07-19'
    method: api
- id: tx/houston/admin-westwood
  name: Admin - Westwood
  categories:
  - community-health-center
  address:
    street: '10039 Bissonnet St, #216'
    city: Houston
    state: tx
    zip: '77036'
  place: '4835000'
  geo:
    lat: 29.67455
    lng: -95.55432
  phone: 713-771-2292
  external_ids:
    bphc: BPS-H80-040248
  sources:
  - hrsa/health-center-sites
  verified:
    'on': '2026-07-19'
    method: api
- id: tx/houston/adult-rehabilitation-services-inc
  name: Adult Rehabilitation Services Inc
  categories:
  - su-treatment
  address:
    street: 6612 Hornwood Drive
    city: Houston
    state: tx
    zip: '77074'
  place: '4835000'
  geo:
    lat: 29.70965
    lng: -95.49981
  phone: 713-541-4422
  website: https://www.Adult-Rehab.com
  sources:
  - samhsa/findtreatment
  verified:
    'on': '2026-07-19'
    method: api
- id: tx/houston/agape-substance-abuse-program
  name: Agape Substance Abuse Program
  categories:
  - su-treatment
  address:
    street: 9001 Airport Boulevard
    city: Houston
    state: tx
    zip: '77061'
  place: '4835000'
  geo:
    lat: 29.65289
    lng: -95.25751
  phone: 713-533-8730
  website: https://www.agapeprogram.org
  sources:
  - samhsa/findtreatment
  verified:
    'on': '2026-07-19'
    method: api
- id: tx/houston/airline-women-and-children-s-health-center
  name: Airline Women and Children's Health Center
  categories:
  - community-health-center
  address:
    street: 5808 Airline Dr
    city: Houston
    state: tx
    zip: '77076'
  place: '4835000'
  geo:
    lat: 29.85036
    lng: -95.38398
  phone: 713-695-4013
  website: https://www.denverharborclinic.org
  external_ids:
    bphc: BPS-H80-007552
  sources:
  - hrsa/health-center-sites
  verified:
    'on': '2026-07-19'
    method: api
- id: tx/houston/albright-middle
  name: Albright Middle
  categories:
  - meal-program
  address:
    street: 6315 Winkleman Rd
    city: Houston
    state: tx
    zip: '77083'
  description: Free summer meals for kids and teens (2026 season) — sponsored by ALIEF ISD.
  place: '4835000'
  geo:
    lat: 29.70882
    lng: -95.65484
  external_ids:
    usda_master: Cycle 06_TX_SFSP_0040
  sources:
  - usda/summer-meal-sites
  verified:
    'on': '2026-07-19'
    method: api
- id: tx/houston/albury-head-start
  name: Albury Head Start
  categories:
  - child-care
  address:
    street: 11125 Albury Dr
    city: Houston
    state: tx
    zip: '77096'
  place: '4835000'
  geo:
    lat: 29.65826
    lng: -95.49781
  phone: 713-777-8192
  sources:
  - acf/head-start-locations
  verified:
    'on': '2026-07-19'
    method: api
- id: tx/houston/aldine-h-s
  name: Aldine H S
  categories:
  - meal-program
  address:
    street: 11101 Airline Dr
    city: Houston
    state: tx
    zip: '77037'
  description: Free summer meals for kids and teens (2026 season) — sponsored by ALDINE ISD.
  place: '4835000'
  geo:
    lat: 29.91758
    lng: -95.40604
  external_ids:
    usda_master: Cycle 06_TX_SSO_0043
  sources:
  - usda/summer-meal-sites
  verified:
    'on': '2026-07-19'
    method: api
- id: tx/houston/aldine-isd-child-development-center
  name: Aldine ISD Child Development Center
  categories:
  - child-care
  address:
    street: 15014 Aldine Westfield Rd
    city: Houston
    state: tx
    zip: '77032'
  place: '4835000'
  geo:
    lat: 29.93626
    lng: -95.35511
  sources:
  - acf/head-start-locations
  verified:
    'on': '2026-07-19'
    method: api
- id: tx/houston/alexander-el
  name: Alexander El
  categories:
  - meal-program
  address:
    street: 8500 Brookwulf Dr
    city: Houston
    state: tx
    zip: '77072'
  description: Free summer meals for kids and teens (2026 season) — sponsored by ALIEF ISD.
  place: '4835000'
  geo:
    lat: 29.68726
    lng: -95.60716
  external_ids:
    usda_master: Cycle 10_TX_SFSP_0049
  sources:
  - usda/summer-meal-sites
  verified:
    'on': '2026-07-19'
    method: api
- id: tx/houston/alief-1
  name: Alief 1
  place: '4835000'
  geo:
    lat: 29.68858
    lng: -95.59443
  provisional: true
  sources:
  - mutualaidhub/firestore
  verified:
    'on': '2026-07-19'
    method: api
  categories:
  - community-fridge
- id: tx/houston/alief-2
  name: Alief 2
  place: '4835000'
  geo:
    lat: 29.67674
    lng: -95.64417
  provisional: true
  sources:
  - mutualaidhub/firestore
  verified:
    'on': '2026-07-19'
    method: api
  categories:
  - community-fridge
- id: tx/houston/alief-community-center
  name: Alief Community Center
  categories:
  - meal-program
  address:
    street: 11903 Bellaire Blvd
    city: Houston
    state: tx
    zip: '77072'
  description: Free summer meals for kids and teens (2026 season) — sponsored by CITY OF HOUSTON.
  place: '4835000'
  geo:
    lat: 29.70358
    lng: -95.58899
  external_ids:
    usda_master: Cycle 01_TX_SFSP_0021
  sources:
  - usda/summer-meal-sites
  verified:
    'on': '2026-07-19'
    method: api
- id: tx/houston/alief-early-college-high-school
  name: Alief Early College High School
  categories:
  - meal-program
  address:
    street: 2811 Hayes Rd
    city: Houston
    state: tx
    zip: '77082'
  description: Free summer meals for kids and teens (2026 season) — sponsored by ALIEF ISD.
  place: '4835000'
  geo:
    lat: 29.73405
    lng: -95.57587
  external_ids:
    usda_master: Cycle 01_TX_SFSP_0022
  sources:
  - usda/summer-meal-sites
  verified:
    'on': '2026-07-19'
    method: api
- id: tx/houston/alief-middle
  name: Alief Middle
  categories:
  - meal-program
  address:
    street: 4415 Cook Rd.
    city: Houston
    state: tx
    zip: '77072'
  description: Free summer meals for kids and teens (2026 season) — sponsored by ALIEF ISD.
  place: '4835000'
  geo:
    lat: 29.70802
    lng: -95.59622
  external_ids:
    usda_master: Cycle 01_TX_SFSP_0023
  sources:
  - usda/summer-meal-sites
  verified:
    'on': '2026-07-19'
    method: api
- id: tx/houston/alief-taylor-high-school
  name: Alief Taylor High School
  categories:
  - meal-program
  address:
    street: 7555 Howell Sugar Land Rd
    city: Houston
    state: tx
    zip: '77083'
  description: Free summer meals for kids and teens (2026 season) — sponsored by ALIEF ISD.
  place: '4835000'
  geo:
    lat: 29.69499
    lng: -95.63428
  external_ids:
    usda_master: Cycle 01_TX_SFSP_0024
  sources:
  - usda/summer-meal-sites
  verified:
    'on': '2026-07-19'
    method: api
- id: tx/houston/alliance-risk-group-llc-dba-gateway-to-sobriety
  name: Alliance Risk Group LLC DBA Gateway to Sobriety
  categories:
  - su-treatment
  - mh-treatment
  address:
    street: 1500 South Dairy Ashford Road
    city: Houston
    state: tx
    zip: '77077'
  place: '4835000'
  geo:
    lat: 29.75296
    lng: -95.60669
  phone: 832-767-1560
  website: https://www.gatewaysobriety.com
  sources:
  - samhsa/findtreatment
  verified:
    'on': '2026-07-19'
    method: api
- id: tx/houston/alliance-risk-group-llc-dba-gateway-to-sobriety-2
  name: Alliance Risk Group LLC DBA Gateway to Sobriety
  categories:
  - su-treatment
  - mh-treatment
  address:
    street: 7445 Park Place Boulevard
    city: Houston
    state: tx
    zip: '77087'
  place: '4835000'
  geo:
    lat: 29.68543
    lng: -95.29327
  phone: 713-705-3490
  website: https://www.gatewaysobriety.com
  sources:
  - samhsa/findtreatment
  verified:
    'on': '2026-07-19'
    method: api
- id: tx/houston/almeda-el
  name: Almeda El
  categories:
  - meal-program
  address:
    street: 14249 Bridgeport Rd
    city: Houston
    state: tx
    zip: '77047'
  description: Free summer meals for kids and teens (2026 season) — sponsored by HOUSTON ISD.
  place: '4835000'
  geo:
    lat: 29.60005
    lng: -95.41943
  external_ids:
    usda_master: Cycle 01_TX_SSO_0029
  sources:
  - usda/summer-meal-sites
  verified:
    'on': '2026-07-19'
    method: api
- id: tx/houston/almeda-park-apartments
  name: Almeda Park Apartments
  categories:
  - meal-program
  address:
    street: 10950 Tanner Park Ct.
    city: Houston
    state: tx
    zip: '77075'
  description: Free summer meals for kids and teens (2026 season) — sponsored by "With Helping Hands"
    serving nutritious meals.
  place: '4835000'
  geo:
    lat: 29.61881
    lng: -95.22459
  external_ids:
    usda_master: Cycle 06_TX_SFSP_0064
  sources:
  - usda/summer-meal-sites
  verified:
    'on': '2026-07-19'
    method: api
- id: tx/houston/ampt-up-for-change-llc
  name: AMPT Up for Change LLC
  categories:
  - su-treatment
  address:
    city: Houston
    state: tx
    zip: '77014'
  place: '4835000'
  phone: 281-814-9895
  website: https://Amptclasses.com
  sources:
  - samhsa/findtreatment
  verified:
    'on': '2026-07-19'
    method: api
- id: tx/houston/anderson-elementary
  name: Anderson Elementary
  categories:
  - child-care
  address:
    street: 5727 Ludington Dr
    city: Houston
    state: tx
    zip: '77035'
  place: '4835000'
  geo:
    lat: 29.64855
    lng: -95.488
  phone: 713-726-3600
  sources:
  - acf/head-start-locations
  verified:
    'on': '2026-07-19'
    method: api
- id: tx/houston/andy-dekaney
  name: Andy Dekaney
  categories:
  - meal-program
  address:
    street: 22351 Imperial Vly Dr
    city: Houston
    state: tx
    zip: '77073'
  description: Free summer meals for kids and teens (2026 season) — sponsored by SPRING ISD.
  place: '4835000'
  geo:
    lat: 30.01854
    lng: -95.41949
  external_ids:
    usda_master: Cycle 06_TX_SSO_0085
  sources:
  - usda/summer-meal-sites
  verified:
    'on': '2026-07-19'
    method: api
- id: tx/houston/aragon-middle-school
  name: Aragon Middle School
  categories:
  - meal-program
  address:
    street: 16823 West Rd
    city: Houston
    state: tx
    zip: '77095'
  description: Free summer meals for kids and teens (2026 season) — sponsored by CYPRESS-FAIRBANKS ISD.
  place: '4835000'
  geo:
    lat: 29.9053
    lng: -95.66665
  external_ids:
    usda_master: Cycle 06_TX_SSO_0106
  sources:
  - usda/summer-meal-sites
  verified:
    'on': '2026-07-19'
    method: api
- id: tx/houston/arise-recovery-centers
  name: Arise Recovery Centers
  categories:
  - su-treatment
  address:
    street: 10330 Lake Road
    city: Houston
    state: tx
    zip: '77070'
  place: '4835000'
  geo:
    lat: 30.00287
    lng: -95.57994
  phone: 281-500-8970
  website: https://www.ariserecoverycenters.com
  sources:
  - samhsa/findtreatment
  verified:
    'on': '2026-07-19'
    method: api
- id: tx/houston/arise-recovery-centers-memorial
  name: Arise Recovery Centers Memorial
  categories:
  - su-treatment
  address:
    street: 14811 Saint Marys Lane
    city: Houston
    state: tx
    zip: '77079'
  place: '4835000'
  geo:
    lat: 29.78199
    lng: -95.61019
  phone: 888-339-2747
  website: https://ariserecoverycenters.com/
  sources:
  - samhsa/findtreatment
  verified:
    'on': '2026-07-19'
    method: api
- id: tx/houston/armand-bayou-el
  name: Armand Bayou El
  categories:
  - meal-program
  address:
    street: 16000 Hickory Knoll Dr
    city: Houston
    state: tx
    zip: '77059'
  description: Free summer meals for kids and teens (2026 season) — sponsored by CLEAR CREEK ISD.
  place: '4835000'
  geo:
    lat: 29.59447
    lng: -95.11459
  external_ids:
    usda_master: Cycle 06_TX_SSO_0121
  sources:
  - usda/summer-meal-sites
  verified:
    'on': '2026-07-19'
    method: api
- id: tx/houston/ashford-court-apartments
  name: Ashford Court Apartments
  categories:
  - meal-program
  address:
    street: 12777 Ashford Point Drive
    city: Houston
    state: tx
    zip: '77082'
  description: Free summer meals for kids and teens (2026 season) — sponsored by THE HOUSTON FOOD BANK.
  place: '4835000'
  geo:
    lat: 29.71955
    lng: -95.60845
  external_ids:
    usda_master: Cycle 06_TX_SFSP_0135
  sources:
  - usda/summer-meal-sites
  verified:
    'on': '2026-07-19'
    method: api
- id: tx/houston/ashford-el
  name: Ashford El
  categories:
  - meal-program
  address:
    street: 1815 Shannon Valley Dr
    city: Houston
    state: tx
    zip: '77077'
  description: Free summer meals for kids and teens (2026 season) — sponsored by HOUSTON ISD.
  place: '4835000'
  geo:
    lat: 29.74678
    lng: -95.59821
  external_ids:
    usda_master: Cycle 06_TX_SSO_0136
  sources:
  - usda/summer-meal-sites
  verified:
    'on': '2026-07-19'
    method: api
- id: tx/houston/asian-american-health-coalition-of-the-greater-h
  name: Asian American Health Coalition of the Greater Houston Area
  categories:
  - community-health-center
  address:
    street: 7001 Corporate Dr, Suite 120
    city: Houston
    state: tx
    zip: '77036'
  place: '4835000'
  geo:
    lat: 29.70335
    lng: -95.55086
  phone: 713-773-0803
  website: https://www.hopechc.org
  external_ids:
    bphc: BPS-H80-011695
  sources:
  - hrsa/health-center-sites
  verified:
    'on': '2026-07-19'
    method: api
- id: tx/houston/askew-el
  name: Askew El
  categories:
  - meal-program
  address:
    street: 11200 Wood Lodge Drive
    city: Houston
    state: tx
    zip: '77077'
  description: Free summer meals for kids and teens (2026 season) — sponsored by HOUSTON ISD.
  place: '4835000'
  geo:
    lat: 29.75139
    lng: -95.57708
  external_ids:
    usda_master: Cycle 01_TX_SSO_0060
  sources:
  - usda/summer-meal-sites
  verified:
    'on': '2026-07-19'
    method: api
- id: tx/houston/aspen-apartments
  name: Aspen Apartments
  categories:
  - meal-program
  address:
    street: 6150 W Tidwell Rd
    city: Houston
    state: tx
    zip: '77092'
  description: Free summer meals for kids and teens (2026 season) — sponsored by PRESERVATION OF LIFE,
    INC..
  place: '4835000'
  geo:
    lat: 29.85067
    lng: -95.48018
  external_ids:
    usda_master: Cycle 01_TX_SFSP_0061
  sources:
  - usda/summer-meal-sites
  verified:
    'on': '2026-07-19'
    method: api
- id: tx/houston/aspen-park-apt-community-recreational-educationa
  name: Aspen Park Apt. Community Recreational & Educational Program
  categories:
  - meal-program
  address:
    street: 8811 Boone Rd
    city: Houston
    state: tx
    zip: '77099'
  description: Free summer meals for kids and teens (2026 season) — sponsored by THE HOUSTON FOOD BANK.
  place: '4835000'
  geo:
    lat: 29.68202
    lng: -95.57455
  external_ids:
    usda_master: Cycle 06_TX_SFSP_0139
  sources:
  - usda/summer-meal-sites
  verified:
    'on': '2026-07-19'
    method: api
- id: tx/houston/assoc-for-the-adv-of-mexican-amer-inc-aama-proje
  name: Assoc for the Adv of Mexican Amer Inc (AAMA)/Project Tejas
  categories:
  - su-treatment
  address:
    street: 204 Clifton Street
    city: Houston
    state: tx
    zip: '77011'
  place: '4835000'
  geo:
    lat: 29.74252
    lng: -95.31813
  phone: 713-926-9491
  website: https://www.aama.org
  sources:
  - samhsa/findtreatment
  verified:
    'on': '2026-07-19'
    method: api
- id: tx/houston/assoc-for-the-adv-of-mexican-amer-inc-aama-teen
  name: Assoc for the Adv of Mexican Amer Inc (AAMA)/Teen and Family Outpatient
  categories:
  - su-treatment
  address:
    street: 6001 Gulf Freeway
    city: Houston
    state: tx
    zip: '77011'
  place: '4835000'
  geo:
    lat: 29.71585
    lng: -95.31152
  phone: 713-926-9491 x3101
  website: https://www.aama.org
  sources:
  - samhsa/findtreatment
  verified:
    'on': '2026-07-19'
    method: api
- id: tx/houston/attucks-middle
  name: Attucks Middle
  categories:
  - meal-program
  address:
    street: 4330 Bellfort Blvd
    city: Houston
    state: tx
    zip: '77051'
  description: Free summer meals for kids and teens (2026 season) — sponsored by HOUSTON ISD.
  place: '4835000'
  geo:
    lat: 29.66938
    lng: -95.36368
  external_ids:
    usda_master: Cycle 01_TX_SSO_0067
  sources:
  - usda/summer-meal-sites
  verified:
    'on': '2026-07-19'
    method: api
- id: tx/houston/austin-h-s
  name: Austin H S
  categories:
  - meal-program
  address:
    street: 1820 S. Lockwood Dr
    city: Houston
    state: tx
    zip: '77023'
  description: Free summer meals for kids and teens (2026 season) — sponsored by HOUSTON ISD.
  place: '4835000'
  geo:
    lat: 29.73183
    lng: -95.33312
  external_ids:
    usda_master: Cycle 01_TX_SSO_0076
  sources:
  - usda/summer-meal-sites
  verified:
    'on': '2026-07-19'
    method: api
- id: tx/houston/austin-h-s-2
  name: Austin H S
  categories:
  - meal-program
  address:
    street: 1700 Dumble Street
    city: Houston
    state: tx
    zip: '77023'
  description: Free summer meals for kids and teens (2026 season) — sponsored by HOUSTON ISD.
  place: '4835000'
  geo:
    lat: 29.73194
    lng: -95.33076
  external_ids:
    usda_master: Cycle 06_TX_SSO_0161
  sources:
  - usda/summer-meal-sites
  verified:
    'on': '2026-07-19'
    method: api
- id: tx/houston/avalos-p-tech-high
  name: Avalos P-Tech High
  categories:
  - meal-program
  address:
    street: 2430 Aldine Mail Route
    city: Houston
    state: tx
    zip: '77039'
  description: Free summer meals for kids and teens (2026 season) — sponsored by ALDINE ISD.
  place: '4835000'
  geo:
    lat: 29.90234
    lng: -95.34821
  external_ids:
    usda_master: Cycle 06_TX_SSO_0168
  sources:
  - usda/summer-meal-sites
  verified:
    'on': '2026-07-19'
    method: api
- id: tx/houston/avengers-youth-mentoring-organization
  name: Avengers Youth Mentoring Organization
  categories:
  - meal-program
  address:
    street: 4815 Reed Rd
    city: Houston
    state: tx
    zip: '77033'
  description: Free summer meals for kids and teens (2026 season) — sponsored by THE HOUSTON FOOD BANK.
  place: '4835000'
  geo:
    lat: 29.65854
    lng: -95.35184
  external_ids:
    usda_master: Cycle 06_TX_SFSP_0169
  sources:
  - usda/summer-meal-sites
  verified:
    'on': '2026-07-19'
    method: api
- id: tx/houston/avenue-360-health-and-wellness-midtown
  name: Avenue 360 Health and Wellness Midtown
  categories:
  - community-health-center
  address:
    street: 2920 Fannin St
    city: Houston
    state: tx
    zip: '77002'
  place: '4835000'
  geo:
    lat: 29.74264
    lng: -95.37536
  phone: 713-426-0027
  website: https://avenue360.org/
  external_ids:
    bphc: BPS-H80-032563
  sources:
  - hrsa/health-center-sites
  verified:
    'on': '2026-07-19'
    method: api
- id: tx/houston/avenue-360-mobile-clinic-1
  name: 'Avenue 360 Mobile Clinic #1'
  categories:
  - community-health-center
  address:
    street: 14095 Main St
    city: Houston
    state: tx
    zip: '77035'
  place: '4835000'
  geo:
    lat: 29.63467
    lng: -95.49604
  phone: 713-426-0027
  website: https://www.avenue360.org
  external_ids:
    bphc: BPS-H80-041775
  sources:
  - hrsa/health-center-sites
  verified:
    'on': '2026-07-19'
    method: api
- id: tx/houston/avenue-360-southwest
  name: AVENUE 360 Southwest
  categories:
  - community-health-center
  address:
    street: 14095 Main St
    city: Houston
    state: tx
    zip: '77035'
  place: '4835000'
  geo:
    lat: 29.63467
    lng: -95.49604
  phone: 713-426-0027
  external_ids:
    bphc: BPS-H80-027186
  sources:
  - hrsa/health-center-sites
  verified:
    'on': '2026-07-19'
    method: api
- id: tx/houston/baker-ripley-gulfton-sharpstown
  name: Baker Ripley Gulfton - Sharpstown
  categories:
  - meal-program
  address:
    street: 6500 Rookin St
    city: Houston
    state: tx
    zip: '77074'
  description: Free summer meals for kids and teens (2026 season) — sponsored by THE HOUSTON FOOD BANK.
  place: '4835000'
  geo:
    lat: 29.71048
    lng: -95.4969
  external_ids:
    usda_master: Cycle 06_TX_SFSP_0180
  sources:
  - usda/summer-meal-sites
  verified:
    'on': '2026-07-19'
    method: api
- id: tx/houston/baker-ripley-ripley-house
  name: Baker Ripley - Ripley House
  categories:
  - meal-program
  address:
    street: 4410 Navigation Blvd
    city: Houston
    state: tx
    zip: '77011'
  description: Free summer meals for kids and teens (2026 season) — sponsored by THE HOUSTON FOOD BANK.
  place: '4835000'
  geo:
    lat: 29.75249
    lng: -95.32814
  external_ids:
    usda_master: Cycle 06_TX_SFSP_0179
  sources:
  - usda/summer-meal-sites
  verified:
    'on': '2026-07-19'
    method: api
- id: tx/houston/bakerripley-charter-school
  name: BakerRipley Charter School
  categories:
  - child-care
  address:
    street: 6500 Rookin St
    street2: Bldg A
    city: Houston
    state: tx
    zip: '77074'
  place: '4835000'
  geo:
    lat: 29.71042
    lng: -95.49656
  phone: 713-273-3731
  sources:
  - acf/head-start-locations
  verified:
    'on': '2026-07-19'
    method: api
- id: tx/houston/bakerripley-early-childhood-development-center
  name: BakerRipley Early Childhood Development Center
  categories:
  - child-care
  address:
    street: 8575 Pitner Rd
    city: Houston
    state: tx
    zip: '77080'
  place: '4835000'
  geo:
    lat: 29.82827
    lng: -95.50166
  phone: 713-779-4856
  sources:
  - acf/head-start-locations
  verified:
    'on': '2026-07-19'
    method: api
- id: tx/houston/bammel-elementary
  name: Bammel Elementary
  categories:
  - child-care
  address:
    street: 17309 Red Oak Dr
    city: Houston
    state: tx
    zip: '77090'
  place: '4835000'
  geo:
    lat: 30.02128
    lng: -95.44756
  phone: 281-891-8150
  sources:
  - acf/head-start-locations
  verified:
    'on': '2026-07-19'
    method: api
- id: tx/houston/bane-el
  name: Bane El
  categories:
  - meal-program
  address:
    street: 5805 Kaiser St
    city: Houston
    state: tx
    zip: '77040'
  description: Free summer meals for kids and teens (2026 season) — sponsored by CYPRESS-FAIRBANKS ISD.
  place: '4835000'
  geo:
    lat: 29.8529
    lng: -95.52696
  external_ids:
    usda_master: Cycle 06_TX_SSO_0187
  sources:
  - usda/summer-meal-sites
  verified:
    'on': '2026-07-19'
    method: api
- id: tx/houston/bastian
  name: Bastian
  categories:
  - child-care
  address:
    street: 5051 Bellfort St
    city: Houston
    state: tx
    zip: '77033'
  place: '4835000'
  geo:
    lat: 29.66842
    lng: -95.34957
  phone: 713-732-5830
  sources:
  - acf/head-start-locations
  verified:
    'on': '2026-07-19'
    method: api
- id: tx/houston/bay-area-recovery-center
  name: Bay Area Recovery Center
  categories:
  - su-treatment
  address:
    street: 2915 South Sam Houston Parkway East
    city: Houston
    state: tx
    zip: '77047'
  place: '4835000'
  geo:
    lat: 29.59875
    lng: -95.38177
  phone: 832-742-9899
  website: https://www.bayarearecovery.com
  sources:
  - samhsa/findtreatment
  verified:
    'on': '2026-07-19'
    method: api
- id: tx/houston/bay-area-recovery-center-2
  name: Bay Area Recovery Center
  categories:
  - su-treatment
  address:
    street: 1100 Hercules Avenue
    city: Houston
    state: tx
    zip: '77058'
  place: '4835000'
  geo:
    lat: 29.55425
    lng: -95.11225
  phone: 832-284-4765
  website: https://www.bayarearecovery.com/about-us/houston-tx-facility/
  sources:
  - samhsa/findtreatment
  verified:
    'on': '2026-07-19'
    method: api
- id: tx/houston/bayland-community-center
  name: Bayland Community Center
  categories:
  - meal-program
  address:
    street: 6400 Bissonnet St.
    city: Houston
    state: tx
    zip: '77074'
  description: Free summer meals for kids and teens (2026 season) — sponsored by THE HOUSTON FOOD BANK.
  place: '4835000'
  geo:
    lat: 29.69353
    lng: -95.49571
  external_ids:
    usda_master: Cycle 06_TX_SFSP_0208
  sources:
  - usda/summer-meal-sites
  verified:
    'on': '2026-07-19'
    method: api
- id: tx/houston/baylor-college-of-medicine-academy-at-ryan
  name: Baylor College Of Medicine Academy At Ryan
  categories:
  - meal-program
  address:
    street: 2610 Elgin
    city: Houston
    state: tx
    zip: '77004'
  description: Free summer meals for kids and teens (2026 season) — sponsored by HOUSTON ISD.
  place: '4835000'
  geo:
    lat: 29.73289
    lng: -95.36259
  external_ids:
    usda_master: Cycle 01_TX_SSO_0097
  sources:
  - usda/summer-meal-sites
  verified:
    'on': '2026-07-19'
    method: api
- id: tx/houston/baylor-college-of-medicine-biotech-academy-at-ru
  name: Baylor College Of Medicine Biotech Academy At Rusk
  categories:
  - meal-program
  address:
    street: 2805 Garrow St
    city: Houston
    state: tx
    zip: '77003'
  description: Free summer meals for kids and teens (2026 season) — sponsored by HOUSTON ISD.
  place: '4835000'
  geo:
    lat: 29.75272
    lng: -95.34486
  external_ids:
    usda_master: Cycle 01_TX_SSO_0098
  sources:
  - usda/summer-meal-sites
  verified:
    'on': '2026-07-19'
    method: api
- id: tx/houston/bbwc-mobile-clinic
  name: BBWC - Mobile Clinic
  categories:
  - community-health-center
  address:
    street: 8785 W Bellfort Ave
    city: Houston
    state: tx
    zip: '77031'
  place: '4835000'
  geo:
    lat: 29.65525
    lng: -95.53111
  phone: 713-771-2292
  external_ids:
    bphc: BPS-H80-034297
  sources:
  - hrsa/health-center-sites
  verified:
    'on': '2026-07-19'
    method: api
- id: tx/houston/bee-busy-wellness-center
  name: Bee Busy Wellness Center
  categories:
  - community-health-center
  address:
    street: 8785 W Bellfort Ave
    city: Houston
    state: tx
    zip: '77031'
  place: '4835000'
  geo:
    lat: 29.65525
    lng: -95.53111
  phone: 713-771-2292
  external_ids:
    bphc: BPS-H80-014523
  sources:
  - hrsa/health-center-sites
  verified:
    'on': '2026-07-19'
    method: api
- id: tx/houston/bee-busy-wellness-center-bay-area
  name: Bee Busy Wellness Center - Bay Area
  categories:
  - community-health-center
  address:
    street: '1300 Bay Area Blvd # 200'
    city: Houston
    state: tx
    zip: '77058'
  place: '4835000'
  geo:
    lat: 29.5601
    lng: -95.1159
  phone: 713-771-2292
  website: https://mybbwc.org
  external_ids:
    bphc: BPS-H80-028019
  sources:
  - hrsa/health-center-sites
  verified:
    'on': '2026-07-19'
    method: api
- id: tx/houston/bee-busy-wellness-center-bissonnet
  name: Bee Busy Wellness Center - Bissonnet
  categories:
  - community-health-center
  address:
    street: 10039 Bissonnet St
    city: Houston
    state: tx
    zip: '77036'
  place: '4835000'
  geo:
    lat: 29.67456
    lng: -95.55409
  phone: 713-771-2292
  external_ids:
    bphc: BPS-H80-031362
  sources:
  - hrsa/health-center-sites
  verified:
    'on': '2026-07-19'
    method: api
- id: tx/houston/bee-busy-wellness-center-north
  name: Bee Busy Wellness Center - North
  categories:
  - community-health-center
  address:
    street: 13201 Northwest Fwy, Suite 500
    city: Houston
    state: tx
    zip: '77040'
  place: '4835000'
  geo:
    lat: 29.84829
    lng: -95.50681
  phone: 713-771-2292
  external_ids:
    bphc: BPS-H80-040808
  sources:
  - hrsa/health-center-sites
  verified:
    'on': '2026-07-19'
    method: api
- id: tx/houston/belara-apt-community-recreational-educational-pr
  name: Belara Apt. Community Recreational & Educational Program
  categories:
  - meal-program
  address:
    street: '6400 Gessner Rd #1022'
    city: Houston
    state: tx
    zip: '77036'
  description: Free summer meals for kids and teens (2026 season) — sponsored by THE HOUSTON FOOD BANK.
  place: '4835000'
  geo:
    lat: 29.71161
    lng: -95.54003
  external_ids:
    usda_master: Cycle 06_TX_SFSP_0223
  sources:
  - usda/summer-meal-sites
  verified:
    'on': '2026-07-19'
    method: api
- id: tx/houston/bellaire
  name: Bellaire
  place: '4835000'
  geo:
    lat: 29.67541
    lng: -95.50734
  provisional: true
  sources:
  - mutualaidhub/firestore
  verified:
    'on': '2026-07-19'
    method: api
  categories:
  - community-fridge
- id: tx/houston/bellfort-pine-apartments
  name: Bellfort Pine Apartments
  categories:
  - meal-program
  address:
    street: 8300 Canyon St
    city: Houston
    state: tx
    zip: '77051'
  description: Free summer meals for kids and teens (2026 season) — sponsored by CITY OF HOUSTON.
  place: '4835000'
  geo:
    lat: 29.67068
    lng: -95.3779
  external_ids:
    usda_master: Cycle 01_TX_SFSP_0111
  sources:
  - usda/summer-meal-sites
  verified:
    'on': '2026-07-19'
    method: api
- id: tx/houston/benavidez-el
  name: Benavidez El
  categories:
  - meal-program
  address:
    street: 6262 Gulfton St
    city: Houston
    state: tx
    zip: '77081'
  description: Free summer meals for kids and teens (2026 season) — sponsored by HOUSTON ISD.
  place: '4835000'
  geo:
    lat: 29.71642
    lng: -95.49217
  external_ids:
    usda_master: Cycle 10_TX_SSO_0246
  sources:
  - usda/summer-meal-sites
  verified:
    'on': '2026-07-19'
    method: api
- id: tx/houston/benavidez-elementary
  name: Benavidez Elementary
  categories:
  - child-care
  address:
    street: 6262 Gulfton St
    city: Houston
    state: tx
    zip: '77081'
  place: '4835000'
  geo:
    lat: 29.71649
    lng: -95.49253
  phone: 713-778-3350
  sources:
  - acf/head-start-locations
  verified:
    'on': '2026-07-19'
    method: api
- id: tx/houston/bencheri-educational-center
  name: Bencheri Educational Center
  categories:
  - meal-program
  address:
    street: 6427 West Montgomery Rd.
    city: Houston
    state: tx
    zip: '77091'
  description: Free summer meals for kids and teens (2026 season) — sponsored by THE HOUSTON FOOD BANK.
  place: '4835000'
  geo:
    lat: 29.85564
    lng: -95.41904
  external_ids:
    usda_master: Cycle 06_TX_SFSP_0240
  sources:
  - usda/summer-meal-sites
  verified:
    'on': '2026-07-19'
    method: api
- id: tx/houston/berry-el
  name: Berry El
  categories:
  - meal-program
  address:
    street: 2310 Berry Rd
    city: Houston
    state: tx
    zip: '77093'
  description: Free summer meals for kids and teens (2026 season) — sponsored by HOUSTON ISD.
  place: '4835000'
  geo:
    lat: 29.83769
    lng: -95.34949
  external_ids:
    usda_master: Cycle 01_TX_SSO_0120
  sources:
  - usda/summer-meal-sites
  verified:
    'on': '2026-07-19'
    method: api
- id: tx/houston/best-el
  name: Best El
  categories:
  - meal-program
  address:
    street: 10000 Centre Pkwy
    city: Houston
    state: tx
    zip: '77036'
  description: Free summer meals for kids and teens (2026 season) — sponsored by ALIEF ISD.
  place: '4835000'
  geo:
    lat: 29.67191
    lng: -95.55119
  external_ids:
    usda_master: Cycle 01_TX_SFSP_0122
  sources:
  - usda/summer-meal-sites
  verified:
    'on': '2026-07-19'
    method: api
- id: tx/houston/beta-flagship
  name: Beta Flagship
  categories:
  - meal-program
  address:
    street: 10929 Almeda Genoa Rd
    city: Houston
    state: tx
    zip: '77034'
  description: Free summer meals for kids and teens (2026 season) — sponsored by Vision Ministries Community
    Church.
  place: '4835000'
  geo:
    lat: 29.6244
    lng: -95.22088
  external_ids:
    usda_master: Cycle 06_TX_SFSP_0249
  sources:
  - usda/summer-meal-sites
  verified:
    'on': '2026-07-19'
    method: api
- id: tx/houston/beverly-hills-community-center
  name: Beverly Hills Community Center
  categories:
  - meal-program
  address:
    street: 9800 Kingspoint Road
    city: Houston
    state: tx
    zip: '77065'
  description: Free summer meals for kids and teens (2026 season) — sponsored by CITY OF HOUSTON.
  place: '4835000'
  geo:
    lat: 29.61063
    lng: -95.23865
  external_ids:
    usda_master: Cycle 01_TX_SFSP_0128
  sources:
  - usda/summer-meal-sites
  verified:
    'on': '2026-07-19'
    method: api
- id: tx/houston/beyond-the-lunchbox
  name: Beyond The Lunchbox
  categories:
  - meal-program
  address:
    street: 507 N. Sam Houston Pkwy E Ste 155
    city: Houston
    state: tx
    zip: '77060'
  description: Free summer meals for kids and teens (2026 season) — sponsored by Vision Ministries Community
    Church.
  place: '4835000'
  geo:
    lat: 29.93899
    lng: -95.39267
  external_ids:
    usda_master: Cycle 06_TX_SFSP_0256
  sources:
  - usda/summer-meal-sites
  verified:
    'on': '2026-07-19'
    method: api
- id: tx/houston/birkes-elementary
  name: Birkes Elementary
  categories:
  - meal-program
  address:
    street: 8500 Queenston Blvd
    city: Houston
    state: tx
    zip: '77095'
  description: Free summer meals for kids and teens (2026 season) — sponsored by CYPRESS-FAIRBANKS ISD.
  place: '4835000'
  geo:
    lat: 29.90461
    lng: -95.66965
  external_ids:
    usda_master: Cycle 01_TX_SSO_0142
  sources:
  - usda/summer-meal-sites
  verified:
    'on': '2026-07-19'
    method: api
- id: tx/houston/blanson-cte-high
  name: Blanson Cte High
  categories:
  - meal-program
  address:
    street: 311 West Rd.
    city: Houston
    state: tx
    zip: '77060'
  description: Free summer meals for kids and teens (2026 season) — sponsored by ALDINE ISD.
  place: '4835000'
  geo:
    lat: 29.91875
    lng: -95.39634
  external_ids:
    usda_master: Cycle 06_TX_SSO_0286
  sources:
  - usda/summer-meal-sites
  verified:
    'on': '2026-07-19'
    method: api
- id: tx/houston/bleyl-middle-school
  name: Bleyl Middle School
  categories:
  - meal-program
  address:
    street: 10800 Mills Rd
    city: Houston
    state: tx
    zip: '77070'
  description: Free summer meals for kids and teens (2026 season) — sponsored by CYPRESS-FAIRBANKS ISD.
  place: '4835000'
  geo:
    lat: 29.96135
    lng: -95.58099
  external_ids:
    usda_master: Cycle 06_TX_SSO_0292
  sources:
  - usda/summer-meal-sites
  verified:
    'on': '2026-07-19'
    method: api
- id: tx/houston/blueridge-methodist-church
  name: Blueridge Methodist Church
  categories:
  - meal-program
  address:
    street: 2929 Reed Rd
    city: Houston
    state: tx
    zip: '77051'
  description: Free summer meals for kids and teens (2026 season) — sponsored by THE HOUSTON FOOD BANK.
  place: '4835000'
  geo:
    lat: 29.6581
    lng: -95.38151
  external_ids:
    usda_master: Cycle 06_TX_SFSP_0297
  sources:
  - usda/summer-meal-sites
  verified:
    'on': '2026-07-19'
    method: api
- id: tx/houston/boca-springs-apt-community-recreational-edu-prog
  name: Boca Springs Apt. Community Recreational & Edu. Program
  categories:
  - meal-program
  address:
    street: '3777 S. Gessner Rd #500'
    city: Houston
    state: tx
    zip: '77063'
  description: Free summer meals for kids and teens (2026 season) — sponsored by THE HOUSTON FOOD BANK.
  place: '4835000'
  geo:
    lat: 29.7224
    lng: -95.5382
  external_ids:
    usda_master: Cycle 06_TX_SFSP_0302
  sources:
  - usda/summer-meal-sites
  verified:
    'on': '2026-07-19'
    method: api
- id: tx/houston/bonham-elementary
  name: Bonham Elementary
  categories:
  - child-care
  address:
    street: 8302 Braes River Dr
    city: Houston
    state: tx
    zip: '77074'
  place: '4835000'
  geo:
    lat: 29.68752
    lng: -95.51958
  phone: 713-778-3480
  sources:
  - acf/head-start-locations
  verified:
    'on': '2026-07-19'
    method: api
- id: tx/houston/boys-and-girls-club-fort-bend
  name: Boys And Girls Club Fort Bend
  categories:
  - meal-program
  address:
    street: 5525 Hobby St.
    city: Houston
    state: tx
    zip: '77053'
  description: Free summer meals for kids and teens (2026 season) — sponsored by THE HOUSTON FOOD BANK.
  place: '4835000'
  geo:
    lat: 29.58609
    lng: -95.47272
  external_ids:
    usda_master: Cycle 06_TX_SFSP_0381
  sources:
  - usda/summer-meal-sites
  verified:
    'on': '2026-07-19'
    method: api
- id: tx/houston/boys-and-girls-club-spring-branch
  name: Boys And Girls Club - Spring Branch
  categories:
  - meal-program
  address:
    street: 8575 Pitner Rd
    city: Houston
    state: tx
    zip: '77080'
  description: Free summer meals for kids and teens (2026 season) — sponsored by THE HOUSTON FOOD BANK.
  place: '4835000'
  geo:
    lat: 29.82934
    lng: -95.50163
  external_ids:
    usda_master: Cycle 06_TX_SFSP_0376
  sources:
  - usda/summer-meal-sites
  verified:
    'on': '2026-07-19'
    method: api
- id: tx/houston/braeburn
  name: Braeburn
  categories:
  - meal-program
  address:
    street: 7500 Bissonnet Street
    city: Houston
    state: tx
    zip: '77074'
  description: Free summer meals for kids and teens (2026 season) — sponsored by Britestar Community Center
    Inc.
  place: '4835000'
  geo:
    lat: 29.68496
    lng: -95.51253
  external_ids:
    usda_master: Cycle 01_TX_SFSP_0203
  sources:
  - usda/summer-meal-sites
  verified:
    'on': '2026-07-19'
    method: api
- id: tx/houston/braeburn-elementary
  name: Braeburn Elementary
  categories:
  - child-care
  address:
    street: 5550 Pine St.
    city: Houston
    state: tx
    zip: '77081'
  place: '4835000'
  geo:
    lat: 29.69498
    lng: -95.48769
  phone: 713-295-5210
  sources:
  - acf/head-start-locations
  verified:
    'on': '2026-07-19'
    method: api
- id: tx/houston/braeswood-apt-community-recreational-educational
  name: Braeswood Apt. Community Recreational & Educational Program
  categories:
  - meal-program
  address:
    street: 10555 Fondren
    city: Houston
    state: tx
    zip: '77096'
  description: Free summer meals for kids and teens (2026 season) — sponsored by THE HOUSTON FOOD BANK.
  place: '4835000'
  geo:
    lat: 29.66847
    lng: -95.50845
  external_ids:
    usda_master: Cycle 06_TX_SFSP_0401
  sources:
  - usda/summer-meal-sites
  verified:
    'on': '2026-07-19'
    method: api
- id: tx/houston/breakthough-houston-at-st-john-s-school
  name: Breakthough Houston At St John'S School
  categories:
  - meal-program
  address:
    street: 2401 Claremont Ln
    city: Houston
    state: tx
    zip: '77019'
  description: Free summer meals for kids and teens (2026 season) — sponsored by THE HOUSTON FOOD BANK.
  place: '4835000'
  geo:
    lat: 29.742
    lng: -95.42995
  external_ids:
    usda_master: Cycle 06_TX_SFSP_0407
  sources:
  - usda/summer-meal-sites
  verified:
    'on': '2026-07-19'
    method: api
- id: tx/houston/brekthough-houston-at-awty
  name: Brekthough Houston At Awty
  categories:
  - meal-program
  address:
    street: 7455 Awty School Lane
    city: Houston
    state: tx
    zip: '77055'
  description: Free summer meals for kids and teens (2026 season) — sponsored by THE HOUSTON FOOD BANK.
  place: '4835000'
  geo:
    lat: 29.78616
    lng: -95.45995
  external_ids:
    usda_master: Cycle 06_TX_SFSP_0410
  sources:
  - usda/summer-meal-sites
  verified:
    'on': '2026-07-19'
    method: api
- id: tx/houston/brenda-and-john-duncan-ymca
  name: Brenda And John Duncan Ymca
  categories:
  - meal-program
  address:
    street: 10655 Clay Road
    city: Houston
    state: tx
    zip: '77041'
  description: Free summer meals for kids and teens (2026 season) — sponsored by THE HOUSTON FOOD BANK.
  place: '4835000'
  geo:
    lat: 29.83199
    lng: -95.55427
  external_ids:
    usda_master: Cycle 06_TX_SFSP_0412
  sources:
  - usda/summer-meal-sites
  verified:
    'on': '2026-07-19'
    method: api
- id: tx/houston/bristol-apartments
  name: Bristol Apartments
  categories:
  - meal-program
  address:
    street: 1303 Greens Pkwy
    city: Houston
    state: tx
    zip: '77067'
  description: Free summer meals for kids and teens (2026 season) — sponsored by PRESERVATION OF LIFE,
    INC..
  place: '4835000'
  geo:
    lat: 29.94269
    lng: -95.43621
  external_ids:
    usda_master: Cycle 06_TX_SFSP_0424
  sources:
  - usda/summer-meal-sites
  verified:
    'on': '2026-07-19'
    method: api
- id: tx/houston/brite-star-community-center-inc
  name: Brite Star Community Center Inc
  categories:
  - meal-program
  address:
    street: 10998 S Wilcrest Dr
    city: Houston
    state: tx
    zip: '77099'
  description: Free summer meals for kids and teens (2026 season) — sponsored by Britestar Community Center
    Inc.
  place: '4835000'
  geo:
    lat: 29.66263
    lng: -95.56891
  external_ids:
    usda_master: Cycle 06_TX_SFSP_0425
  sources:
  - usda/summer-meal-sites
  verified:
    'on': '2026-07-19'
    method: api
- id: tx/houston/brittmore-apartments
  name: Brittmore Apartments
  categories:
  - meal-program
  address:
    street: 16101 Imperial Valley Drive
    city: Houston
    state: tx
    zip: '77060'
  description: Free summer meals for kids and teens (2026 season) — sponsored by THE HOUSTON FOOD BANK.
  place: '4835000'
  geo:
    lat: 29.93319
    lng: -95.40209
  external_ids:
    usda_master: Cycle 06_TX_SFSP_0426
  sources:
  - usda/summer-meal-sites
  verified:
    'on': '2026-07-19'
    method: api
- id: tx/houston/browning
  name: Browning
  categories:
  - child-care
  address:
    street: 607 Northwood St
    city: Houston
    state: tx
    zip: '77009'
  place: '4835000'
  geo:
    lat: 29.79724
    lng: -95.3788
  phone: 713-869-1684
  sources:
  - acf/head-start-locations
  verified:
    'on': '2026-07-19'
    method: api
- id: tx/houston/buckner-children-and-family-services
  name: Buckner Children And Family Services
  categories:
  - meal-program
  address:
    street: 8600 Sweetwater Lane
    city: Houston
    state: tx
    zip: '77037'
  description: Free summer meals for kids and teens (2026 season) — sponsored by PRESERVATION OF LIFE,
    INC..
  place: '4835000'
  geo:
    lat: 29.88517
    lng: -95.40854
  external_ids:
    usda_master: Cycle 01_TX_SFSP_0230
  sources:
  - usda/summer-meal-sites
  verified:
    'on': '2026-07-19'
    method: api
- id: tx/houston/budewig-int
  name: Budewig Int
  categories:
  - meal-program
  address:
    street: 12570 Richmond Ave
    city: Houston
    state: tx
    zip: '77082'
  description: Free summer meals for kids and teens (2026 season) — sponsored by ALIEF ISD.
  place: '4835000'
  geo:
    lat: 29.7299
    lng: -95.6039
  external_ids:
    usda_master: Cycle 10_TX_SFSP_0460
  sources:
  - usda/summer-meal-sites
  verified:
    'on': '2026-07-19'
    method: api
- id: tx/houston/burbank-middle
  name: Burbank Middle
  categories:
  - meal-program
  address:
    street: 315 Berry Rd
    city: Houston
    state: tx
    zip: '77022'
  description: Free summer meals for kids and teens (2026 season) — sponsored by HOUSTON ISD.
  place: '4835000'
  geo:
    lat: 29.83758
    lng: -95.37048
  external_ids:
    usda_master: Cycle 01_TX_SSO_0234
  sources:
  - usda/summer-meal-sites
  verified:
    'on': '2026-07-19'
    method: api
- id: tx/houston/burnett-bayland-community-center
  name: Burnett - Bayland Community Center
  categories:
  - meal-program
  address:
    street: 6026 Chimney Rock Road
    city: Houston
    state: tx
    zip: '77081'
  description: Free summer meals for kids and teens (2026 season) — sponsored by THE HOUSTON FOOD BANK.
  place: '4835000'
  geo:
    lat: 29.71548
    lng: -95.4765
  external_ids:
    usda_master: Cycle 06_TX_SFSP_0461
  sources:
  - usda/summer-meal-sites
  verified:
    'on': '2026-07-19'
    method: api
- id: tx/houston/bussey-el
  name: Bussey El
  categories:
  - meal-program
  address:
    street: 11555 Airline
    city: Houston
    state: tx
    zip: '77037'
  description: Free summer meals for kids and teens (2026 season) — sponsored by ALDINE ISD.
  place: '4835000'
  geo:
    lat: 29.92359
    lng: -95.40821
  external_ids:
    usda_master: Cycle 06_TX_SSO_0478
  sources:
  - usda/summer-meal-sites
  verified:
    'on': '2026-07-19'
    method: api
- id: tx/houston/c-e-king-h-s
  name: C E King H S
  categories:
  - meal-program
  address:
    street: 11433-C East Sam Houston Parkway North
    city: Houston
    state: tx
    zip: '77044'
  description: Free summer meals for kids and teens (2026 season) — sponsored by SHELDON ISD.
  place: '4835000'
  geo:
    lat: 29.88098
    lng: -95.19672
  external_ids:
    usda_master: Cycle 06_TX_SFSP_0482
  sources:
  - usda/summer-meal-sites
  verified:
    'on': '2026-07-19'
    method: api
- id: tx/houston/c-e-king-middle
  name: C E King Middle
  categories:
  - meal-program
  address:
    street: 8540 C.E. King Pkwy
    city: Houston
    state: tx
    zip: '77044'
  description: Free summer meals for kids and teens (2026 season) — sponsored by SHELDON ISD.
  place: '4835000'
  geo:
    lat: 29.84902
    lng: -95.21401
  external_ids:
    usda_master: Cycle 10_TX_SFSP_0493
  sources:
  - usda/summer-meal-sites
  verified:
    'on': '2026-07-19'
    method: api
- id: tx/houston/calvert-el
  name: Calvert El
  categories:
  - meal-program
  address:
    street: 1925 Marvell Dr
    city: Houston
    state: tx
    zip: '77032'
  description: Free summer meals for kids and teens (2026 season) — sponsored by ALDINE ISD.
  place: '4835000'
  geo:
    lat: 29.94689
    lng: -95.36225
  external_ids:
    usda_master: Cycle 06_TX_SSO_0496
  sources:
  - usda/summer-meal-sites
  verified:
    'on': '2026-07-19'
    method: api
- id: tx/houston/campbell-middle-school
  name: Campbell Middle School
  categories:
  - meal-program
  address:
    street: 11415 Bobcat Dr
    city: Houston
    state: tx
    zip: '77064'
  description: Free summer meals for kids and teens (2026 season) — sponsored by CYPRESS-FAIRBANKS ISD.
  place: '4835000'
  geo:
    lat: 29.93568
    lng: -95.5722
  external_ids:
    usda_master: Cycle 06_TX_SSO_0503
  sources:
  - usda/summer-meal-sites
  verified:
    'on': '2026-07-19'
    method: api
- id: tx/houston/candlelight-park-community-center
  name: Candlelight Park Community Center
  categories:
  - meal-program
  address:
    street: 1520 Candlelight Ln
    city: Houston
    state: tx
    zip: '77018'
  description: Free summer meals for kids and teens (2026 season) — sponsored by CITY OF HOUSTON.
  place: '4835000'
  geo:
    lat: 29.8358
    lng: -95.43693
  external_ids:
    usda_master: Cycle 01_TX_SFSP_0266
  sources:
  - usda/summer-meal-sites
  verified:
    'on': '2026-07-19'
    method: api
- id: tx/houston/career-and-recovery-resources-inc-acres-homes
  name: Career and Recovery Resources Inc Acres Homes
  categories:
  - su-treatment
  address:
    street: 6719 West Montgomery Road
    city: Houston
    state: tx
    zip: '77091'
  place: '4835000'
  geo:
    lat: 29.85749
    lng: -95.42218
  phone: 713-754-7000 x7042
  website: https://www.careerandrecovery.org
  sources:
  - samhsa/findtreatment
  verified:
    'on': '2026-07-19'
    method: api
- id: tx/houston/career-and-recovery-resources-inc-san-jacinto-st
  name: Career and Recovery Resources Inc San Jacinto Street
  categories:
  - su-treatment
  address:
    street: 2525 San Jacinto Street
    city: Houston
    state: tx
    zip: '77002'
  place: '4835000'
  geo:
    lat: 29.74451
    lng: -95.37191
  phone: 713-754-7000 x7042
  website: https://www.careerandrecovery.org
  sources:
  - samhsa/findtreatment
  verified:
    'on': '2026-07-19'
    method: api
- id: tx/houston/carol-and-charlie
  name: Carol and Charlie
  categories:
  - food-pantry
  place: '4835000'
  geo:
    lat: 29.74245
    lng: -95.33191
  external_ids:
    lfp: '5809'
  sources:
  - littlefreepantry/map
  verified:
    'on': '2026-07-19'
    method: scrape
- id: tx/houston/caroline-street-clinic
  name: CAROLINE STREET CLINIC
  categories:
  - community-health-center
  address:
    street: 1934 Caroline St
    city: Houston
    state: tx
    zip: '77002'
  place: '4835000'
  geo:
    lat: 29.74824
    lng: -95.3684
  phone: 713-286-6124
  website: https://www.homeless-healthcare.org
  external_ids:
    bphc: BPS-H80-018608
  sources:
  - hrsa/health-center-sites
  verified:
    'on': '2026-07-19'
    method: api
- id: tx/houston/carroll-elementary
  name: Carroll Elementary
  categories:
  - meal-program
  address:
    street: 423 W Gulfbank
    city: Houston
    state: tx
    zip: '77037'
  description: Free summer meals for kids and teens (2026 season) — sponsored by ALDINE ISD.
  place: '4835000'
  geo:
    lat: 29.88879
    lng: -95.40382
  external_ids:
    usda_master: Cycle 06_TX_SSO_0526
  sources:
  - usda/summer-meal-sites
  verified:
    'on': '2026-07-19'
    method: api
- id: tx/houston/carter-elementary
  name: Carter Elementary
  categories:
  - meal-program
  address:
    street: 3111 Fallbrook Dr
    city: Houston
    state: tx
    zip: '77038'
  description: Free summer meals for kids and teens (2026 season) — sponsored by ALDINE ISD.
  place: '4835000'
  geo:
    lat: 29.91935
    lng: -95.46607
  external_ids:
    usda_master: Cycle 06_TX_SSO_0529
  sources:
  - usda/summer-meal-sites
  verified:
    'on': '2026-07-19'
    method: api
- id: tx/houston/cathedral-clinic
  name: CATHEDRAL CLINIC
  categories:
  - community-health-center
  address:
    street: 1212 Prairie St
    city: Houston
    state: tx
    zip: '77002'
  place: '4835000'
  geo:
    lat: 29.75923
    lng: -95.35981
  phone: 713-220-9730
  website: https://www.homeless-healthcare.org
  external_ids:
    bphc: BPS-H80-005482
  sources:
  - hrsa/health-center-sites
  verified:
    'on': '2026-07-19'
    method: api
- id: tx/houston/cenikor-foundation-odyssey-house-texas
  name: Cenikor Foundation Odyssey House Texas
  categories:
  - su-treatment
  address:
    street: 5629 Grapevine Street
    city: Houston
    state: tx
    zip: '77085'
  place: '4835000'
  geo:
    lat: 29.61604
    lng: -95.46797
  phone: 888-236-4567
  website: https://www.cenikor.org
  sources:
  - samhsa/findtreatment
  verified:
    'on': '2026-07-19'
    method: api
- id: tx/houston/center-for-behavioral-emergency-and-addiction-re
  name: Center for Behavioral Emergency and Addiction Research/UTHealth Houston
  categories:
  - su-treatment
  address:
    street: 7000 Fannin Street
    city: Houston
    state: tx
    zip: '77030'
  place: '4835000'
  geo:
    lat: 29.70295
    lng: -95.4032
  phone: 713-500-3597
  website: https://sbmi.uth.edu/cbear
  sources:
  - samhsa/findtreatment
  verified:
    'on': '2026-07-19'
    method: api
- id: tx/houston/center-for-discovery-houston
  name: Center for Discovery Houston
  categories:
  - su-treatment
  - mh-treatment
  address:
    street: 8588 Katy Freeway
    city: Houston
    state: tx
    zip: '77024'
  place: '4835000'
  geo:
    lat: 29.78719
    lng: -95.49791
  phone: 714-828-1800
  website: https://centerfordiscovery.com/locations/houston-outpatien
  sources:
  - samhsa/findtreatment
  verified:
    'on': '2026-07-19'
    method: api
- id: tx/houston/center-for-recovery-and-wellness-resources
  name: Center for Recovery and Wellness Resources
  categories:
  - su-treatment
  address:
    street: 4014 Market Street
    city: Houston
    state: tx
    zip: '77020'
  place: '4835000'
  geo:
    lat: 29.77213
    lng: -95.3306
  phone: 832-373-3050
  website: https://wellnessandrecovery.org
  sources:
  - samhsa/findtreatment
  verified:
    'on': '2026-07-19'
    method: api
- id: tx/houston/centro-familiar-el-buen-pastor
  name: Centro Familiar El Buen Pastor
  categories:
  - meal-program
  address:
    street: 10320 Hartsook St
    city: Houston
    state: tx
    zip: '77034'
  description: Free summer meals for kids and teens (2026 season) — sponsored by THE HOUSTON FOOD BANK.
  place: '4835000'
  geo:
    lat: 29.63482
    lng: -95.23183
  external_ids:
    usda_master: Cycle 06_TX_SFSP_0575
  sources:
  - usda/summer-meal-sites
  verified:
    'on': '2026-07-19'
    method: api
- id: tx/houston/challenge-early-college-h-s
  name: Challenge Early College H S
  categories:
  - meal-program
  address:
    street: 5601 W Loop S
    city: Houston
    state: tx
    zip: '77081'
  description: Free summer meals for kids and teens (2026 season) — sponsored by HOUSTON ISD.
  place: '4835000'
  geo:
    lat: 29.7226
    lng: -95.45767
  external_ids:
    usda_master: Cycle 06_TX_SSO_0580
  sources:
  - usda/summer-meal-sites
  verified:
    'on': '2026-07-19'
    method: api
- id: tx/houston/chambers-el
  name: Chambers El
  categories:
  - meal-program
  address:
    street: 10700 Carvel
    city: Houston
    state: tx
    zip: '77072'
  description: Free summer meals for kids and teens (2026 season) — sponsored by ALIEF ISD.
  place: '4835000'
  geo:
    lat: 29.69694
    lng: -95.56636
  external_ids:
    usda_master: Cycle 10_TX_SFSP_0598
  sources:
  - usda/summer-meal-sites
  verified:
    'on': '2026-07-19'
    method: api
- id: tx/houston/champion-townhomes-on-the-green
  name: Champion Townhomes On The Green
  categories:
  - meal-program
  address:
    street: 11201 Veterans Memorial Dr
    city: Houston
    state: tx
    zip: '77067'
  description: Free summer meals for kids and teens (2026 season) — sponsored by THE HOUSTON FOOD BANK.
  place: '4835000'
  geo:
    lat: 29.94533
    lng: -95.46606
  external_ids:
    usda_master: Cycle 10_TX_SFSP_0600
  sources:
  - usda/summer-meal-sites
  verified:
    'on': '2026-07-19'
    method: api
- id: tx/houston/chancellor-el
  name: Chancellor El
  categories:
  - meal-program
  address:
    street: 4350 Boone Rd
    city: Houston
    state: tx
    zip: '77072'
  description: Free summer meals for kids and teens (2026 season) — sponsored by ALIEF ISD.
  place: '4835000'
  geo:
    lat: 29.71018
    lng: -95.57555
  external_ids:
    usda_master: Cycle 01_TX_SFSP_0311
  sources:
  - usda/summer-meal-sites
  verified:
    'on': '2026-07-19'
    method: api
- id: tx/houston/chase-view-apartments
  name: Chase View Apartments
  categories:
  - meal-program
  address:
    street: 201 Plaza Verde Dr.
    city: Houston
    state: tx
    zip: '77038'
  description: Free summer meals for kids and teens (2026 season) — sponsored by "With Helping Hands"
    serving nutritious meals.
  place: '4835000'
  geo:
    lat: 29.93416
    lng: -95.41621
  external_ids:
    usda_master: Cycle 06_TX_SFSP_0604
  sources:
  - usda/summer-meal-sites
  verified:
    'on': '2026-07-19'
    method: api
- id: tx/houston/cherryhurst-community-center
  name: Cherryhurst Community Center
  categories:
  - meal-program
  address:
    street: 1700 Missouri St.
    city: Houston
    state: tx
    zip: '77006'
  description: Free summer meals for kids and teens (2026 season) — sponsored by CITY OF HOUSTON.
  place: '4835000'
  geo:
    lat: 29.7441
    lng: -95.39798
  external_ids:
    usda_master: Cycle 06_TX_SFSP_0606
  sources:
  - usda/summer-meal-sites
  verified:
    'on': '2026-07-19'
    method: api
- id: tx/houston/cheyenne-center-inc
  name: Cheyenne Center Inc
  categories:
  - su-treatment
  address:
    street: 2620 East Crosstimbers Street
    city: Houston
    state: tx
    zip: '77093'
  place: '4835000'
  geo:
    lat: 29.82821
    lng: -95.34401
  phone: 832-230-5435
  website: https://www.cheyennecenter.com
  sources:
  - samhsa/findtreatment
  verified:
    'on': '2026-07-19'
    method: api
- id: tx/houston/cheyenne-center-inc-residential-services
  name: Cheyenne Center Inc Residential Services
  categories:
  - su-treatment
  address:
    street: 10525 Eastex Freeway
    city: Houston
    state: tx
    zip: '77093'
  place: '4835000'
  geo:
    lat: 29.86579
    lng: -95.33355
  phone: 713-691-4898
  website: https://www.cheyennecenter.com
  sources:
  - samhsa/findtreatment
  verified:
    'on': '2026-07-19'
    method: api
- id: tx/houston/christian-hope
  name: Christian Hope
  categories:
  - meal-program
  address:
    street: 3410 Anita St, Houston
    city: Houston
    state: tx
    zip: '77004'
  description: Free summer meals for kids and teens (2026 season) — sponsored by PRESERVATION OF LIFE,
    INC..
  place: '4835000'
  geo:
    lat: 29.73077
    lng: -95.35206
  external_ids:
    usda_master: Cycle 10_TX_SFSP_0637
  sources:
  - usda/summer-meal-sites
  verified:
    'on': '2026-07-19'
    method: api
- id: tx/houston/city-parc-ii-at-west-oaks-apts
  name: City Parc Ii At West Oaks Apts
  categories:
  - meal-program
  address:
    street: 3530 Green Crest Dr
    city: Houston
    state: tx
    zip: '77082'
  description: Free summer meals for kids and teens (2026 season) — sponsored by THE HOUSTON FOOD BANK.
  place: '4835000'
  geo:
    lat: 29.72001
    lng: -95.65425
  external_ids:
    usda_master: Cycle 06_TX_SFSP_0633
  sources:
  - usda/summer-meal-sites
  verified:
    'on': '2026-07-19'
    method: api
- id: tx/houston/clark-park-community-center
  name: Clark Park Community Center
  categories:
  - meal-program
  address:
    street: 9718 Clark
    city: Houston
    state: tx
    zip: '77076'
  description: Free summer meals for kids and teens (2026 season) — sponsored by CITY OF HOUSTON.
  place: '4835000'
  geo:
    lat: 29.84883
    lng: -95.37612
  external_ids:
    usda_master: Cycle 01_TX_SFSP_0336
  sources:
  - usda/summer-meal-sites
  verified:
    'on': '2026-07-19'
    method: api
- id: tx/houston/clear-lake-united-methodist-church
  name: Clear Lake United Methodist Church
  categories:
  - meal-program
  address:
    street: 16335 El Camino Real
    city: Houston
    state: tx
    zip: '77062'
  description: Free summer meals for kids and teens (2026 season) — sponsored by THE HOUSTON FOOD BANK.
  place: '4835000'
  geo:
    lat: 29.56024
    lng: -95.12525
  external_ids:
    usda_master: Cycle 06_TX_SFSP_0644
  sources:
  - usda/summer-meal-sites
  verified:
    'on': '2026-07-19'
    method: api
- id: tx/houston/clinton-park-community-center
  name: Clinton Park Community Center
  categories:
  - meal-program
  address:
    street: 200 Mississippi
    city: Houston
    state: tx
    zip: '77029'
  description: Free summer meals for kids and teens (2026 season) — sponsored by CITY OF HOUSTON.
  place: '4835000'
  geo:
    lat: 29.74312
    lng: -95.26192
  external_ids:
    usda_master: Cycle 01_TX_SFSP_0345
  sources:
  - usda/summer-meal-sites
  verified:
    'on': '2026-07-19'
    method: api
- id: tx/houston/cloverleaf-el
  name: Cloverleaf El
  categories:
  - meal-program
  address:
    street: 1035 Frankie
    city: Houston
    state: tx
    zip: '77015'
  description: Free summer meals for kids and teens (2026 season) — sponsored by GALENA PARK ISD.
  place: '4835000'
  geo:
    lat: 29.77602
    lng: -95.17588
  external_ids:
    usda_master: Cycle 01_TX_SSO_0347
  sources:
  - usda/summer-meal-sites
  verified:
    'on': '2026-07-19'
    method: api
- id: tx/houston/codwell-elementary
  name: Codwell Elementary
  categories:
  - child-care
  address:
    street: 5225 Tavenor Ln
    city: Houston
    state: tx
    zip: '77048'
  place: '4835000'
  geo:
    lat: 29.63448
    lng: -95.345
  phone: 713-732-3580
  sources:
  - acf/head-start-locations
  verified:
    'on': '2026-07-19'
    method: api
- id: tx/houston/collins-elementary
  name: Collins Elementary
  categories:
  - meal-program
  address:
    street: 9829 Town Park Dr
    city: Houston
    state: tx
    zip: '77036'
  description: Free summer meals for kids and teens (2026 season) — sponsored by ALIEF ISD.
  place: '4835000'
  geo:
    lat: 29.71177
    lng: -95.55489
  external_ids:
    usda_master: Cycle 01_TX_SFSP_0353
  sources:
  - usda/summer-meal-sites
  verified:
    'on': '2026-07-19'
    method: api
- id: tx/houston/columbia-greens
  name: Columbia Greens
  categories:
  - meal-program
  address:
    street: 832 W Greens Rd
    city: Houston
    state: tx
    zip: '77067'
  description: Free summer meals for kids and teens (2026 season) — sponsored by THE HOUSTON FOOD BANK.
  place: '4835000'
  geo:
    lat: 29.94904
    lng: -95.42684
  external_ids:
    usda_master: Cycle 06_TX_SFSP_0679
  sources:
  - usda/summer-meal-sites
  verified:
    'on': '2026-07-19'
    method: api
- id: tx/houston/community-family-center-jp-mcgovern
  name: Community Family Center- Jp Mcgovern
  categories:
  - meal-program
  address:
    street: 7318 Avenue F
    city: Houston
    state: tx
    zip: '77011'
  description: Free summer meals for kids and teens (2026 season) — sponsored by THE HOUSTON FOOD BANK.
  place: '4835000'
  geo:
    lat: 29.73666
    lng: -95.29397
  external_ids:
    usda_master: Cycle 06_TX_SFSP_0691
  sources:
  - usda/summer-meal-sites
  verified:
    'on': '2026-07-19'
    method: api
- id: tx/houston/community-family-centers
  name: Community Family Centers
  categories:
  - meal-program
  address:
    street: 7524 Avenue E.
    city: Houston
    state: tx
    zip: '77012'
  description: Free summer meals for kids and teens (2026 season) — sponsored by THE HOUSTON FOOD BANK.
  place: '4835000'
  geo:
    lat: 29.73548
    lng: -95.29359
  external_ids:
    usda_master: Cycle 06_TX_SFSP_0692
  sources:
  - usda/summer-meal-sites
  verified:
    'on': '2026-07-19'
    method: api
- id: tx/houston/community-health-network-scarsdale-family-health
  name: Community Health Network Scarsdale Family Health Clinic
  categories:
  - su-treatment
  - mh-treatment
  address:
    street: 10851 Scarsdale Boulevard
    city: Houston
    state: tx
    zip: '77089'
  place: '4835000'
  geo:
    lat: 29.58466
    lng: -95.21577
  phone: 281-824-1480
  website: https://www.mychn.org
  sources:
  - samhsa/findtreatment
  verified:
    'on': '2026-07-19'
    method: api
- id: tx/houston/community-partnerships-fifthward-early-childhood
  name: Community Partnerships Fifthward Early Childhood Development Center
  categories:
  - child-care
  address:
    street: 3917 Collingsworth St
    city: Houston
    state: tx
    zip: '77026'
  place: '4835000'
  geo:
    lat: 29.79423
    lng: -95.33129
  phone: 713-635-7900
  sources:
  - acf/head-start-locations
  verified:
    'on': '2026-07-19'
    method: api
- id: tx/houston/compton
  name: Compton
  categories:
  - child-care
  address:
    street: 9720 Spaulding St
    city: Houston
    state: tx
    zip: '77016'
  place: '4835000'
  geo:
    lat: 29.85143
    lng: -95.30403
  phone: 713-635-4142
  sources:
  - acf/head-start-locations
  verified:
    'on': '2026-07-19'
    method: api
- id: tx/houston/connect-ymca-kipp
  name: Connect Ymca Kipp
  categories:
  - meal-program
  address:
    street: 6700 Bellaire
    city: Houston
    state: tx
    zip: '77074'
  description: Free summer meals for kids and teens (2026 season) — sponsored by THE HOUSTON FOOD BANK.
  place: '4835000'
  geo:
    lat: 29.70549
    lng: -95.50186
  external_ids:
    usda_master: Cycle 06_TX_SFSP_0699
  sources:
  - usda/summer-meal-sites
  verified:
    'on': '2026-07-19'
    method: api
- id: tx/houston/cook-road-head-start
  name: Cook Road Head Start
  categories:
  - child-care
  address:
    street: 6959 Cook Rd
    city: Houston
    state: tx
    zip: '77072'
  place: '4835000'
  geo:
    lat: 29.70101
    lng: -95.59534
  phone: 832-351-2794
  sources:
  - acf/head-start-locations
  verified:
    'on': '2026-07-19'
    method: api
- id: tx/houston/coolwood-early-head-start
  name: Coolwood  Early Head Start
  categories:
  - child-care
  address:
    street: 767 Coolwood Dr
    city: Houston
    state: tx
    zip: '77013'
  place: '4835000'
  geo:
    lat: 29.77777
    lng: -95.22397
  phone: 713-672-9363
  sources:
  - acf/head-start-locations
  verified:
    'on': '2026-07-19'
    method: api
- id: tx/houston/coolwood-head-start
  name: Coolwood Head Start
  categories:
  - child-care
  address:
    street: 767 Coolwood Dr
    city: Houston
    state: tx
    zip: '77013'
  place: '4835000'
  geo:
    lat: 29.77777
    lng: -95.22397
  phone: 713-451-9024
  sources:
  - acf/head-start-locations
  verified:
    'on': '2026-07-19'
    method: api
- id: tx/houston/coral-hills-apts-recreational-educational-progra
  name: Coral Hills Apts. Recreational & Educational Program
  categories:
  - meal-program
  address:
    street: 6363 Beverly Hill St
    city: Houston
    state: tx
    zip: '77057'
  description: Free summer meals for kids and teens (2026 season) — sponsored by THE HOUSTON FOOD BANK.
  place: '4835000'
  geo:
    lat: 29.73051
    lng: -95.49637
  external_ids:
    usda_master: Cycle 06_TX_SFSP_0710
  sources:
  - usda/summer-meal-sites
  verified:
    'on': '2026-07-19'
    method: api
- id: tx/houston/cornerstone-family-resource-center-ar-premier
  name: Cornerstone Family Resource Center Ar Premier
  categories:
  - meal-program
  address:
    street: 9502 Woodfair
    city: Houston
    state: tx
    zip: '77036'
  description: Free summer meals for kids and teens (2026 season) — sponsored by THE HOUSTON FOOD BANK.
  place: '4835000'
  geo:
    lat: 29.6768
    lng: -95.55372
  external_ids:
    usda_master: Cycle 06_TX_SFSP_0711
  sources:
  - usda/summer-meal-sites
  verified:
    'on': '2026-07-19'
    method: api
- id: tx/houston/costa-ibiza-apts
  name: Costa Ibiza Apts
  categories:
  - meal-program
  address:
    street: 17217 Hafer Rd.
    city: Houston
    state: tx
    zip: '77090'
  description: Free summer meals for kids and teens (2026 season) — sponsored by PRESERVATION OF LIFE,
    INC..
  place: '4835000'
  geo:
    lat: 30.01617
    lng: -95.43782
  external_ids:
    usda_master: Cycle 01_TX_SFSP_0377
  sources:
  - usda/summer-meal-sites
  verified:
    'on': '2026-07-19'
    method: api
- id: tx/houston/costa-rialto-apartments
  name: Costa Rialto Apartments
  categories:
  - meal-program
  address:
    street: 5015 Aldine Bender Rd.
    city: Houston
    state: tx
    zip: '77032'
  description: Free summer meals for kids and teens (2026 season) — sponsored by PRESERVATION OF LIFE,
    INC..
  place: '4835000'
  geo:
    lat: 29.93049
    lng: -95.31416
  external_ids:
    usda_master: Cycle 01_TX_SFSP_0378
  sources:
  - usda/summer-meal-sites
  verified:
    'on': '2026-07-19'
    method: api
- id: tx/houston/costa-vizcaya-apts
  name: Costa Vizcaya Apts
  categories:
  - meal-program
  address:
    street: 12020 N. Gessner Dr.
    city: Houston
    state: tx
    zip: '77064'
  description: Free summer meals for kids and teens (2026 season) — sponsored by PRESERVATION OF LIFE,
    INC..
  place: '4835000'
  geo:
    lat: 29.94825
    lng: -95.54668
  external_ids:
    usda_master: Cycle 01_TX_SFSP_0379
  sources:
  - usda/summer-meal-sites
  verified:
    'on': '2026-07-19'
    method: api
- id: tx/houston/council-on-recovery
  name: Council on Recovery
  categories:
  - su-treatment
  address:
    street: 303 Jackson Hill Street
    city: Houston
    state: tx
    zip: '77007'
  place: '4835000'
  geo:
    lat: 29.76399
    lng: -95.40205
  phone: 713-914-0556
  website: https://www.councilonrecovery.org
  sources:
  - samhsa/findtreatment
  verified:
    'on': '2026-07-19'
    method: api
- id: tx/houston/creative-corner
  name: Creative Corner
  categories:
  - meal-program
  address:
    street: 335 Audrey Ln.
    city: Houston
    state: tx
    zip: '77015'
  description: Free summer meals for kids and teens (2026 season) — sponsored by THE HOUSTON FOOD BANK.
  place: '4835000'
  geo:
    lat: 29.79301
    lng: -95.18306
  external_ids:
    usda_master: Cycle 06_TX_SFSP_0728
  sources:
  - usda/summer-meal-sites
  verified:
    'on': '2026-07-19'
    method: api
- id: tx/houston/crespo-el
  name: Crespo El
  categories:
  - meal-program
  address:
    street: 7500 Office City Dr
    city: Houston
    state: tx
    zip: '77012'
  description: Free summer meals for kids and teens (2026 season) — sponsored by HOUSTON ISD.
  place: '4835000'
  geo:
    lat: 29.70024
    lng: -95.28799
  external_ids:
    usda_master: Cycle 01_TX_SSO_0391
  sources:
  - usda/summer-meal-sites
  verified:
    'on': '2026-07-19'
    method: api
- id: tx/houston/crestmont-community-center
  name: Crestmont Community Center
  categories:
  - meal-program
  address:
    street: 5200 Selinsky
    city: Houston
    state: tx
    zip: '77048'
  description: Free summer meals for kids and teens (2026 season) — sponsored by CITY OF HOUSTON.
  place: '4835000'
  geo:
    lat: 29.63631
    lng: -95.34556
  external_ids:
    usda_master: Cycle 01_TX_SFSP_0392
  sources:
  - usda/summer-meal-sites
  verified:
    'on': '2026-07-19'
    method: api
- id: tx/houston/crockett-el
  name: Crockett El
  categories:
  - meal-program
  address:
    street: 2112 Crockett St
    city: Houston
    state: tx
    zip: '77007'
  description: Free summer meals for kids and teens (2026 season) — sponsored by HOUSTON ISD.
  place: '4835000'
  geo:
    lat: 29.7737
    lng: -95.37965
  external_ids:
    usda_master: Cycle 01_TX_SSO_0397
  sources:
  - usda/summer-meal-sites
  verified:
    'on': '2026-07-19'
    method: api
- id: tx/houston/cullen-middle
  name: Cullen Middle
  categories:
  - meal-program
  address:
    street: 6900 Scott St
    city: Houston
    state: tx
    zip: '77021'
  description: Free summer meals for kids and teens (2026 season) — sponsored by HOUSTON ISD.
  place: '4835000'
  geo:
    lat: 29.69069
    lng: -95.36293
  external_ids:
    usda_master: Cycle 10_TX_SSO_0797
  sources:
  - usda/summer-meal-sites
  verified:
    'on': '2026-07-19'
    method: api
- id: tx/houston/cummings-el
  name: Cummings El
  categories:
  - meal-program
  address:
    street: 10455 S. Kirkwood Rd.
    city: Houston
    state: tx
    zip: '77099'
  description: Free summer meals for kids and teens (2026 season) — sponsored by ALIEF ISD.
  place: '4835000'
  geo:
    lat: 29.66324
    lng: -95.58613
  external_ids:
    usda_master: Cycle 01_TX_SFSP_0412
  sources:
  - usda/summer-meal-sites
  verified:
    'on': '2026-07-19'
    method: api
- id: tx/houston/cypress-creek-high-school
  name: Cypress Creek High School
  categories:
  - meal-program
  address:
    street: 9815 Grant Road
    city: Houston
    state: tx
    zip: '77070'
  description: Free summer meals for kids and teens (2026 season) — sponsored by STEPS TO EXCELLENCE,
    INC..
  place: '4835000'
  geo:
    lat: 29.9671
    lng: -95.56574
  external_ids:
    usda_master: Cycle 01_TX_SFSP_0415
  sources:
  - usda/summer-meal-sites
  verified:
    'on': '2026-07-19'
    method: api
- id: tx/houston/dacoma-ii
  name: Dacoma II
  categories:
  - child-care
  address:
    street: 4301 Dacoma St
    city: Houston
    state: tx
    zip: '77092'
  place: '4835000'
  geo:
    lat: 29.8087
    lng: -95.45169
  phone: 713-812-0033
  sources:
  - acf/head-start-locations
  verified:
    'on': '2026-07-19'
    method: api
- id: tx/houston/daniel-ortiz-middle-school
  name: Daniel Ortiz Middle School
  categories:
  - meal-program
  address:
    street: 6767 Telephone Rd
    city: Houston
    state: tx
    zip: '77061'
  description: Free summer meals for kids and teens (2026 season) — sponsored by HOUSTON ISD.
  place: '4835000'
  geo:
    lat: 29.66348
    lng: -95.28888
  external_ids:
    usda_master: Cycle 01_TX_SSO_0421
  sources:
  - usda/summer-meal-sites
  verified:
    'on': '2026-07-19'
    method: api
- id: tx/houston/davila-el
  name: Davila El
  categories:
  - meal-program
  address:
    street: 7610 Dahlia St
    city: Houston
    state: tx
    zip: '77012'
  description: Free summer meals for kids and teens (2026 season) — sponsored by HOUSTON ISD.
  place: '4835000'
  geo:
    lat: 29.71454
    lng: -95.28433
  external_ids:
    usda_master: Cycle 01_TX_SSO_0427
  sources:
  - usda/summer-meal-sites
  verified:
    'on': '2026-07-19'
    method: api
- id: tx/houston/davis-h-s-aldine
  name: Davis H S Aldine
  categories:
  - meal-program
  address:
    street: 12525 Ella Blvd
    city: Houston
    state: tx
    zip: '77067'
  description: Free summer meals for kids and teens (2026 season) — sponsored by ALDINE ISD.
  place: '4835000'
  geo:
    lat: 29.95342
    lng: -95.43173
  external_ids:
    usda_master: Cycle 06_TX_SSO_0807
  sources:
  - usda/summer-meal-sites
  verified:
    'on': '2026-07-19'
    method: api
- id: tx/houston/dean-middle-school
  name: Dean Middle School
  categories:
  - meal-program
  address:
    street: 14104 Reo St
    city: Houston
    state: tx
    zip: '77040'
  description: Free summer meals for kids and teens (2026 season) — sponsored by CYPRESS-FAIRBANKS ISD.
  place: '4835000'
  geo:
    lat: 29.85449
    lng: -95.52817
  external_ids:
    usda_master: Cycle 06_TX_SSO_0814
  sources:
  - usda/summer-meal-sites
  verified:
    'on': '2026-07-19'
    method: api
- id: tx/houston/debakey-h-s-for-health-professions
  name: Debakey H S For Health Professions
  categories:
  - meal-program
  address:
    street: 2545 Pressler St
    city: Houston
    state: tx
    zip: '77030'
  description: Free summer meals for kids and teens (2026 season) — sponsored by HOUSTON ISD.
  place: '4835000'
  geo:
    lat: 29.70536
    lng: -95.40783
  external_ids:
    usda_master: Cycle 01_TX_SSO_0433
  sources:
  - usda/summer-meal-sites
  verified:
    'on': '2026-07-19'
    method: api
- id: tx/houston/deborah-alexander-el
  name: Deborah Alexander El
  categories:
  - meal-program
  address:
    street: 8500 Brookwulf Dr
    city: Houston
    state: tx
    zip: '77072'
  description: Free summer meals for kids and teens (2026 season) — sponsored by ALIEF ISD.
  place: '4835000'
  geo:
    lat: 29.68726
    lng: -95.60716
  external_ids:
    usda_master: Cycle 01_TX_SFSP_0434
  sources:
  - usda/summer-meal-sites
  verified:
    'on': '2026-07-19'
    method: api
- id: tx/houston/dekaney
  name: Dekaney
  categories:
  - child-care
  address:
    street: 22352 Imperial Valley Dr
    city: Houston
    state: tx
    zip: '77073'
  place: '4835000'
  geo:
    lat: 30.01972
    lng: -95.41768
  phone: 832-868-0045
  sources:
  - acf/head-start-locations
  verified:
    'on': '2026-07-19'
    method: api
- id: tx/houston/delegate-site-aisd-child-development-center
  name: Delegate Site - AISD Child Development Center
  categories:
  - child-care
  address:
    street: 15014 Aldine Westfield Rd
    city: Houston
    state: tx
    zip: '77032'
  place: '4835000'
  geo:
    lat: 29.93626
    lng: -95.35511
  phone: 281-985-7469
  sources:
  - acf/head-start-locations
  verified:
    'on': '2026-07-19'
    method: api
- id: tx/houston/delegate-site-desantiago-ec-pk-head-start-ct
  name: Delegate Site-deSantiago EC/PK Head Start Ct
  categories:
  - child-care
  address:
    street: 1420 Aldine Meadows Rd
    city: Houston
    state: tx
    zip: '77032'
  place: '4835000'
  geo:
    lat: 29.93474
    lng: -95.36569
  phone: 281-985-7500
  sources:
  - acf/head-start-locations
  verified:
    'on': '2026-07-19'
    method: api
- id: tx/houston/delegate-site-garcia-leza-ec-pk-head-start
  name: Delegate Site-Garcia-Leza EC/PK & Head Start
  categories:
  - child-care
  address:
    street: 5311 Mount Houston Rd
    city: Houston
    state: tx
    zip: '77093'
  place: '4835000'
  geo:
    lat: 29.89218
    lng: -95.31107
  phone: 281-985-6037
  sources:
  - acf/head-start-locations
  verified:
    'on': '2026-07-19'
    method: api
- id: tx/houston/delegate-site-griggs-ec-pk-head-start-ctr
  name: Delegate Site-Griggs EC/PK & Head Start Ctr.
  categories:
  - child-care
  address:
    street: 801 Regional Park Dr
    city: Houston
    state: tx
    zip: '77060'
  place: '4835000'
  geo:
    lat: 29.9591
    lng: -95.39418
  phone: 281-985-3760
  sources:
  - acf/head-start-locations
  verified:
    'on': '2026-07-19'
    method: api
- id: tx/houston/delegate-site-hinojosa-ec-pk-head-start-ct
  name: Delegate Site-Hinojosa EC/PK & Head Start Ct
  categories:
  - child-care
  address:
    street: 1620 Lauder Rd
    city: Houston
    state: tx
    zip: '77039'
  place: '4835000'
  geo:
    lat: 29.91313
    lng: -95.36319
  phone: 281-985-4750
  sources:
  - acf/head-start-locations
  verified:
    'on': '2026-07-19'
    method: api
- id: tx/houston/delegate-site-keeble-ec-pk-head-start-ctr
  name: Delegate Site-Keeble EC/PK & Head Start Ctr.
  categories:
  - child-care
  address:
    street: 203 W Gulf Bank Rd
    city: Houston
    state: tx
    zip: '77037'
  place: '4835000'
  geo:
    lat: 29.88925
    lng: -95.39753
  phone: 281-878-6860
  sources:
  - acf/head-start-locations
  verified:
    'on': '2026-07-19'
    method: api
- id: tx/houston/delegate-site-kujawa-ec-pk-head-start-ct
  name: Delegate Site-Kujawa EC/PK Head Start Ct
  categories:
  - child-care
  address:
    street: 7111 Fallbrook Dr
    city: Houston
    state: tx
    zip: '77086'
  place: '4835000'
  geo:
    lat: 29.92464
    lng: -95.49564
  phone: 281-878-1514
  sources:
  - acf/head-start-locations
  verified:
    'on': '2026-07-19'
    method: api
- id: tx/houston/delegate-site-reece-academy
  name: Delegate Site-Reece Academy
  categories:
  - child-care
  address:
    street: 2223 Esther Dr
    city: Houston
    state: tx
    zip: '77088'
  place: '4835000'
  geo:
    lat: 29.87343
    lng: -95.4442
  phone: 281-878-0800
  sources:
  - acf/head-start-locations
  verified:
    'on': '2026-07-19'
    method: api
- id: tx/houston/delegate-site-stovall-ec-pk-head-start
  name: Delegate Site-Stovall EC/PK & Head Start
  categories:
  - child-care
  address:
    street: 3025 Ellington St
    city: Houston
    state: tx
    zip: '77088'
  place: '4835000'
  geo:
    lat: 29.88058
    lng: -95.4564
  phone: 281-591-8500
  sources:
  - acf/head-start-locations
  verified:
    'on': '2026-07-19'
    method: api
- id: tx/houston/delegate-site-vardeman-ec-pk-head-start
  name: Delegate Site-Vardeman EC/PK & Head Start
  categories:
  - child-care
  address:
    street: 3302 Connorvale Rd
    city: Houston
    state: tx
    zip: '77039'
  place: '4835000'
  geo:
    lat: 29.90789
    lng: -95.33942
  phone: 281-985-3740
  sources:
  - acf/head-start-locations
  verified:
    'on': '2026-07-19'
    method: api
- id: tx/houston/delegate-site-vines-ec-pk-head-start-ctr
  name: Delegate Site-Vines EC/PK & Head Start Ctr.
  categories:
  - child-care
  address:
    street: 7220 Inwood Park Dr
    city: Houston
    state: tx
    zip: '77088'
  place: '4835000'
  geo:
    lat: 29.86602
    lng: -95.45408
  phone: 281-878-7950
  sources:
  - acf/head-start-locations
  verified:
    'on': '2026-07-19'
    method: api
- id: tx/houston/deloras-thompson-elementary
  name: Deloras Thompson Elementary
  categories:
  - meal-program
  address:
    street: 12470 Walters Rd
    city: Houston
    state: tx
    zip: '77014'
  description: Free summer meals for kids and teens (2026 season) — sponsored by SPRING ISD.
  place: '4835000'
  geo:
    lat: 29.96972
    lng: -95.46612
  external_ids:
    usda_master: Cycle 06_TX_SSO_0836
  sources:
  - usda/summer-meal-sites
  verified:
    'on': '2026-07-19'
    method: api
- id: tx/houston/dental-mobile-unit
  name: Dental Mobile Unit
  categories:
  - community-health-center
  address:
    street: 5656 Kelley St
    city: Houston
    state: tx
    zip: '77026'
  place: '4835000'
  geo:
    lat: 29.81193
    lng: -95.31188
  phone: 346-426-0500
  external_ids:
    bphc: BPS-H80-033388
  sources:
  - hrsa/health-center-sites
  verified:
    'on': '2026-07-19'
    method: api
- id: tx/houston/denver-harbor-ancillary-services
  name: Denver Harbor Ancillary Services
  categories:
  - community-health-center
  address:
    street: 424 Hahlo St
    city: Houston
    state: tx
    zip: '77020'
  place: '4835000'
  geo:
    lat: 29.78064
    lng: -95.30986
  phone: 713-674-3326
  website: https://www.denverharborclinic.org
  external_ids:
    bphc: BPS-H80-004149
  sources:
  - hrsa/health-center-sites
  verified:
    'on': '2026-07-19'
    method: api
- id: tx/houston/denver-harbor-family-health-center
  name: Denver Harbor Family Health Center
  categories:
  - community-health-center
  address:
    street: 424B Hahlo St
    city: Houston
    state: tx
    zip: '77020'
  place: '4835000'
  geo:
    lat: 29.78063
    lng: -95.30953
  phone: 713-674-3326
  website: https://www.denverharborclinic.org
  external_ids:
    bphc: BPS-H80-002728
  sources:
  - hrsa/health-center-sites
  verified:
    'on': '2026-07-19'
    method: api
- id: tx/houston/denver-harbor-multi-service-center
  name: Denver Harbor Multi-Service Center
  categories:
  - meal-program
  address:
    street: 6402 Market St.
    city: Houston
    state: tx
    zip: '77020'
  description: Free summer meals for kids and teens (2026 season) — sponsored by CITY OF HOUSTON.
  place: '4835000'
  geo:
    lat: 29.77283
    lng: -95.30604
  external_ids:
    usda_master: Cycle 01_TX_SFSP_0442
  sources:
  - usda/summer-meal-sites
  verified:
    'on': '2026-07-19'
    method: api
- id: tx/houston/dian-st-villas
  name: Dian St Villas
  categories:
  - meal-program
  address:
    street: 1802 W 15Th Street
    city: Houston
    state: tx
    zip: '77008'
  description: Free summer meals for kids and teens (2026 season) — sponsored by Britestar Community Center
    Inc.
  place: '4835000'
  geo:
    lat: 29.79781
    lng: -95.41428
  external_ids:
    usda_master: Cycle 06_TX_SFSP_0852
  sources:
  - usda/summer-meal-sites
  verified:
    'on': '2026-07-19'
    method: api
- id: tx/houston/disciples-united-methodist-church
  name: Disciples United Methodist Church
  categories:
  - meal-program
  address:
    street: 12410 Hillcroft St
    city: Houston
    state: tx
    zip: '77035'
  description: Free summer meals for kids and teens (2026 season) — sponsored by CITY OF HOUSTON.
  place: '4835000'
  geo:
    lat: 29.64192
    lng: -95.49336
  external_ids:
    usda_master: Cycle 01_TX_SFSP_0455
  sources:
  - usda/summer-meal-sites
  verified:
    'on': '2026-07-19'
    method: api
- id: tx/houston/divine-counseling-service-llc
  name: Divine Counseling Service LLC
  categories:
  - su-treatment
  - mh-treatment
  address:
    street: 6201 Bonhomme Road
    city: Houston
    state: tx
    zip: '77036'
  place: '4835000'
  geo:
    lat: 29.71169
    lng: -95.51306
  phone: 832-864-3347 x203
  website: https://divinecounselingservice.org/
  sources:
  - samhsa/findtreatment
  verified:
    'on': '2026-07-19'
    method: api
- id: tx/houston/dobie-h-s
  name: Dobie H S
  categories:
  - meal-program
  address:
    street: 10220 Blackhawk Blvd
    city: Houston
    state: tx
    zip: '77089'
  description: Free summer meals for kids and teens (2026 season) — sponsored by PASADENA ISD.
  place: '4835000'
  geo:
    lat: 29.59436
    lng: -95.24539
  external_ids:
    usda_master: Cycle 01_TX_SSO_0456
  sources:
  - usda/summer-meal-sites
  verified:
    'on': '2026-07-19'
    method: api
- id: tx/houston/dogan
  name: Dogan
  categories:
  - child-care
  address:
    street: 4202 Liberty Rd
    city: Houston
    state: tx
    zip: '77026'
  place: '4835000'
  geo:
    lat: 29.78504
    lng: -95.32839
  phone: 713-672-0207
  sources:
  - acf/head-start-locations
  verified:
    'on': '2026-07-19'
    method: api
- id: tx/houston/dogan-el
  name: Dogan El
  categories:
  - meal-program
  address:
    street: 4202 Liberty
    city: Houston
    state: tx
    zip: '77026'
  description: Free summer meals for kids and teens (2026 season) — sponsored by HOUSTON ISD.
  place: '4835000'
  geo:
    lat: 29.78571
    lng: -95.32869
  external_ids:
    usda_master: Cycle 01_TX_SSO_0459
  sources:
  - usda/summer-meal-sites
  verified:
    'on': '2026-07-19'
    method: api
- id: tx/houston/don-bosco-academy
  name: Don Bosco Academy
  categories:
  - meal-program
  address:
    street: 8282 Bellaire Blvd. Suite 130
    city: Houston
    state: tx
    zip: '77036'
  description: Free summer meals for kids and teens (2026 season) — sponsored by THE HOUSTON FOOD BANK.
  place: '4835000'
  geo:
    lat: 29.70519
    lng: -95.53256
  external_ids:
    usda_master: Cycle 06_TX_SFSP_0870
  sources:
  - usda/summer-meal-sites
  verified:
    'on': '2026-07-19'
    method: api
- id: tx/houston/don-p-killough-middle
  name: Don P Killough Middle
  categories:
  - meal-program
  address:
    street: 7600 Synott Rd
    city: Houston
    state: tx
    zip: '77083'
  description: Free summer meals for kids and teens (2026 season) — sponsored by ALIEF ISD.
  place: '4835000'
  geo:
    lat: 29.69485
    lng: -95.61475
  external_ids:
    usda_master: Cycle 01_TX_SFSP_0461
  sources:
  - usda/summer-meal-sites
  verified:
    'on': '2026-07-19'
    method: api
- id: tx/houston/dr-shirley-j-williamson-elementary-school
  name: Dr. Shirley J. Williamson Elementary School
  categories:
  - meal-program
  address:
    street: 6720 New Forest Pkwy
    city: Houston
    state: tx
    zip: '77049'
  description: Free summer meals for kids and teens (2026 season) — sponsored by GALENA PARK ISD.
  place: '4835000'
  geo:
    lat: 29.82144
    lng: -95.17805
  external_ids:
    usda_master: Cycle 01_TX_SSO_0471
  sources:
  - usda/summer-meal-sites
  verified:
    'on': '2026-07-19'
    method: api
- id: tx/houston/dream-academy
  name: Dream Academy
  categories:
  - meal-program
  address:
    street: 3303 Lyons Ave
    city: Houston
    state: tx
    zip: '77020'
  description: Free summer meals for kids and teens (2026 season) — sponsored by Britestar Community Center
    Inc.
  place: '4835000'
  geo:
    lat: 29.77599
    lng: -95.33644
  external_ids:
    usda_master: Cycle 06_TX_SFSP_0907
  sources:
  - usda/summer-meal-sites
  verified:
    'on': '2026-07-19'
    method: api
- id: tx/houston/drew-academy
  name: Drew Academy
  categories:
  - meal-program
  address:
    street: 1910 W Little York Rd
    city: Houston
    state: tx
    zip: '77091'
  description: Free summer meals for kids and teens (2026 season) — sponsored by ALDINE ISD.
  place: '4835000'
  geo:
    lat: 29.86353
    lng: -95.44029
  external_ids:
    usda_master: Cycle 10_TX_SSO_0948
  sources:
  - usda/summer-meal-sites
  verified:
    'on': '2026-07-19'
    method: api
- id: tx/houston/drew-middle
  name: Drew Middle
  categories:
  - meal-program
  address:
    street: 1910 W Little York Rd
    city: Houston
    state: tx
    zip: '77091'
  description: Free summer meals for kids and teens (2026 season) — sponsored by ALDINE ISD.
  place: '4835000'
  geo:
    lat: 29.86353
    lng: -95.44029
  external_ids:
    usda_master: Cycle 06_TX_SSO_0908
  sources:
  - usda/summer-meal-sites
  verified:
    'on': '2026-07-19'
    method: api
- id: tx/houston/e-a-olle-middle
  name: E A Olle Middle
  categories:
  - meal-program
  address:
    street: 9200 Boone Rd
    city: Houston
    state: tx
    zip: '77099'
  description: Free summer meals for kids and teens (2026 season) — sponsored by ALIEF ISD.
  place: '4835000'
  geo:
    lat: 29.67693
    lng: -95.57457
  external_ids:
    usda_master: Cycle 01_TX_SFSP_0485
  sources:
  - usda/summer-meal-sites
  verified:
    'on': '2026-07-19'
    method: api
- id: tx/houston/early-college-high-school
  name: Early College High School
  categories:
  - meal-program
  address:
    street: 5800 Uvalde Rd., Building N 7 - Burleson
    city: Houston
    state: tx
    zip: '77049'
  description: Free summer meals for kids and teens (2026 season) — sponsored by GALENA PARK ISD.
  place: '4835000'
  geo:
    lat: 29.81074
    lng: -95.18239
  external_ids:
    usda_master: Cycle 06_TX_SSO_0941
  sources:
  - usda/summer-meal-sites
  verified:
    'on': '2026-07-19'
    method: api
- id: tx/houston/early-college-t-stem-academy
  name: Early College T-Stem Academy
  categories:
  - meal-program
  address:
    street: 2950 Broadway St
    city: Houston
    state: tx
    zip: '77017'
  description: Free summer meals for kids and teens (2026 season) — sponsored by TEJANO CENTER FOR COMMUNITY
    CONCERNS, INC..
  place: '4835000'
  geo:
    lat: 29.69801
    lng: -95.27789
  external_ids:
    usda_master: Cycle 01_TX_SSO_0495
  sources:
  - usda/summer-meal-sites
  verified:
    'on': '2026-07-19'
    method: api
- id: tx/houston/early-head-start
  name: Early Head Start
  categories:
  - child-care
  address:
    street: 2020 Solo St
    city: Houston
    state: tx
    zip: '77020'
  place: '4835000'
  geo:
    lat: 29.77936
    lng: -95.32026
  phone: 713-222-7284
  sources:
  - acf/head-start-locations
  verified:
    'on': '2026-07-19'
    method: api
- id: tx/houston/east-early-college-h-s
  name: East Early College H S
  categories:
  - meal-program
  address:
    street: 220 N Milby St
    city: Houston
    state: tx
    zip: '77003'
  description: Free summer meals for kids and teens (2026 season) — sponsored by HOUSTON ISD.
  place: '4835000'
  geo:
    lat: 29.75226
    lng: -95.33385
  external_ids:
    usda_master: Cycle 01_TX_SSO_0498
  sources:
  - usda/summer-meal-sites
  verified:
    'on': '2026-07-19'
    method: api
- id: tx/houston/eastwood-academy
  name: Eastwood Academy
  categories:
  - meal-program
  address:
    street: 1315 Dumble
    city: Houston
    state: tx
    zip: '77023'
  description: Free summer meals for kids and teens (2026 season) — sponsored by HOUSTON ISD.
  place: '4835000'
  geo:
    lat: 29.73584
    lng: -95.32901
  external_ids:
    usda_master: Cycle 06_TX_SSO_0957
  sources:
  - usda/summer-meal-sites
  verified:
    'on': '2026-07-19'
    method: api
- id: tx/houston/eastwood-community-center
  name: Eastwood Community Center
  categories:
  - meal-program
  address:
    street: 5020 Harrisburg
    city: Houston
    state: tx
    zip: '77011'
  description: Free summer meals for kids and teens (2026 season) — sponsored by CITY OF HOUSTON.
  place: '4835000'
  geo:
    lat: 29.74271
    lng: -95.32535
  external_ids:
    usda_master: Cycle 01_TX_SFSP_0504
  sources:
  - usda/summer-meal-sites
  verified:
    'on': '2026-07-19'
    method: api
- id: tx/houston/eating-recovery-center
  name: Eating Recovery Center
  categories:
  - su-treatment
  - mh-treatment
  address:
    street: 7515 South Main Street
    city: Houston
    state: tx
    zip: '77030'
  place: '4835000'
  geo:
    lat: 29.69864
    lng: -95.41044
  phone: 713-589-8638
  website: https://www.eatingrecoverycenter.com
  sources:
  - samhsa/findtreatment
  verified:
    'on': '2026-07-19'
    method: api
- id: tx/houston/edgewood-el
  name: Edgewood El
  categories:
  - meal-program
  address:
    street: 8757 Kempwood
    city: Houston
    state: tx
    zip: '77080'
  description: Free summer meals for kids and teens (2026 season) — sponsored by SPRING BRANCH ISD.
  place: '4835000'
  geo:
    lat: 29.82106
    lng: -95.50866
  external_ids:
    usda_master: Cycle 01_TX_SSO_0508
  sources:
  - usda/summer-meal-sites
  verified:
    'on': '2026-07-19'
    method: api
- id: tx/houston/eickenroht-elementary
  name: Eickenroht Elementary
  categories:
  - child-care
  address:
    street: 15252 Grand Point Rd
    city: Houston
    state: tx
    zip: '77090'
  place: '4835000'
  geo:
    lat: 29.98795
    lng: -95.42958
  phone: 281-891-8840
  sources:
  - acf/head-start-locations
  verified:
    'on': '2026-07-19'
    method: api
- id: tx/houston/eisenhower-h-s
  name: Eisenhower H S
  categories:
  - meal-program
  address:
    street: 7922 Antoine Dr
    city: Houston
    state: tx
    zip: '77088'
  description: Free summer meals for kids and teens (2026 season) — sponsored by ALDINE ISD.
  place: '4835000'
  geo:
    lat: 29.88191
    lng: -95.47375
  external_ids:
    usda_master: Cycle 06_TX_SSO_0978
  sources:
  - usda/summer-meal-sites
  verified:
    'on': '2026-07-19'
    method: api
- id: tx/houston/el-centro-de-corazon-eastwood
  name: EL CENTRO DE CORAZON-EASTWOOD
  categories:
  - community-health-center
  address:
    street: 412 Telephone Rd
    city: Houston
    state: tx
    zip: '77023'
  place: '4835000'
  geo:
    lat: 29.73773
    lng: -95.33291
  phone: 713-926-6229
  website: https://www.elcentrdecorazon.org
  external_ids:
    bphc: BPS-H80-004384
  sources:
  - hrsa/health-center-sites
  verified:
    'on': '2026-07-19'
    method: api
- id: tx/houston/el-centro-de-corazon-john-s-dunn
  name: El Centro de Corazon- John S. Dunn
  categories:
  - community-health-center
  address:
    street: 7635 Canal St
    city: Houston
    state: tx
    zip: '77012'
  place: '4835000'
  geo:
    lat: 29.73579
    lng: -95.28697
  phone: 713-660-1880
  website: https://www.elcentrodecorazon.org
  external_ids:
    bphc: BPS-H80-008833
  sources:
  - hrsa/health-center-sites
  verified:
    'on': '2026-07-19'
    method: api
- id: tx/houston/el-centro-de-corazon-magnolia
  name: EL CENTRO DE CORAZON - MAGNOLIA
  categories:
  - community-health-center
  address:
    street: 7037 Capitol St
    city: Houston
    state: tx
    zip: '77011'
  place: '4835000'
  geo:
    lat: 29.73459
    lng: -95.30105
  phone: 713-660-1880
  external_ids:
    bphc: BPS-H80-004305
  sources:
  - hrsa/health-center-sites
  verified:
    'on': '2026-07-19'
    method: api
- id: tx/houston/el-dorado-texas-community-services-durham-drive
  name: El Dorado Texas Community Services Durham Drive Health Services
  categories:
  - su-treatment
  address:
    street: 1213 Durham Drive
    city: Houston
    state: tx
    zip: '77007'
  place: '4835000'
  geo:
    lat: 29.77246
    lng: -95.41076
  phone: 713-636-9138
  website: https://americanhealthservices.org
  sources:
  - samhsa/findtreatment
  verified:
    'on': '2026-07-19'
    method: api
- id: tx/houston/elite-college-prep-academy-riverstone
  name: Elite College Prep Academy-Riverstone
  categories:
  - meal-program
  address:
    street: 9777 Riverstone Ranch Drive
    city: Houston
    state: tx
    zip: '77089'
  description: Free summer meals for kids and teens (2026 season) — sponsored by HOUSTON GATEWAY ACADEMY,
    INC..
  place: '4835000'
  geo:
    lat: 29.58664
    lng: -95.24039
  external_ids:
    usda_master: Cycle 01_TX_SSO_0519
  sources:
  - usda/summer-meal-sites
  verified:
    'on': '2026-07-19'
    method: api
- id: tx/houston/elmore-el
  name: Elmore El
  categories:
  - meal-program
  address:
    street: 8200 Tate
    city: Houston
    state: tx
    zip: '77028'
  description: Free summer meals for kids and teens (2026 season) — sponsored by HOUSTON ISD.
  place: '4835000'
  geo:
    lat: 29.81003
    lng: -95.2754
  external_ids:
    usda_master: Cycle 01_TX_SSO_0522
  sources:
  - usda/summer-meal-sites
  verified:
    'on': '2026-07-19'
    method: api
- id: tx/houston/elsik-h-s
  name: Elsik H S
  categories:
  - meal-program
  address:
    street: 12601 High Star
    city: Houston
    state: tx
    zip: '77072'
  description: Free summer meals for kids and teens (2026 season) — sponsored by ALIEF ISD.
  place: '4835000'
  geo:
    lat: 29.71074
    lng: -95.60332
  external_ids:
    usda_master: Cycle 01_TX_SFSP_0524
  sources:
  - usda/summer-meal-sites
  verified:
    'on': '2026-07-19'
    method: api
- id: tx/houston/emancipation-community-center
  name: Emancipation Community Center
  categories:
  - meal-program
  address:
    street: 3018 Emancipation Ave.
    city: Houston
    state: tx
    zip: '77004'
  description: Free summer meals for kids and teens (2026 season) — sponsored by CITY OF HOUSTON.
  place: '4835000'
  geo:
    lat: 29.73534
    lng: -95.36436
  external_ids:
    usda_master: Cycle 01_TX_SFSP_0526
  sources:
  - usda/summer-meal-sites
  verified:
    'on': '2026-07-19'
    method: api
- id: tx/houston/enclave-at-copperfield
  name: Enclave At Copperfield
  categories:
  - meal-program
  address:
    street: 15503 Fm 529 Rd.
    city: Houston
    state: tx
    zip: '77095'
  description: Free summer meals for kids and teens (2026 season) — sponsored by THE HOUSTON FOOD BANK.
  place: '4835000'
  geo:
    lat: 29.87916
    lng: -95.63972
  external_ids:
    usda_master: Cycle 06_TX_SFSP_1011
  sources:
  - usda/summer-meal-sites
  verified:
    'on': '2026-07-19'
    method: api
- id: tx/houston/energized-for-excellence-academy-el
  name: Energized For Excellence Academy El
  categories:
  - meal-program
  address:
    street: 6201 Bissonnet
    city: Houston
    state: tx
    zip: '77081'
  description: Free summer meals for kids and teens (2026 season) — sponsored by HOUSTON ISD.
  place: '4835000'
  geo:
    lat: 29.69571
    lng: -95.49111
  external_ids:
    usda_master: Cycle 06_TX_SSO_1012
  sources:
  - usda/summer-meal-sites
  verified:
    'on': '2026-07-19'
    method: api
- id: tx/houston/energized-for-excellence-early-childhood-academy
  name: Energized For Excellence Early Childhood Academy
  categories:
  - meal-program
  address:
    street: 6201 Bissonnet St
    city: Houston
    state: tx
    zip: '77081'
  description: Free summer meals for kids and teens (2026 season) — sponsored by HOUSTON ISD.
  place: '4835000'
  geo:
    lat: 29.69571
    lng: -95.49111
  external_ids:
    usda_master: Cycle 06_TX_SSO_1013
  sources:
  - usda/summer-meal-sites
  verified:
    'on': '2026-07-19'
    method: api
- id: tx/houston/energized-for-excellence-middle-school
  name: Energized For Excellence Middle School
  categories:
  - meal-program
  address:
    street: 6107 Bissonnet
    city: Houston
    state: tx
    zip: '77081'
  description: Free summer meals for kids and teens (2026 season) — sponsored by HOUSTON ISD.
  place: '4835000'
  geo:
    lat: 29.69637
    lng: -95.48983
  external_ids:
    usda_master: Cycle 06_TX_SSO_1014
  sources:
  - usda/summer-meal-sites
  verified:
    'on': '2026-07-19'
    method: api
- id: tx/houston/energized-for-science-technology-engineering-and
  name: Energized For Science Technology Engineering And M
  categories:
  - meal-program
  address:
    street: 7055 Beechnut
    city: Houston
    state: tx
    zip: '77074'
  description: Free summer meals for kids and teens (2026 season) — sponsored by HOUSTON ISD.
  place: '4835000'
  geo:
    lat: 29.69192
    lng: -95.50788
  external_ids:
    usda_master: Cycle 01_TX_SSO_0530
  sources:
  - usda/summer-meal-sites
  verified:
    'on': '2026-07-19'
    method: api
- id: tx/houston/energized-for-stem-academy-middle
  name: Energized For Stem Academy Middle
  categories:
  - meal-program
  address:
    street: 7055 Beechnut
    city: Houston
    state: tx
    zip: '77074'
  description: Free summer meals for kids and teens (2026 season) — sponsored by HOUSTON ISD.
  place: '4835000'
  geo:
