- id: tx/houston/acres-homes
  name: Acres Homes
  categories:
  - child-care
  address:
    street: 6719 W Montgomery Rd
    city: Houston
    state: tx
    zip: '77091'
  place: '4835000'
  geo:
    lat: 29.85747
    lng: -95.42148
  phone: 713-694-1619
  sources:
  - acf/head-start-locations
  verified:
    'on': '2026-07-19'
    method: api
- id: tx/houston/adaego-recovery-center
  name: Adaego Recovery Center
  categories:
  - su-treatment
  - mh-treatment
  address:
    street: 4322 Herridge Street
    city: Houston
    state: tx
    zip: '77022'
  place: '4835000'
  geo:
    lat: 29.82766
    lng: -95.39433
  phone: 346-857-4883
  website: https://www.adaegorecovery.com
  sources:
  - samhsa/findtreatment
  verified:
    'on': '2026-07-19'
    method: api
- id: tx/houston/admin-westwood
  name: Admin - Westwood
  categories:
  - community-health-center
  address:
    street: '10039 Bissonnet St, #216'
    city: Houston
    state: tx
    zip: '77036'
  place: '4835000'
  geo:
    lat: 29.67455
    lng: -95.55432
  phone: 713-771-2292
  external_ids:
    bphc: BPS-H80-040248
  sources:
  - hrsa/health-center-sites
  verified:
    'on': '2026-07-19'
    method: api
- id: tx/houston/adult-rehabilitation-services-inc
  name: Adult Rehabilitation Services Inc
  categories:
  - su-treatment
  address:
    street: 6612 Hornwood Drive
    city: Houston
    state: tx
    zip: '77074'
  place: '4835000'
  geo:
    lat: 29.70965
    lng: -95.49981
  phone: 713-541-4422
  website: https://www.Adult-Rehab.com
  sources:
  - samhsa/findtreatment
  verified:
    'on': '2026-07-19'
    method: api
- id: tx/houston/agape-substance-abuse-program
  name: Agape Substance Abuse Program
  categories:
  - su-treatment
  address:
    street: 9001 Airport Boulevard
    city: Houston
    state: tx
    zip: '77061'
  place: '4835000'
  geo:
    lat: 29.65289
    lng: -95.25751
  phone: 713-533-8730
  website: https://www.agapeprogram.org
  sources:
  - samhsa/findtreatment
  verified:
    'on': '2026-07-19'
    method: api
- id: tx/houston/airline-women-and-children-s-health-center
  name: Airline Women and Children's Health Center
  categories:
  - community-health-center
  address:
    street: 5808 Airline Dr
    city: Houston
    state: tx
    zip: '77076'
  place: '4835000'
  geo:
    lat: 29.85036
    lng: -95.38398
  phone: 713-695-4013
  website: https://www.denverharborclinic.org
  external_ids:
    bphc: BPS-H80-007552
  sources:
  - hrsa/health-center-sites
  verified:
    'on': '2026-07-19'
    method: api
- id: tx/houston/albury-head-start
  name: Albury Head Start
  categories:
  - child-care
  address:
    street: 11125 Albury Dr
    city: Houston
    state: tx
    zip: '77096'
  place: '4835000'
  geo:
    lat: 29.65826
    lng: -95.49781
  phone: 713-777-8192
  sources:
  - acf/head-start-locations
  verified:
    'on': '2026-07-19'
    method: api
- id: tx/houston/aldine-isd-child-development-center
  name: Aldine ISD Child Development Center
  categories:
  - child-care
  address:
    street: 15014 Aldine Westfield Rd
    city: Houston
    state: tx
    zip: '77032'
  place: '4835000'
  geo:
    lat: 29.93626
    lng: -95.35511
  sources:
  - acf/head-start-locations
  verified:
    'on': '2026-07-19'
    method: api
- id: tx/houston/alief-1
  name: Alief 1
  place: '4835000'
  geo:
    lat: 29.68858
    lng: -95.59443
  provisional: true
  sources:
  - mutualaidhub/firestore
  verified:
    'on': '2026-07-19'
    method: api
  categories:
  - community-fridge
- id: tx/houston/alief-2
  name: Alief 2
  place: '4835000'
  geo:
    lat: 29.67674
    lng: -95.64417
  provisional: true
  sources:
  - mutualaidhub/firestore
  verified:
    'on': '2026-07-19'
    method: api
  categories:
  - community-fridge
- id: tx/houston/alliance-risk-group-llc-dba-gateway-to-sobriety
  name: Alliance Risk Group LLC DBA Gateway to Sobriety
  categories:
  - su-treatment
  - mh-treatment
  address:
    street: 1500 South Dairy Ashford Road
    city: Houston
    state: tx
    zip: '77077'
  place: '4835000'
  geo:
    lat: 29.75296
    lng: -95.60669
  phone: 832-767-1560
  website: https://www.gatewaysobriety.com
  sources:
  - samhsa/findtreatment
  verified:
    'on': '2026-07-19'
    method: api
- id: tx/houston/alliance-risk-group-llc-dba-gateway-to-sobriety-2
  name: Alliance Risk Group LLC DBA Gateway to Sobriety
  categories:
  - su-treatment
  - mh-treatment
  address:
    street: 7445 Park Place Boulevard
    city: Houston
    state: tx
    zip: '77087'
  place: '4835000'
  geo:
    lat: 29.68543
    lng: -95.29327
  phone: 713-705-3490
  website: https://www.gatewaysobriety.com
  sources:
  - samhsa/findtreatment
  verified:
    'on': '2026-07-19'
    method: api
- id: tx/houston/ampt-up-for-change-llc
  name: AMPT Up for Change LLC
  categories:
  - su-treatment
  address:
    city: Houston
    state: tx
    zip: '77014'
  place: '4835000'
  phone: 281-814-9895
  website: https://Amptclasses.com
  sources:
  - samhsa/findtreatment
  verified:
    'on': '2026-07-19'
    method: api
- id: tx/houston/anderson-elementary
  name: Anderson Elementary
  categories:
  - child-care
  address:
    street: 5727 Ludington Dr
    city: Houston
    state: tx
    zip: '77035'
  place: '4835000'
  geo:
    lat: 29.64855
    lng: -95.488
  phone: 713-726-3600
  sources:
  - acf/head-start-locations
  verified:
    'on': '2026-07-19'
    method: api
- id: tx/houston/arise-recovery-centers
  name: Arise Recovery Centers
  categories:
  - su-treatment
  address:
    street: 10330 Lake Road
    city: Houston
    state: tx
    zip: '77070'
  place: '4835000'
  geo:
    lat: 30.00287
    lng: -95.57994
  phone: 281-500-8970
  website: https://www.ariserecoverycenters.com
  sources:
  - samhsa/findtreatment
  verified:
    'on': '2026-07-19'
    method: api
- id: tx/houston/arise-recovery-centers-memorial
  name: Arise Recovery Centers Memorial
  categories:
  - su-treatment
  address:
    street: 14811 Saint Marys Lane
    city: Houston
    state: tx
    zip: '77079'
  place: '4835000'
  geo:
    lat: 29.78199
    lng: -95.61019
  phone: 888-339-2747
  website: https://ariserecoverycenters.com/
  sources:
  - samhsa/findtreatment
  verified:
    'on': '2026-07-19'
    method: api
- id: tx/houston/asian-american-health-coalition-of-the-greater-h
  name: Asian American Health Coalition of the Greater Houston Area
  categories:
  - community-health-center
  address:
    street: 7001 Corporate Dr, Suite 120
    city: Houston
    state: tx
    zip: '77036'
  place: '4835000'
  geo:
    lat: 29.70335
    lng: -95.55086
  phone: 713-773-0803
  website: https://www.hopechc.org
  external_ids:
    bphc: BPS-H80-011695
  sources:
  - hrsa/health-center-sites
  verified:
    'on': '2026-07-19'
    method: api
- id: tx/houston/assoc-for-the-adv-of-mexican-amer-inc-aama-proje
  name: Assoc for the Adv of Mexican Amer Inc (AAMA)/Project Tejas
  categories:
  - su-treatment
  address:
    street: 204 Clifton Street
    city: Houston
    state: tx
    zip: '77011'
  place: '4835000'
  geo:
    lat: 29.74252
    lng: -95.31813
  phone: 713-926-9491
  website: https://www.aama.org
  sources:
  - samhsa/findtreatment
  verified:
    'on': '2026-07-19'
    method: api
- id: tx/houston/assoc-for-the-adv-of-mexican-amer-inc-aama-teen
  name: Assoc for the Adv of Mexican Amer Inc (AAMA)/Teen and Family Outpatient
  categories:
  - su-treatment
  address:
    street: 6001 Gulf Freeway
    city: Houston
    state: tx
    zip: '77011'
  place: '4835000'
  geo:
    lat: 29.71585
    lng: -95.31152
  phone: 713-926-9491 x3101
  website: https://www.aama.org
  sources:
  - samhsa/findtreatment
  verified:
    'on': '2026-07-19'
    method: api
- id: tx/houston/avenue-360-health-and-wellness-midtown
  name: Avenue 360 Health and Wellness Midtown
  categories:
  - community-health-center
  address:
    street: 2920 Fannin St
    city: Houston
    state: tx
    zip: '77002'
  place: '4835000'
  geo:
    lat: 29.74264
    lng: -95.37536
  phone: 713-426-0027
  website: https://avenue360.org/
  external_ids:
    bphc: BPS-H80-032563
  sources:
  - hrsa/health-center-sites
  verified:
    'on': '2026-07-19'
    method: api
- id: tx/houston/avenue-360-mobile-clinic-1
  name: 'Avenue 360 Mobile Clinic #1'
  categories:
  - community-health-center
  address:
    street: 14095 Main St
    city: Houston
    state: tx
    zip: '77035'
  place: '4835000'
  geo:
    lat: 29.63467
    lng: -95.49604
  phone: 713-426-0027
  website: https://www.avenue360.org
  external_ids:
    bphc: BPS-H80-041775
  sources:
  - hrsa/health-center-sites
  verified:
    'on': '2026-07-19'
    method: api
- id: tx/houston/avenue-360-southwest
  name: AVENUE 360 Southwest
  categories:
  - community-health-center
  address:
    street: 14095 Main St
    city: Houston
    state: tx
    zip: '77035'
  place: '4835000'
  geo:
    lat: 29.63467
    lng: -95.49604
  phone: 713-426-0027
  external_ids:
    bphc: BPS-H80-027186
  sources:
  - hrsa/health-center-sites
  verified:
    'on': '2026-07-19'
    method: api
- id: tx/houston/bakerripley-charter-school
  name: BakerRipley Charter School
  categories:
  - child-care
  address:
    street: 6500 Rookin St
    street2: Bldg A
    city: Houston
    state: tx
    zip: '77074'
  place: '4835000'
  geo:
    lat: 29.71042
    lng: -95.49656
  phone: 713-273-3731
  sources:
  - acf/head-start-locations
  verified:
    'on': '2026-07-19'
    method: api
- id: tx/houston/bakerripley-early-childhood-development-center
  name: BakerRipley Early Childhood Development Center
  categories:
  - child-care
  address:
    street: 8575 Pitner Rd
    city: Houston
    state: tx
    zip: '77080'
  place: '4835000'
  geo:
    lat: 29.82827
    lng: -95.50166
  phone: 713-779-4856
  sources:
  - acf/head-start-locations
  verified:
    'on': '2026-07-19'
    method: api
- id: tx/houston/bammel-elementary
  name: Bammel Elementary
  categories:
  - child-care
  address:
    street: 17309 Red Oak Dr
    city: Houston
    state: tx
    zip: '77090'
  place: '4835000'
  geo:
    lat: 30.02128
    lng: -95.44756
  phone: 281-891-8150
  sources:
  - acf/head-start-locations
  verified:
    'on': '2026-07-19'
    method: api
- id: tx/houston/bastian
  name: Bastian
  categories:
  - child-care
  address:
    street: 5051 Bellfort St
    city: Houston
    state: tx
    zip: '77033'
  place: '4835000'
  geo:
    lat: 29.66842
    lng: -95.34957
  phone: 713-732-5830
  sources:
  - acf/head-start-locations
  verified:
    'on': '2026-07-19'
    method: api
- id: tx/houston/bay-area-recovery-center
  name: Bay Area Recovery Center
  categories:
  - su-treatment
  address:
    street: 2915 South Sam Houston Parkway East
    city: Houston
    state: tx
    zip: '77047'
  place: '4835000'
  geo:
    lat: 29.59875
    lng: -95.38177
  phone: 832-742-9899
  website: https://www.bayarearecovery.com
  sources:
  - samhsa/findtreatment
  verified:
    'on': '2026-07-19'
    method: api
- id: tx/houston/bay-area-recovery-center-2
  name: Bay Area Recovery Center
  categories:
  - su-treatment
  address:
    street: 1100 Hercules Avenue
    city: Houston
    state: tx
    zip: '77058'
  place: '4835000'
  geo:
    lat: 29.55425
    lng: -95.11225
  phone: 832-284-4765
  website: https://www.bayarearecovery.com/about-us/houston-tx-facility/
  sources:
  - samhsa/findtreatment
  verified:
    'on': '2026-07-19'
    method: api
- id: tx/houston/bbwc-mobile-clinic
  name: BBWC - Mobile Clinic
  categories:
  - community-health-center
  address:
    street: 8785 W Bellfort Ave
    city: Houston
    state: tx
    zip: '77031'
  place: '4835000'
  geo:
    lat: 29.65525
    lng: -95.53111
  phone: 713-771-2292
  external_ids:
    bphc: BPS-H80-034297
  sources:
  - hrsa/health-center-sites
  verified:
    'on': '2026-07-19'
    method: api
- id: tx/houston/bee-busy-wellness-center
  name: Bee Busy Wellness Center
  categories:
  - community-health-center
  address:
    street: 8785 W Bellfort Ave
    city: Houston
    state: tx
    zip: '77031'
  place: '4835000'
  geo:
    lat: 29.65525
    lng: -95.53111
  phone: 713-771-2292
  external_ids:
    bphc: BPS-H80-014523
  sources:
  - hrsa/health-center-sites
  verified:
    'on': '2026-07-19'
    method: api
- id: tx/houston/bee-busy-wellness-center-bay-area
  name: Bee Busy Wellness Center - Bay Area
  categories:
  - community-health-center
  address:
    street: '1300 Bay Area Blvd # 200'
    city: Houston
    state: tx
    zip: '77058'
  place: '4835000'
  geo:
    lat: 29.5601
    lng: -95.1159
  phone: 713-771-2292
  website: https://mybbwc.org
  external_ids:
    bphc: BPS-H80-028019
  sources:
  - hrsa/health-center-sites
  verified:
    'on': '2026-07-19'
    method: api
- id: tx/houston/bee-busy-wellness-center-bissonnet
  name: Bee Busy Wellness Center - Bissonnet
  categories:
  - community-health-center
  address:
    street: 10039 Bissonnet St
    city: Houston
    state: tx
    zip: '77036'
  place: '4835000'
  geo:
    lat: 29.67456
    lng: -95.55409
  phone: 713-771-2292
  external_ids:
    bphc: BPS-H80-031362
  sources:
  - hrsa/health-center-sites
  verified:
    'on': '2026-07-19'
    method: api
- id: tx/houston/bee-busy-wellness-center-north
  name: Bee Busy Wellness Center - North
  categories:
  - community-health-center
  address:
    street: 13201 Northwest Fwy, Suite 500
    city: Houston
    state: tx
    zip: '77040'
  place: '4835000'
  geo:
    lat: 29.84829
    lng: -95.50681
  phone: 713-771-2292
  external_ids:
    bphc: BPS-H80-040808
  sources:
  - hrsa/health-center-sites
  verified:
    'on': '2026-07-19'
    method: api
- id: tx/houston/bellaire
  name: Bellaire
  place: '4835000'
  geo:
    lat: 29.67541
    lng: -95.50734
  provisional: true
  sources:
  - mutualaidhub/firestore
  verified:
    'on': '2026-07-19'
    method: api
  categories:
  - community-fridge
- id: tx/houston/benavidez-elementary
  name: Benavidez Elementary
  categories:
  - child-care
  address:
    street: 6262 Gulfton St
    city: Houston
    state: tx
    zip: '77081'
  place: '4835000'
  geo:
    lat: 29.71649
    lng: -95.49253
  phone: 713-778-3350
  sources:
  - acf/head-start-locations
  verified:
    'on': '2026-07-19'
    method: api
- id: tx/houston/bonham-elementary
  name: Bonham Elementary
  categories:
  - child-care
  address:
    street: 8302 Braes River Dr
    city: Houston
    state: tx
    zip: '77074'
  place: '4835000'
  geo:
    lat: 29.68752
    lng: -95.51958
  phone: 713-778-3480
  sources:
  - acf/head-start-locations
  verified:
    'on': '2026-07-19'
    method: api
- id: tx/houston/braeburn-elementary
  name: Braeburn Elementary
  categories:
  - child-care
  address:
    street: 5550 Pine St.
    city: Houston
    state: tx
    zip: '77081'
  place: '4835000'
  geo:
    lat: 29.69498
    lng: -95.48769
  phone: 713-295-5210
  sources:
  - acf/head-start-locations
  verified:
    'on': '2026-07-19'
    method: api
- id: tx/houston/browning
  name: Browning
  categories:
  - child-care
  address:
    street: 607 Northwood St
    city: Houston
    state: tx
    zip: '77009'
  place: '4835000'
  geo:
    lat: 29.79724
    lng: -95.3788
  phone: 713-869-1684
  sources:
  - acf/head-start-locations
  verified:
    'on': '2026-07-19'
    method: api
- id: tx/houston/career-and-recovery-resources-inc-acres-homes
  name: Career and Recovery Resources Inc Acres Homes
  categories:
  - su-treatment
  address:
    street: 6719 West Montgomery Road
    city: Houston
    state: tx
    zip: '77091'
  place: '4835000'
  geo:
    lat: 29.85749
    lng: -95.42218
  phone: 713-754-7000 x7042
  website: https://www.careerandrecovery.org
  sources:
  - samhsa/findtreatment
  verified:
    'on': '2026-07-19'
    method: api
- id: tx/houston/career-and-recovery-resources-inc-san-jacinto-st
  name: Career and Recovery Resources Inc San Jacinto Street
  categories:
  - su-treatment
  address:
    street: 2525 San Jacinto Street
    city: Houston
    state: tx
    zip: '77002'
  place: '4835000'
  geo:
    lat: 29.74451
    lng: -95.37191
  phone: 713-754-7000 x7042
  website: https://www.careerandrecovery.org
  sources:
  - samhsa/findtreatment
  verified:
    'on': '2026-07-19'
    method: api
- id: tx/houston/carol-and-charlie
  name: Carol and Charlie
  categories:
  - food-pantry
  place: '4835000'
  geo:
    lat: 29.74245
    lng: -95.33191
  external_ids:
    lfp: '5809'
  sources:
  - littlefreepantry/map
  verified:
    'on': '2026-07-19'
    method: scrape
- id: tx/houston/caroline-street-clinic
  name: CAROLINE STREET CLINIC
  categories:
  - community-health-center
  address:
    street: 1934 Caroline St
    city: Houston
    state: tx
    zip: '77002'
  place: '4835000'
  geo:
    lat: 29.74824
    lng: -95.3684
  phone: 713-286-6124
  website: https://www.homeless-healthcare.org
  external_ids:
    bphc: BPS-H80-018608
  sources:
  - hrsa/health-center-sites
  verified:
    'on': '2026-07-19'
    method: api
- id: tx/houston/cathedral-clinic
  name: CATHEDRAL CLINIC
  categories:
  - community-health-center
  address:
    street: 1212 Prairie St
    city: Houston
    state: tx
    zip: '77002'
  place: '4835000'
  geo:
    lat: 29.75923
    lng: -95.35981
  phone: 713-220-9730
  website: https://www.homeless-healthcare.org
  external_ids:
    bphc: BPS-H80-005482
  sources:
  - hrsa/health-center-sites
  verified:
    'on': '2026-07-19'
    method: api
- id: tx/houston/cenikor-foundation-odyssey-house-texas
  name: Cenikor Foundation Odyssey House Texas
  categories:
  - su-treatment
  address:
    street: 5629 Grapevine Street
    city: Houston
    state: tx
    zip: '77085'
  place: '4835000'
  geo:
    lat: 29.61604
    lng: -95.46797
  phone: 888-236-4567
  website: https://www.cenikor.org
  sources:
  - samhsa/findtreatment
  verified:
    'on': '2026-07-19'
    method: api
- id: tx/houston/center-for-behavioral-emergency-and-addiction-re
  name: Center for Behavioral Emergency and Addiction Research/UTHealth Houston
  categories:
  - su-treatment
  address:
    street: 7000 Fannin Street
    city: Houston
    state: tx
    zip: '77030'
  place: '4835000'
  geo:
    lat: 29.70295
    lng: -95.4032
  phone: 713-500-3597
  website: https://sbmi.uth.edu/cbear
  sources:
  - samhsa/findtreatment
  verified:
    'on': '2026-07-19'
    method: api
- id: tx/houston/center-for-discovery-houston
  name: Center for Discovery Houston
  categories:
  - su-treatment
  - mh-treatment
  address:
    street: 8588 Katy Freeway
    city: Houston
    state: tx
    zip: '77024'
  place: '4835000'
  geo:
    lat: 29.78719
    lng: -95.49791
  phone: 714-828-1800
  website: https://centerfordiscovery.com/locations/houston-outpatien
  sources:
  - samhsa/findtreatment
  verified:
    'on': '2026-07-19'
    method: api
- id: tx/houston/center-for-recovery-and-wellness-resources
  name: Center for Recovery and Wellness Resources
  categories:
  - su-treatment
  address:
    street: 4014 Market Street
    city: Houston
    state: tx
    zip: '77020'
  place: '4835000'
  geo:
    lat: 29.77213
    lng: -95.3306
  phone: 832-373-3050
  website: https://wellnessandrecovery.org
  sources:
  - samhsa/findtreatment
  verified:
    'on': '2026-07-19'
    method: api
- id: tx/houston/cheyenne-center-inc
  name: Cheyenne Center Inc
  categories:
  - su-treatment
  address:
    street: 2620 East Crosstimbers Street
    city: Houston
    state: tx
    zip: '77093'
  place: '4835000'
  geo:
    lat: 29.82821
    lng: -95.34401
  phone: 832-230-5435
  website: https://www.cheyennecenter.com
  sources:
  - samhsa/findtreatment
  verified:
    'on': '2026-07-19'
    method: api
- id: tx/houston/cheyenne-center-inc-residential-services
  name: Cheyenne Center Inc Residential Services
  categories:
  - su-treatment
  address:
    street: 10525 Eastex Freeway
    city: Houston
    state: tx
    zip: '77093'
  place: '4835000'
  geo:
    lat: 29.86579
    lng: -95.33355
  phone: 713-691-4898
  website: https://www.cheyennecenter.com
  sources:
  - samhsa/findtreatment
  verified:
    'on': '2026-07-19'
    method: api
- id: tx/houston/codwell-elementary
  name: Codwell Elementary
  categories:
  - child-care
  address:
    street: 5225 Tavenor Ln
    city: Houston
    state: tx
    zip: '77048'
  place: '4835000'
  geo:
    lat: 29.63448
    lng: -95.345
  phone: 713-732-3580
  sources:
  - acf/head-start-locations
  verified:
    'on': '2026-07-19'
    method: api
- id: tx/houston/community-health-network-scarsdale-family-health
  name: Community Health Network Scarsdale Family Health Clinic
  categories:
  - su-treatment
  - mh-treatment
  address:
    street: 10851 Scarsdale Boulevard
    city: Houston
    state: tx
    zip: '77089'
  place: '4835000'
  geo:
    lat: 29.58466
    lng: -95.21577
  phone: 281-824-1480
  website: https://www.mychn.org
  sources:
  - samhsa/findtreatment
  verified:
    'on': '2026-07-19'
    method: api
- id: tx/houston/community-partnerships-fifthward-early-childhood
  name: Community Partnerships Fifthward Early Childhood Development Center
  categories:
  - child-care
  address:
    street: 3917 Collingsworth St
    city: Houston
    state: tx
    zip: '77026'
  place: '4835000'
  geo:
    lat: 29.79423
    lng: -95.33129
  phone: 713-635-7900
  sources:
  - acf/head-start-locations
  verified:
    'on': '2026-07-19'
    method: api
- id: tx/houston/compton
  name: Compton
  categories:
  - child-care
  address:
    street: 9720 Spaulding St
    city: Houston
    state: tx
    zip: '77016'
  place: '4835000'
  geo:
    lat: 29.85143
    lng: -95.30403
  phone: 713-635-4142
  sources:
  - acf/head-start-locations
  verified:
    'on': '2026-07-19'
    method: api
- id: tx/houston/cook-road-head-start
  name: Cook Road Head Start
  categories:
  - child-care
  address:
    street: 6959 Cook Rd
    city: Houston
    state: tx
    zip: '77072'
  place: '4835000'
  geo:
    lat: 29.70101
    lng: -95.59534
  phone: 832-351-2794
  sources:
  - acf/head-start-locations
  verified:
    'on': '2026-07-19'
    method: api
- id: tx/houston/coolwood-early-head-start
  name: Coolwood  Early Head Start
  categories:
  - child-care
  address:
    street: 767 Coolwood Dr
    city: Houston
    state: tx
    zip: '77013'
  place: '4835000'
  geo:
    lat: 29.77777
    lng: -95.22397
  phone: 713-672-9363
  sources:
  - acf/head-start-locations
  verified:
    'on': '2026-07-19'
    method: api
- id: tx/houston/coolwood-head-start
  name: Coolwood Head Start
  categories:
  - child-care
  address:
    street: 767 Coolwood Dr
    city: Houston
    state: tx
    zip: '77013'
  place: '4835000'
  geo:
    lat: 29.77777
    lng: -95.22397
  phone: 713-451-9024
  sources:
  - acf/head-start-locations
  verified:
    'on': '2026-07-19'
    method: api
- id: tx/houston/council-on-recovery
  name: Council on Recovery
  categories:
  - su-treatment
  address:
    street: 303 Jackson Hill Street
    city: Houston
    state: tx
    zip: '77007'
  place: '4835000'
  geo:
    lat: 29.76399
    lng: -95.40205
  phone: 713-914-0556
  website: https://www.councilonrecovery.org
  sources:
  - samhsa/findtreatment
  verified:
    'on': '2026-07-19'
    method: api
- id: tx/houston/dacoma-ii
  name: Dacoma II
  categories:
  - child-care
  address:
    street: 4301 Dacoma St
    city: Houston
    state: tx
    zip: '77092'
  place: '4835000'
  geo:
    lat: 29.8087
    lng: -95.45169
  phone: 713-812-0033
  sources:
  - acf/head-start-locations
  verified:
    'on': '2026-07-19'
    method: api
- id: tx/houston/dekaney
  name: Dekaney
  categories:
  - child-care
  address:
    street: 22352 Imperial Valley Dr
    city: Houston
    state: tx
    zip: '77073'
  place: '4835000'
  geo:
    lat: 30.01972
    lng: -95.41768
  phone: 832-868-0045
  sources:
  - acf/head-start-locations
  verified:
    'on': '2026-07-19'
    method: api
- id: tx/houston/delegate-site-aisd-child-development-center
  name: Delegate Site - AISD Child Development Center
  categories:
  - child-care
  address:
    street: 15014 Aldine Westfield Rd
    city: Houston
    state: tx
    zip: '77032'
  place: '4835000'
  geo:
    lat: 29.93626
    lng: -95.35511
  phone: 281-985-7469
  sources:
  - acf/head-start-locations
  verified:
    'on': '2026-07-19'
    method: api
- id: tx/houston/delegate-site-desantiago-ec-pk-head-start-ct
  name: Delegate Site-deSantiago EC/PK Head Start Ct
  categories:
  - child-care
  address:
    street: 1420 Aldine Meadows Rd
    city: Houston
    state: tx
    zip: '77032'
  place: '4835000'
  geo:
    lat: 29.93474
    lng: -95.36569
  phone: 281-985-7500
  sources:
  - acf/head-start-locations
  verified:
    'on': '2026-07-19'
    method: api
- id: tx/houston/delegate-site-garcia-leza-ec-pk-head-start
  name: Delegate Site-Garcia-Leza EC/PK & Head Start
  categories:
  - child-care
  address:
    street: 5311 Mount Houston Rd
    city: Houston
    state: tx
    zip: '77093'
  place: '4835000'
  geo:
    lat: 29.89218
    lng: -95.31107
  phone: 281-985-6037
  sources:
  - acf/head-start-locations
  verified:
    'on': '2026-07-19'
    method: api
- id: tx/houston/delegate-site-griggs-ec-pk-head-start-ctr
  name: Delegate Site-Griggs EC/PK & Head Start Ctr.
  categories:
  - child-care
  address:
    street: 801 Regional Park Dr
    city: Houston
    state: tx
    zip: '77060'
  place: '4835000'
  geo:
    lat: 29.9591
    lng: -95.39418
  phone: 281-985-3760
  sources:
  - acf/head-start-locations
  verified:
    'on': '2026-07-19'
    method: api
- id: tx/houston/delegate-site-hinojosa-ec-pk-head-start-ct
  name: Delegate Site-Hinojosa EC/PK & Head Start Ct
  categories:
  - child-care
  address:
    street: 1620 Lauder Rd
    city: Houston
    state: tx
    zip: '77039'
  place: '4835000'
  geo:
    lat: 29.91313
    lng: -95.36319
  phone: 281-985-4750
  sources:
  - acf/head-start-locations
  verified:
    'on': '2026-07-19'
    method: api
- id: tx/houston/delegate-site-keeble-ec-pk-head-start-ctr
  name: Delegate Site-Keeble EC/PK & Head Start Ctr.
  categories:
  - child-care
  address:
    street: 203 W Gulf Bank Rd
    city: Houston
    state: tx
    zip: '77037'
  place: '4835000'
  geo:
    lat: 29.88925
    lng: -95.39753
  phone: 281-878-6860
  sources:
  - acf/head-start-locations
  verified:
    'on': '2026-07-19'
    method: api
- id: tx/houston/delegate-site-kujawa-ec-pk-head-start-ct
  name: Delegate Site-Kujawa EC/PK Head Start Ct
  categories:
  - child-care
  address:
    street: 7111 Fallbrook Dr
    city: Houston
    state: tx
    zip: '77086'
  place: '4835000'
  geo:
    lat: 29.92464
    lng: -95.49564
  phone: 281-878-1514
  sources:
  - acf/head-start-locations
  verified:
    'on': '2026-07-19'
    method: api
- id: tx/houston/delegate-site-reece-academy
  name: Delegate Site-Reece Academy
  categories:
  - child-care
  address:
    street: 2223 Esther Dr
    city: Houston
    state: tx
    zip: '77088'
  place: '4835000'
  geo:
    lat: 29.87343
    lng: -95.4442
  phone: 281-878-0800
  sources:
  - acf/head-start-locations
  verified:
    'on': '2026-07-19'
    method: api
- id: tx/houston/delegate-site-stovall-ec-pk-head-start
  name: Delegate Site-Stovall EC/PK & Head Start
  categories:
  - child-care
  address:
    street: 3025 Ellington St
    city: Houston
    state: tx
    zip: '77088'
  place: '4835000'
  geo:
    lat: 29.88058
    lng: -95.4564
  phone: 281-591-8500
  sources:
  - acf/head-start-locations
  verified:
    'on': '2026-07-19'
    method: api
- id: tx/houston/delegate-site-vardeman-ec-pk-head-start
  name: Delegate Site-Vardeman EC/PK & Head Start
  categories:
  - child-care
  address:
    street: 3302 Connorvale Rd
    city: Houston
    state: tx
    zip: '77039'
  place: '4835000'
  geo:
    lat: 29.90789
    lng: -95.33942
  phone: 281-985-3740
  sources:
  - acf/head-start-locations
  verified:
    'on': '2026-07-19'
    method: api
- id: tx/houston/delegate-site-vines-ec-pk-head-start-ctr
  name: Delegate Site-Vines EC/PK & Head Start Ctr.
  categories:
  - child-care
  address:
    street: 7220 Inwood Park Dr
    city: Houston
    state: tx
    zip: '77088'
  place: '4835000'
  geo:
    lat: 29.86602
    lng: -95.45408
  phone: 281-878-7950
  sources:
  - acf/head-start-locations
  verified:
    'on': '2026-07-19'
    method: api
- id: tx/houston/dental-mobile-unit
  name: Dental Mobile Unit
  categories:
  - community-health-center
  address:
    street: 5656 Kelley St
    city: Houston
    state: tx
    zip: '77026'
  place: '4835000'
  geo:
    lat: 29.81193
    lng: -95.31188
  phone: 346-426-0500
  external_ids:
    bphc: BPS-H80-033388
  sources:
  - hrsa/health-center-sites
  verified:
    'on': '2026-07-19'
    method: api
- id: tx/houston/denver-harbor-ancillary-services
  name: Denver Harbor Ancillary Services
  categories:
  - community-health-center
  address:
    street: 424 Hahlo St
    city: Houston
    state: tx
    zip: '77020'
  place: '4835000'
  geo:
    lat: 29.78064
    lng: -95.30986
  phone: 713-674-3326
  website: https://www.denverharborclinic.org
  external_ids:
    bphc: BPS-H80-004149
  sources:
  - hrsa/health-center-sites
  verified:
    'on': '2026-07-19'
    method: api
- id: tx/houston/denver-harbor-family-health-center
  name: Denver Harbor Family Health Center
  categories:
  - community-health-center
  address:
    street: 424B Hahlo St
    city: Houston
    state: tx
    zip: '77020'
  place: '4835000'
  geo:
    lat: 29.78063
    lng: -95.30953
  phone: 713-674-3326
  website: https://www.denverharborclinic.org
  external_ids:
    bphc: BPS-H80-002728
  sources:
  - hrsa/health-center-sites
  verified:
    'on': '2026-07-19'
    method: api
- id: tx/houston/divine-counseling-service-llc
  name: Divine Counseling Service LLC
  categories:
  - su-treatment
  - mh-treatment
  address:
    street: 6201 Bonhomme Road
    city: Houston
    state: tx
    zip: '77036'
  place: '4835000'
  geo:
    lat: 29.71169
    lng: -95.51306
  phone: 832-864-3347 x203
  website: https://divinecounselingservice.org/
  sources:
  - samhsa/findtreatment
  verified:
    'on': '2026-07-19'
    method: api
- id: tx/houston/dogan
  name: Dogan
  categories:
  - child-care
  address:
    street: 4202 Liberty Rd
    city: Houston
    state: tx
    zip: '77026'
  place: '4835000'
  geo:
    lat: 29.78504
    lng: -95.32839
  phone: 713-672-0207
  sources:
  - acf/head-start-locations
  verified:
    'on': '2026-07-19'
    method: api
- id: tx/houston/early-head-start
  name: Early Head Start
  categories:
  - child-care
  address:
    street: 2020 Solo St
    city: Houston
    state: tx
    zip: '77020'
  place: '4835000'
  geo:
    lat: 29.77936
    lng: -95.32026
  phone: 713-222-7284
  sources:
  - acf/head-start-locations
  verified:
    'on': '2026-07-19'
    method: api
- id: tx/houston/eating-recovery-center
  name: Eating Recovery Center
  categories:
  - su-treatment
  - mh-treatment
  address:
    street: 7515 South Main Street
    city: Houston
    state: tx
    zip: '77030'
  place: '4835000'
  geo:
    lat: 29.69864
    lng: -95.41044
  phone: 713-589-8638
  website: https://www.eatingrecoverycenter.com
  sources:
  - samhsa/findtreatment
  verified:
    'on': '2026-07-19'
    method: api
- id: tx/houston/eickenroht-elementary
  name: Eickenroht Elementary
  categories:
  - child-care
  address:
    street: 15252 Grand Point Rd
    city: Houston
    state: tx
    zip: '77090'
  place: '4835000'
  geo:
    lat: 29.98795
    lng: -95.42958
  phone: 281-891-8840
  sources:
  - acf/head-start-locations
  verified:
    'on': '2026-07-19'
    method: api
- id: tx/houston/el-centro-de-corazon-eastwood
  name: EL CENTRO DE CORAZON-EASTWOOD
  categories:
  - community-health-center
  address:
    street: 412 Telephone Rd
    city: Houston
    state: tx
    zip: '77023'
  place: '4835000'
  geo:
    lat: 29.73773
    lng: -95.33291
  phone: 713-926-6229
  website: https://www.elcentrdecorazon.org
  external_ids:
    bphc: BPS-H80-004384
  sources:
  - hrsa/health-center-sites
  verified:
    'on': '2026-07-19'
    method: api
- id: tx/houston/el-centro-de-corazon-john-s-dunn
  name: El Centro de Corazon- John S. Dunn
  categories:
  - community-health-center
  address:
    street: 7635 Canal St
    city: Houston
    state: tx
    zip: '77012'
  place: '4835000'
  geo:
    lat: 29.73579
    lng: -95.28697
  phone: 713-660-1880
  website: https://www.elcentrodecorazon.org
  external_ids:
    bphc: BPS-H80-008833
  sources:
  - hrsa/health-center-sites
  verified:
    'on': '2026-07-19'
    method: api
- id: tx/houston/el-centro-de-corazon-magnolia
  name: EL CENTRO DE CORAZON - MAGNOLIA
  categories:
  - community-health-center
  address:
    street: 7037 Capitol St
    city: Houston
    state: tx
    zip: '77011'
  place: '4835000'
  geo:
    lat: 29.73459
    lng: -95.30105
  phone: 713-660-1880
  external_ids:
    bphc: BPS-H80-004305
  sources:
  - hrsa/health-center-sites
  verified:
    'on': '2026-07-19'
    method: api
- id: tx/houston/el-dorado-texas-community-services-durham-drive
  name: El Dorado Texas Community Services Durham Drive Health Services
  categories:
  - su-treatment
  address:
    street: 1213 Durham Drive
    city: Houston
    state: tx
    zip: '77007'
  place: '4835000'
  geo:
    lat: 29.77246
    lng: -95.41076
  phone: 713-636-9138
  website: https://americanhealthservices.org
  sources:
  - samhsa/findtreatment
  verified:
    'on': '2026-07-19'
    method: api
- id: tx/houston/executive-leadership-suites
  name: Executive Leadership Suites
  categories:
  - community-health-center
  address:
    street: Bissonnet St
    city: Houston
    state: tx
    zip: '77036'
  place: '4835000'
  geo:
    lat: 29.67519
    lng: -95.5511
  phone: 713-771-2292
  external_ids:
    bphc: BPS-H80-040249
  sources:
  - hrsa/health-center-sites
  verified:
    'on': '2026-07-19'
    method: api
- id: tx/houston/family-houston-bay-area-district-office
  name: Family Houston Bay Area District Office
  categories:
  - mh-treatment
  address:
    street: '- - -'
    city: Houston
    state: tx
    zip: '77058'
  place: '4835000'
  geo:
    lat: 29.5828
    lng: -95.0861
  phone: 713-861-4849
  website: https://www.familyhouston.org
  sources:
  - samhsa/findtreatment
  verified:
    'on': '2026-07-19'
    method: api
- id: tx/houston/family-houston-central
  name: Family Houston Central
  categories:
  - mh-treatment
  address:
    street: '- - -'
    city: Houston
    state: tx
    zip: '77007'
  place: '4835000'
  geo:
    lat: 29.7716
    lng: -95.4146
  phone: 713-861-4849
  website: https://www.familyhouston.org
  sources:
  - samhsa/findtreatment
  verified:
    'on': '2026-07-19'
    method: api
- id: tx/houston/family-solutions-of-louisiana
  name: Family Solutions of Louisiana
  categories:
  - su-treatment
  - mh-treatment
  address:
    street: 350 North Sam Houston Parkway East
    city: Houston
    state: tx
    zip: '77060'
  place: '4835000'
  geo:
    lat: 29.93864
    lng: -95.39879
  phone: 919-263-9293 x41551
  website: https://www.familysolutionsusa.com
  sources:
  - samhsa/findtreatment
  verified:
    'on': '2026-07-19'
    method: api
- id: tx/houston/fonwood
  name: Fonwood
  categories:
  - child-care
  address:
    street: 9709 Mesa Dr
    city: Houston
    state: tx
    zip: '77078'
  place: '4835000'
  geo:
    lat: 29.85479
    lng: -95.26487
  phone: 713-556-3830
  sources:
  - acf/head-start-locations
  verified:
    'on': '2026-07-19'
    method: api
- id: tx/houston/foster
  name: Foster
  categories:
  - child-care
  address:
    street: 3919 Ward St
    city: Houston
    state: tx
    zip: '77021'
  place: '4835000'
  geo:
    lat: 29.69241
    lng: -95.36041
  phone: 713-440-0113
  sources:
  - acf/head-start-locations
  verified:
    'on': '2026-07-19'
    method: api
- id: tx/houston/gabriela-mistral-early-childhood-center
  name: Gabriela Mistral Early Childhood Center
  categories:
  - child-care
  address:
    street: 6203 Jessamine St
    city: Houston
    state: tx
    zip: '77081'
  place: '4835000'
  geo:
    lat: 29.70136
    lng: -95.4915
  phone: 713-773-6253
  sources:
  - acf/head-start-locations
  verified:
    'on': '2026-07-19'
    method: api
- id: tx/houston/galena-park-act
  name: Galena Park - ACT
  categories:
  - community-health-center
  address:
    street: 13940 Bonham St
    city: Houston
    state: tx
    zip: '77015'
  place: '4835000'
  geo:
    lat: 29.77612
    lng: -95.17684
  phone: 832-548-5000
  website: https://legacycommunityhealth.org
  external_ids:
    bphc: BPS-H80-035433
  sources:
  - hrsa/health-center-sites
  verified:
    'on': '2026-07-19'
    method: api
- id: tx/houston/garden-villa
  name: Garden Villa
  categories:
  - child-care
  address:
    street: 6724 Telephone Rd
    city: Houston
    state: tx
    zip: '77061'
  place: '4835000'
  geo:
    lat: 29.6658
    lng: -95.28955
  phone: 713-649-9016
  sources:
  - acf/head-start-locations
  verified:
    'on': '2026-07-19'
    method: api
- id: tx/houston/garden-villas-elementary
  name: Garden Villas Elementary
  categories:
  - child-care
  address:
    street: 7185 Santa Fe Dr
    city: Houston
    state: tx
    zip: '77061'
  place: '4835000'
  geo:
    lat: 29.66134
    lng: -95.30376
  phone: 713-845-7484
  sources:
  - acf/head-start-locations
  verified:
    'on': '2026-07-19'
    method: api
- id: tx/houston/green-valley-elementary
  name: Green Valley Elementary
  categories:
  - community-health-center
  address:
    street: 13350 Woodforest Blvd
    city: Houston
    state: tx
    zip: '77015'
  place: '4835000'
  geo:
    lat: 29.79147
    lng: -95.18854
  phone: 832-548-5000
  external_ids:
    bphc: BPS-H80-031126
  sources:
  - hrsa/health-center-sites
  verified:
    'on': '2026-07-19'
    method: api
- id: tx/houston/hacs-bautista
  name: 'HACS: Bautista'
  categories:
  - community-health-center
  address:
    street: 902 Frostwood Dr, Suite 142
    city: Houston
    state: tx
    zip: '77024'
  place: '4835000'
  geo:
    lat: 29.78026
    lng: -95.54685
  phone: 713-827-8266
  website: https://www.hacstxs.org
  external_ids:
    bphc: BPS-H80-012486
  sources:
  - hrsa/health-center-sites
  verified:
    'on': '2026-07-19'
    method: api
- id: tx/houston/hacs-main-campus
  name: 'HACS: Main Campus'
  categories:
  - community-health-center
  address:
    street: 2150 W 18th St
    city: Houston
    state: tx
    zip: '77008'
  place: '4835000'
  geo:
    lat: 29.80113
    lng: -95.43733
  phone: 713-426-0027
  website: https://www.avenue360.org
  external_ids:
    bphc: BPS-H80-009621
  sources:
  - hrsa/health-center-sites
  verified:
    'on': '2026-07-19'
    method: api
- id: tx/houston/hacs-spring-cypress
  name: 'HACS: Spring-Cypress'
  categories:
  - community-health-center
  address:
    street: 17010 Sugar Pine Dr
    city: Houston
    state: tx
    zip: '77090'
  place: '4835000'
  geo:
    lat: 30.01075
    lng: -95.45961
  phone: 713-426-0027
  website: https://www.hacstxs.org
  external_ids:
    bphc: BPS-H80-013540
  sources:
  - hrsa/health-center-sites
  verified:
    'on': '2026-07-19'
    method: api
- id: tx/houston/halpin-early-childhood-center
  name: Halpin Early Childhood Center
  categories:
  - child-care
  address:
    street: 10901 Sandpiper Dr
    city: Houston
    state: tx
    zip: '77096'
  place: '4835000'
  geo:
    lat: 29.66192
    lng: -95.50248
  phone: 713-778-6720
  sources:
  - acf/head-start-locations
  verified:
    'on': '2026-07-19'
    method: api
- id: tx/houston/harmony-house-respite-center
  name: Harmony House Respite Center
  categories:
  - community-health-center
  address:
    street: 602 Girard St
    city: Houston
    state: tx
    zip: '77007'
  place: '4835000'
  geo:
    lat: 29.76768
    lng: -95.36399
  phone: 713-221-6219
  external_ids:
    bphc: BPS-H80-013530
  sources:
  - hrsa/health-center-sites
  verified:
    'on': '2026-07-19'
    method: api
- id: tx/houston/harris-center-for-mental-health-and-idd-bristow
  name: Harris Center for Mental Health and IDD/Bristow Center/PATH
  categories:
  - su-treatment
  - mh-treatment
  address:
    street: 2627 Caroline Street
    city: Houston
    state: tx
    zip: '77004'
  place: '4835000'
  geo:
    lat: 29.74289
    lng: -95.37183
  phone: 713-970-7413
  website: https://www.theharriscenter.org/
  sources:
  - samhsa/findtreatment
  verified:
    'on': '2026-07-19'
    method: api
- id: tx/houston/harris-center-for-mental-health-and-idd-ne-clini
  name: Harris Center for Mental Health and IDD/NE Clinic
  categories:
  - su-treatment
  - mh-treatment
  address:
    street: 7200 North Loop East
    city: Houston
    state: tx
    zip: '77028'
  place: '4835000'
  geo:
    lat: 29.80386
    lng: -95.29642
  phone: 713-970-8700
  website: https://www.theharriscenter.org/
  sources:
  - samhsa/findtreatment
  verified:
    'on': '2026-07-19'
    method: api
- id: tx/houston/harris-center-for-mh-and-idd-swamh-harris-center
  name: Harris Center for MH and IDD SWAMH Harris Center for MH and IDD
  categories:
  - su-treatment
  - mh-treatment
  address:
    street: 9401 SW Freeway
    city: Houston
    state: tx
    zip: '77074'
  place: '4835000'
  geo:
    lat: 29.67806
    lng: -95.53784
  phone: 713-970-3835
  website: https://www.theharriscenter.or
  sources:
  - samhsa/findtreatment
  verified:
    'on': '2026-07-19'
    method: api
- id: tx/houston/harris-county-housing-authority
  name: Harris County Housing Authority
  categories:
  - housing-assistance
  address: {street: 1933 Hussion St, city: Houston, state: tx, zip: '77003'}
  description: Housing Choice Voucher (Section 8) agency
  place: '4835000'
  geo: {lat: 29.73526, lng: -95.34354}
  phone: 713-578-2100
  sources:
  - hud/resource-locator
  verified: {'on': '2026-07-19', method: api}
- id: tx/houston/harris-ctr-for-mental-health-and-idd-northwest-c
  name: Harris Ctr for Mental Health and IDD Northwest Clinic
  categories:
  - su-treatment
  - mh-treatment
  address:
    street: 3737 Dacoma Street
    city: Houston
    state: tx
    zip: '77092'
  place: '4835000'
  geo:
    lat: 29.80865
    lng: -95.44692
  phone: 713-970-8400
  website: https://www.theharriscenter.org
  sources:
  - samhsa/findtreatment
  verified:
    'on': '2026-07-19'
    method: api
- id: tx/houston/harris-ctr-for-mental-health-and-idd-southeast
  name: Harris Ctr for Mental Health and IDD Southeast
  categories:
  - su-treatment
  - mh-treatment
  address:
    street: 5901 Long Drive
    city: Houston
    state: tx
    zip: '77087'
  place: '4835000'
  geo:
    lat: 29.695
    lng: -95.32447
  phone: 713-970-4444
  website: https://
  sources:
  - samhsa/findtreatment
  verified:
    'on': '2026-07-19'
    method: api
- id: tx/houston/healthcare-for-the-homeless-houston
  name: Healthcare for the Homeless Houston
  categories:
  - su-treatment
  - mh-treatment
  address:
    street: 1934 Caroline Street
    city: Houston
    state: tx
    zip: '77002'
  place: '4835000'
  geo:
    lat: 29.74825
    lng: -95.36841
  phone: 713-286-6050
  website: https://www.homeless-healthcare.org
  sources:
  - samhsa/findtreatment
  verified:
    'on': '2026-07-19'
    method: api
- id: tx/houston/heights-treatment
  name: Heights Treatment
  categories:
  - su-treatment
  - mh-treatment
  address:
    street: 112 East 10th Street
    city: Houston
    state: tx
    zip: '77008'
  place: '4835000'
  geo:
    lat: 29.78863
    lng: -95.39682
  phone: 832-979-3625
  website: https://www.theheightstreatment.com
  sources:
  - samhsa/findtreatment
  verified:
    'on': '2026-07-19'
    method: api
- id: tx/houston/heritage-behavioral-health
  name: Heritage Behavioral Health
  categories:
  - su-treatment
  - mh-treatment
  address:
    street: 1325 Campbell Road
    city: Houston
    state: tx
    zip: '77055'
  place: '4835000'
  geo:
    lat: 29.79359
    lng: -95.51429
  phone: 713-365-9015
  website: https://www.heritagebehavioral.com
  sources:
  - samhsa/findtreatment
  verified:
    'on': '2026-07-19'
    method: api
- id: tx/houston/hiram-clarke-head-start
  name: Hiram Clarke Head Start
  categories:
  - child-care
  address:
    street: 3810 W Fuqua St
    city: Houston
    state: tx
    zip: '77045'
  place: '4835000'
  geo:
    lat: 29.61358
    lng: -95.43404
  phone: 713-491-6178
  sources:
  - acf/head-start-locations
  verified:
    'on': '2026-07-19'
    method: api
- id: tx/houston/hope-aldine
  name: HOPE Aldine
  categories:
  - community-health-center
  address:
    street: 3000 Aldine Mail Route Rd
    city: Houston
    state: tx
    zip: '77039'
  place: '4835000'
  geo:
    lat: 29.90198
    lng: -95.34324
  phone: 713-773-0803
  website: https://www.hopechc.org
  external_ids:
    bphc: BPS-H80-027684
  sources:
  - hrsa/health-center-sites
  verified:
    'on': '2026-07-19'
    method: api
- id: tx/houston/hope-aldine-meadows-school-based-clinic
  name: HOPE Aldine Meadows School Based Clinic
  categories:
  - community-health-center
  address:
    street: 2112 Aldine Meadows Rd
    city: Houston
    state: tx
    zip: '77032'
  place: '4835000'
  geo:
    lat: 29.93464
    lng: -95.35294
  phone: 713-773-0803
  external_ids:
    bphc: BPS-H80-035752
  sources:
  - hrsa/health-center-sites
  verified:
    'on': '2026-07-19'
    method: api
- id: tx/houston/hope-and-healing-center-and-institute
  name: Hope and Healing Center and Institute
  categories:
  - su-treatment
  - mh-treatment
  address:
    street: 717 Sage Road
    city: Houston
    state: tx
    zip: '77056'
  place: '4835000'
  geo:
    lat: 29.76102
    lng: -95.46463
  phone: 713-871-1004 x624
  website: https://www.hopeandhealingcenter.org
  sources:
  - samhsa/findtreatment
  verified:
    'on': '2026-07-19'
    method: api
- id: tx/houston/hope-clinic-alief
  name: HOPE Clinic Alief
  categories:
  - community-health-center
  address:
    street: 13930 Bellaire Blvd
    city: Houston
    state: tx
    zip: '77083'
  place: '4835000'
  geo:
    lat: 29.70473
    lng: -95.62829
  phone: 713-773-0803
  website: https://www.hopechc.org
  external_ids:
    bphc: BPS-H80-036272
  sources:
  - hrsa/health-center-sites
  verified:
    'on': '2026-07-19'
    method: api
- id: tx/houston/hope-clinic-west
  name: HOPE Clinic WEST
  categories:
  - community-health-center
  address:
    street: '12121 Westheimer Rd, #205'
    city: Houston
    state: tx
    zip: '77077'
  place: '4835000'
  geo:
    lat: 29.73623
    lng: -95.59385
  phone: 281-558-2737
  website: https://ww.hopechc.org
  external_ids:
    bphc: BPS-H80-018614
  sources:
  - hrsa/health-center-sites
  verified:
    'on': '2026-07-19'
    method: api
- id: tx/houston/houston-behavioral-healthcare-hospital-outpatien
  name: Houston Behavioral Healthcare Hospital Outpatient Services
  categories:
  - su-treatment
  - mh-treatment
  address:
    street: 2801 Gessner Road
    city: Houston
    state: tx
    zip: '77080'
  place: '4835000'
  geo:
    lat: 29.82358
    lng: -95.5459
  phone: 832-834-7736
  website: https://www.houstonbehavioralhealth.com/services/outpatient-services
  sources:
  - samhsa/findtreatment
  verified:
    'on': '2026-07-19'
    method: api
- id: tx/houston/houston-housing-authority
  name: Houston Housing Authority
  categories:
  - housing-assistance
  address: {street: 2640 Fountain View Dr, city: Houston, state: tx, zip: '77057'}
  description: Public housing and Housing Choice Voucher agency
  place: '4835000'
  geo: {lat: 29.73987, lng: -95.48481}
  phone: 713-260-0500
  sources:
  - hud/resource-locator
  verified: {'on': '2026-07-19', method: api}
- id: tx/houston/houston-treatment-center-inc
  name: Houston Treatment Center Inc
  categories:
  - su-treatment
  address:
    street: 1050 Edgebrook Drive
    city: Houston
    state: tx
    zip: '77034'
  place: '4835000'
  geo:
    lat: 29.64315
    lng: -95.23844
  phone: 713-947-1773
  website: https://
  sources:
  - samhsa/findtreatment
  verified:
    'on': '2026-07-19'
    method: api
- id: tx/houston/ibn-sina-foundation
  name: IBN Sina Foundation
  categories:
  - su-treatment
  - mh-treatment
  address:
    street: 11226 Wilcrest Drive
    city: Houston
    state: tx
    zip: '77099'
  place: '4835000'
  geo:
    lat: 29.65874
    lng: -95.57047
  phone: 281-977-7462
  website: https://www.ibnsinafoundation.org
  sources:
  - samhsa/findtreatment
  verified:
    'on': '2026-07-19'
    method: api
- id: tx/houston/into-action-recovery-centers-outpatient-services
  name: Into Action Recovery Centers Outpatient Services
  categories:
  - su-treatment
  address:
    street: 17337 El Camino Real
    city: Houston
    state: tx
    zip: '77058'
  place: '4835000'
  geo:
    lat: 29.5514
    lng: -95.11325
  phone: 832-224-4967
  website: https://www.intoactionrecovery.com
  sources:
  - samhsa/findtreatment
  verified:
    'on': '2026-07-19'
    method: api
- id: tx/houston/into-action-recovery-centers-residential-service
  name: Into Action Recovery Centers Residential Services
  categories:
  - su-treatment
  address:
    street: 17250 El Camino Real
    city: Houston
    state: tx
    zip: '77058'
  place: '4835000'
  geo:
    lat: 29.55132
    lng: -95.11495
  phone: 281-488-2280
  website: https://www.intoactionrecovery.com
  sources:
  - samhsa/findtreatment
  verified:
    'on': '2026-07-19'
    method: api
- id: tx/houston/j-w-oates-elementary-school
  name: J.W. Oates Elementary School
  categories:
  - community-health-center
  address:
    street: 10044 Wallisville Rd
    city: Houston
    state: tx
    zip: '77013'
  place: '4835000'
  geo:
    lat: 29.79366
    lng: -95.25289
  phone: 713-671-3800
  external_ids:
    bphc: BPS-H80-018397
  sources:
  - hrsa/health-center-sites
  verified:
    'on': '2026-07-19'
    method: api
- id: tx/houston/janoswki-elementary
  name: Janoswki Elementary
  categories:
  - child-care
  address:
    street: 7500 Bauman Rd
    city: Houston
    state: tx
    zip: '77022'
  place: '4835000'
  geo:
    lat: 29.82962
    lng: -95.37079
  sources:
  - acf/head-start-locations
  verified:
    'on': '2026-07-19'
    method: api
- id: tx/houston/jensen-drive-head-start
  name: Jensen Drive Head Start
  categories:
  - child-care
  address:
    street: 2702 Aldine Westfield Rd
    city: Houston
    state: tx
    zip: '77093'
  place: '4835000'
  geo:
    lat: 29.84306
    lng: -95.3437
  phone: 713-742-8952
  sources:
  - acf/head-start-locations
  verified:
    'on': '2026-07-19'
    method: api
- id: tx/houston/joan-and-stanford-alexander-jewish-family-servic
  name: Joan and Stanford Alexander Jewish Family Service
  categories:
  - mh-treatment
  address:
    street: 4131 South Braeswood Boulevard
    city: Houston
    state: tx
    zip: '77025'
  place: '4835000'
  geo:
    lat: 29.68794
    lng: -95.44412
  phone: 713-667-9336
  website: https://www.alexanderjfs.org
  sources:
  - samhsa/findtreatment
  verified:
    'on': '2026-07-19'
    method: api
- id: tx/houston/john-s-dunn-behavioral-sciences-center
  name: John S Dunn Behavioral Sciences Center
  categories:
  - su-treatment
  - mh-treatment
  address:
    street: 5615 H Mark Crosswell Jr Street
    city: Houston
    state: tx
    zip: '77021'
  place: '4835000'
  geo:
    lat: 29.71116
    lng: -95.37474
  phone: 713-500-1500
  website: https://uth.edu/dcb
  sources:
  - samhsa/findtreatment
  verified:
    'on': '2026-07-19'
    method: api
- id: tx/houston/kelso
  name: Kelso
  categories:
  - child-care
  address:
    street: 5800 Southmund St
    city: Houston
    state: tx
    zip: '77033'
  place: '4835000'
  geo:
    lat: 29.68215
    lng: -95.33363
  phone: 713-845-7451
  sources:
  - acf/head-start-locations
  verified:
    'on': '2026-07-19'
    method: api
- id: tx/houston/kingdom-builders-center-early-head-start-head-st
  name: Kingdom Builders Center Early Head Start/Head Start
  categories:
  - child-care
  address:
    street: 6011 W Orem Dr
    city: Houston
    state: tx
    zip: '77085'
  place: '4835000'
  geo:
    lat: 29.62683
    lng: -95.48971
  phone: 713-433-2956
  sources:
  - acf/head-start-locations
  verified:
    'on': '2026-07-19'
    method: api
- id: tx/houston/kipp-climb
  name: KIPP - Climb
  categories:
  - community-health-center
  address:
    street: 8805 Ferndale St
    city: Houston
    state: tx
    zip: '77017'
  place: '4835000'
  geo:
    lat: 29.66712
    lng: -95.25986
  phone: 832-548-5000
  website: https://legacycommunityhealth.org
  external_ids:
    bphc: BPS-H80-022292
  sources:
  - hrsa/health-center-sites
  verified:
    'on': '2026-07-19'
    method: api
- id: tx/houston/kipp-connect
  name: KIPP CONNECT
  categories:
  - community-health-center
  address:
    street: 6700 Bellaire Blvd
    city: Houston
    state: tx
    zip: '77074'
  place: '4835000'
  geo:
    lat: 29.7059
    lng: -95.50187
  phone: 832-548-5000
  website: https://www.legacycommunityhealth.org
  external_ids:
    bphc: BPS-H80-017186
  sources:
  - hrsa/health-center-sites
  verified:
    'on': '2026-07-19'
    method: api
- id: tx/houston/kipp-east-end-campus
  name: KIPP East End Campus
  categories:
  - community-health-center
  address:
    street: 5402 Lawndale St
    city: Houston
    state: tx
    zip: '77023'
  place: '4835000'
  geo:
    lat: 29.72698
    lng: -95.32208
  phone: 832-328-1051
  website: https://www.legacycommunityhealth.org
  external_ids:
    bphc: BPS-H80-012630
  sources:
  - hrsa/health-center-sites
  verified:
    'on': '2026-07-19'
    method: api
- id: tx/houston/kipp-legacy-preparatory-school
  name: KIPP Legacy Preparatory School
  categories:
  - community-health-center
  address:
    street: 9606 Mesa Dr
    city: Houston
    state: tx
    zip: '77078'
  place: '4835000'
  geo:
    lat: 29.85081
    lng: -95.26075
  phone: 832-328-1051
  external_ids:
    bphc: BPS-H80-011434
  sources:
  - hrsa/health-center-sites
  verified:
    'on': '2026-07-19'
    method: api
- id: tx/houston/kipp-mosaic
  name: KIPP Mosaic
  categories:
  - community-health-center
  address:
    street: 12751 Hillcroft Ave
    city: Houston
    state: tx
    zip: '77085'
  place: '4835000'
  geo:
    lat: 29.63513
    lng: -95.4916
  phone: 832-548-5000
  external_ids:
    bphc: BPS-H80-035428
  sources:
  - hrsa/health-center-sites
  verified:
    'on': '2026-07-19'
    method: api
- id: tx/houston/kipp-nexus
  name: KIPP Nexus
  categories:
  - community-health-center
  address:
    street: 4211 Watonga Blvd
    city: Houston
    state: tx
    zip: '77092'
  place: '4835000'
  geo:
    lat: 29.82939
    lng: -95.45975
  phone: 832-548-5000
  external_ids:
    bphc: BPS-H80-027930
  sources:
  - hrsa/health-center-sites
  verified:
    'on': '2026-07-19'
    method: api
- id: tx/houston/kipp-north-campus
  name: KIPP North Campus
  categories:
  - community-health-center
  address:
    street: 500 Tidwell Rd
    city: Houston
    state: tx
    zip: '77022'
  place: '4835000'
  geo:
    lat: 29.84411
    lng: -95.36883
  phone: 832-328-1051
  website: https://www.legacycommunityhealth.org
  external_ids:
    bphc: BPS-H80-012623
  sources:
  - hrsa/health-center-sites
  verified:
    'on': '2026-07-19'
    method: api
- id: tx/houston/kipp-sharp
  name: KIPP SHARP
  categories:
  - community-health-center
  address:
    street: 8430 Westglen Dr
    city: Houston
    state: tx
    zip: '77063'
  place: '4835000'
  geo:
    lat: 29.72468
    lng: -95.51239
  phone: 832-328-1051
  website: https://www.legacycommunityhealth.org
  external_ids:
    bphc: BPS-H80-012099
  sources:
  - hrsa/health-center-sites
  verified:
    'on': '2026-07-19'
    method: api
- id: tx/houston/kipp-sharpstown
  name: KIPP Sharpstown
  categories:
  - community-health-center
  address:
    street: 8440 Westpark Dr
    city: Houston
    state: tx
    zip: '77063'
  place: '4835000'
  geo:
    lat: 29.72286
    lng: -95.51277
  phone: 832-328-1051
  website: https://www.legacycommunityhealth.org
  external_ids:
    bphc: BPS-H80-012097
  sources:
  - hrsa/health-center-sites
  verified:
    'on': '2026-07-19'
    method: api
- id: tx/houston/kipp-southwest-campus
  name: KIPP Southwest Campus
  categories:
  - community-health-center
  address:
    street: 10711 Kipp Way Dr
    city: Houston
    state: tx
    zip: '77099'
  place: '4835000'
  geo:
    lat: 29.66999
    lng: -95.56557
  phone: 832-328-1051
  website: https://www.legacycommunityhealth.org
  external_ids:
    bphc: BPS-H80-012100
  sources:
  - hrsa/health-center-sites
  verified:
    'on': '2026-07-19'
    method: api
- id: tx/houston/kipp-sunnyside-campus
  name: KIPP Sunnyside Campus
  categories:
  - community-health-center
  address:
    street: 11000 Scott St
    city: Houston
    state: tx
    zip: '77047'
  place: '4835000'
  geo:
    lat: 29.63765
    lng: -95.36914
  phone: 832-328-1051
  website: https://www.legacycommunityhealth.org
  external_ids:
    bphc: BPS-H80-012625
  sources:
  - hrsa/health-center-sites
  verified:
    'on': '2026-07-19'
    method: api
- id: tx/houston/kipp-third-ward-campus
  name: KIPP Third Ward Campus
  categories:
  - community-health-center
  address:
    street: 5400 Martin Luther King Blvd
    city: Houston
    state: tx
    zip: '77021'
  place: '4835000'
  geo:
    lat: 29.70234
    lng: -95.33573
  phone: 832-328-1051
  website: https://www.legacycommunityhealth.org
  external_ids:
    bphc: BPS-H80-012629
  sources:
  - hrsa/health-center-sites
  verified:
    'on': '2026-07-19'
    method: api
- id: tx/houston/kipp-west-unity
  name: KIPP West - Unity
  categories:
  - community-health-center
  address:
    street: 8500 Highway 6 S
    city: Houston
    state: tx
    zip: '77083'
  place: '4835000'
  geo:
    lat: 29.68668
    lng: -95.64623
  phone: 832-548-5000
  website: https://www.legacycommunityhealth.org
  external_ids:
    bphc: BPS-H80-018800
  sources:
  - hrsa/health-center-sites
  verified:
    'on': '2026-07-19'
    method: api
- id: tx/houston/klein-early-head-start-head-start
  name: Klein Early Head Start/Head Start
  categories:
  - child-care
  address:
    street: 6447 Prestwood Dr
    city: Houston
    state: tx
    zip: '77081'
  place: '4835000'
  geo:
    lat: 29.71741
    lng: -95.4949
  phone: 713-988-6265
  sources:
  - acf/head-start-locations
  verified:
    'on': '2026-07-19'
    method: api
- id: tx/houston/krayola-kidz
  name: Krayola Kidz
  categories:
  - child-care
  address:
    street: 2200 Spears Rd
    street2: Ste 180
    city: Houston
    state: tx
    zip: '77067'
  place: '4835000'
  geo:
    lat: 29.96571
    lng: -95.45317
  phone: 281-537-5454
  sources:
  - acf/head-start-locations
  verified:
    'on': '2026-07-19'
    method: api
- id: tx/houston/legacy-acres-homes-law
  name: Legacy Acres Homes - LAW
  categories:
  - community-health-center
  address:
    street: 3011 W Gulf Bank Rd
    city: Houston
    state: tx
    zip: '77088'
  place: '4835000'
  geo:
    lat: 29.88265
    lng: -95.45515
  phone: 832-548-5000
  website: https://legacycommunityhealth.org
  external_ids:
    bphc: BPS-H80-041530
  sources:
  - hrsa/health-center-sites
  verified:
    'on': '2026-07-19'
    method: api
- id: tx/houston/legacy-alief-bissonnet
  name: Legacy Alief Bissonnet
  categories:
  - community-health-center
  address:
    street: 12345 Bissonnet St
    city: Houston
    state: tx
    zip: '77099'
  place: '4835000'
  geo:
    lat: 29.67625
    lng: -95.59689
  phone: 832-548-5000
  website: https://legacycommunityhealth.org
  external_ids:
    bphc: BPS-H80-034536
  sources:
  - hrsa/health-center-sites
  verified:
    'on': '2026-07-19'
    method: api
- id: tx/houston/legacy-allen-parkway
  name: Legacy - Allen Parkway
  categories:
  - community-health-center
  address:
    street: 2929 Allen Pkwy, Suite 2700
    city: Houston
    state: tx
    zip: '77019'
  place: '4835000'
  geo:
    lat: 29.76068
    lng: -95.39757
  phone: 832-548-5000
  website: https://legacycommunityhealth.org
  external_ids:
    bphc: BPS-H80-027834
  sources:
  - hrsa/health-center-sites
  verified:
    'on': '2026-07-19'
    method: api
- id: tx/houston/legacy-baker-ripley
  name: Legacy Baker Ripley
  categories:
  - community-health-center
  address:
    street: 6500 Rookin St
    city: Houston
    state: tx
    zip: '77074'
  place: '4835000'
  geo:
    lat: 29.71053
    lng: -95.4983
  phone: 832-548-5000
  website: https://www.legacycommunityhealth.org
  external_ids:
    bphc: BPS-H80-009319
  sources:
  - hrsa/health-center-sites
  verified:
    'on': '2026-07-19'
    method: api
- id: tx/houston/legacy-bissonnet-street
  name: Legacy Bissonnet Street
  categories:
  - community-health-center
  address:
    street: 12667 Bissonnet St
    city: Houston
    state: tx
    zip: '77099'
  place: '4835000'
  geo:
    lat: 29.6768
    lng: -95.60185
  phone: 832-548-5000
  website: https://www.legacycommunityhealth.org
  external_ids:
    bphc: BPS-H80-012878
  sources:
  - hrsa/health-center-sites
  verified:
    'on': '2026-07-19'
    method: api
- id: tx/houston/legacy-fifth-ward-lyons
  name: Legacy Fifth Ward Lyons
  categories:
  - community-health-center
  address:
    street: 3811 Lyons Ave
    city: Houston
    state: tx
    zip: '77020'
  place: '4835000'
  geo:
    lat: 29.77629
    lng: -95.33154
  phone: 832-548-5000
  website: https://www.legacycommunityhealth.org
  external_ids:
    bphc: BPS-H80-019580
  sources:
  - hrsa/health-center-sites
  verified:
    'on': '2026-07-19'
    method: api
- id: tx/houston/legacy-greater-third-ward-cleburne
  name: Legacy Greater Third Ward Cleburne
  categories:
  - community-health-center
  address:
    street: 2222 Cleburne St
    city: Houston
    state: tx
    zip: '77004'
  place: '4835000'
  geo:
    lat: 29.72962
    lng: -95.37088
  phone: 832-548-5000
  website: https://legacycommunityhealth.org
  external_ids:
    bphc: BPS-H80-031929
  sources:
  - hrsa/health-center-sites
  verified:
    'on': '2026-07-19'
    method: api
- id: tx/houston/legacy-gulfton-dashwood-200
  name: Legacy Gulfton Dashwood 200
  categories:
  - community-health-center
  address:
    street: 5420 Dashwood Dr, Ste 200
    city: Houston
    state: tx
    zip: '77081'
  place: '4835000'
  geo:
    lat: 29.70747
    lng: -95.47504
  phone: 832-548-5000
  external_ids:
    bphc: BPS-H80-038722
  sources:
  - hrsa/health-center-sites
  verified:
    'on': '2026-07-19'
    method: api
- id: tx/houston/legacy-gulfton-dashwood-ste-100
  name: Legacy Gulfton Dashwood Ste 100
  categories:
  - community-health-center
  address:
    street: 5420 Dashwood Dr, Suite 100
    city: Houston
    state: tx
    zip: '77081'
  place: '4835000'
  geo:
    lat: 29.70798
    lng: -95.47504
  phone: 832-548-5000
  external_ids:
    bphc: BPS-H80-036084
  sources:
  - hrsa/health-center-sites
  verified:
    'on': '2026-07-19'
    method: api
- id: tx/houston/legacy-gulfton-dashwood-ste-102
  name: Legacy Gulfton Dashwood Ste 102
  categories:
  - community-health-center
  address:
    street: 5420 Dashwood Dr, Suite 102
    city: Houston
    state: tx
    zip: '77081'
  place: '4835000'
  geo:
    lat: 29.70798
    lng: -95.47504
  phone: 832-548-5000
  website: https://legacycommunityhealth.org
  external_ids:
    bphc: BPS-H80-035855
  sources:
  - hrsa/health-center-sites
  verified:
    'on': '2026-07-19'
    method: api
- id: tx/houston/legacy-mapleridge-clinic
  name: Legacy Mapleridge Clinic
  categories:
  - community-health-center
  address:
    street: 6550 Mapleridge St STE 106
    city: Houston
    state: tx
    zip: '77081'
  place: '4835000'
  geo:
    lat: 29.70983
    lng: -95.47425
  phone: 713-779-7200
  website: https://www.legacycommunityhealth.org
  external_ids:
    bphc: BPS-H80-012636
  sources:
  - hrsa/health-center-sites
  verified:
    'on': '2026-07-19'
    method: api
- id: tx/houston/legacy-montrose-clinic
  name: Legacy Montrose Clinic
  categories:
  - community-health-center
  address:
    street: 1415 California St
    city: Houston
    state: tx
    zip: '77006'
  place: '4835000'
  geo:
    lat: 29.74491
    lng: -95.39425
  phone: 713-830-3000
  website: https://www.legacycommunityhealth.org
  external_ids:
    bphc: BPS-H80-008619
  sources:
  - hrsa/health-center-sites
  verified:
    'on': '2026-07-19'
    method: api
- id: tx/houston/legacy-north-irvington
  name: Legacy North Irvington
  categories:
  - community-health-center
  address:
    street: 3517 Irvington Blvd
    city: Houston
    state: tx
    zip: '77009'
  place: '4835000'
  geo:
    lat: 29.79272
    lng: -95.36146
  phone: 832-548-5000
  website: https://legacycommunityhealth.org
  external_ids:
    bphc: BPS-H80-034525
  sources:
  - hrsa/health-center-sites
  verified:
    'on': '2026-07-19'
    method: api
- id: tx/houston/legacy-northside-northline-north-freeway
  name: Legacy Northside/Northline  -  North Freeway
  categories:
  - community-health-center
  address:
    street: '5598 North Fwy, #A-1'
    city: Houston
    state: tx
    zip: '77076'
  place: '4835000'
  geo:
    lat: 29.84796
    lng: -95.39364
  phone: 832-548-5000
  external_ids:
    bphc: BPS-H80-020924
  sources:
  - hrsa/health-center-sites
  verified:
    'on': '2026-07-19'
    method: api
- id: tx/houston/legacy-santa-clara-clinic
  name: Legacy Santa Clara Clinic
  categories:
  - community-health-center
  address:
    street: 5616 Lawndale St STE A108
    city: Houston
    state: tx
    zip: '77023'
  place: '4835000'
  geo:
    lat: 29.72638
    lng: -95.31687
  phone: 832-548-5000
  website: https://www.legacycommunityhealth.org
  external_ids:
    bphc: BPS-H80-018040
  sources:
  - hrsa/health-center-sites
  verified:
    'on': '2026-07-19'
    method: api
- id: tx/houston/legacy-south-main-st
  name: Legacy South Main St
  categories:
  - community-health-center
  address:
    street: 10021 Main St, Suite B 3
    city: Houston
    state: tx
    zip: '77025'
  place: '4835000'
  geo:
    lat: 29.67548
    lng: -95.42769
  phone: 832-548-5000
  website: https://legacycommunityhealth.org
  external_ids:
    bphc: BPS-H80-035163
  sources:
  - hrsa/health-center-sites
  verified:
    'on': '2026-07-19'
    method: api
- id: tx/houston/legacy-southwest-clinic
  name: Legacy Southwest Clinic
  categories:
  - community-health-center
  address:
    street: 6441 High Star Dr
    city: Houston
    state: tx
    zip: '77074'
  place: '4835000'
  geo:
    lat: 29.71043
    lng: -95.49457
  phone: 713-830-3000
  external_ids:
    bphc: BPS-H80-010241
  sources:
  - hrsa/health-center-sites
  verified:
    'on': '2026-07-19'
    method: api
- id: tx/houston/legacy-wellness-bar
  name: Legacy Wellness Bar
  categories:
  - community-health-center
  address:
    street: 120 Westheimer Rd STE F
    city: Houston
    state: tx
    zip: '77006'
  place: '4835000'
  geo:
    lat: 29.74498
    lng: -95.38259
  phone: 832-548-5000
  external_ids:
    bphc: BPS-H80-031355
  sources:
  - hrsa/health-center-sites
  verified:
    'on': '2026-07-19'
    method: api
- id: tx/houston/lewis-elementary
  name: Lewis Elementary
  categories:
  - child-care
  address:
    street: 3230 Spears Rd
    city: Houston
    state: tx
    zip: '77067'
  place: '4835000'
  geo:
    lat: 29.96584
    lng: -95.47542
  phone: 281-891-8733
  sources:
  - acf/head-start-locations
  verified:
    'on': '2026-07-19'
    method: api
- id: tx/houston/live-oak-friends-meeting
  name: Live Oak Friends Meeting
  categories:
  - food-pantry
  place: '4835000'
  geo:
    lat: 29.80938
    lng: -95.42325
  external_ids:
    lfp: '5770'
  sources:
  - littlefreepantry/map
  verified:
    'on': '2026-07-19'
    method: scrape
- id: tx/houston/live-oak-friends-meeting-2
  name: Live Oak Friends Meeting
  categories:
  - food-pantry
  place: '4835000'
  geo:
    lat: 29.80938
    lng: -95.42325
  external_ids:
    lfp: '5723'
  sources:
  - littlefreepantry/map
  verified:
    'on': '2026-07-19'
    method: scrape
- id: tx/houston/live-oak-friends-meeting-little-free-pantry
  name: Live Oak Friends Meeting Little Free Pantry
  categories:
  - food-pantry
  place: '4835000'
  geo:
    lat: 29.80938
    lng: -95.42325
  external_ids:
    lfp: '5709'
  sources:
  - littlefreepantry/map
  verified:
    'on': '2026-07-19'
    method: scrape
- id: tx/houston/lockhart-elementary
  name: Lockhart Elementary
  categories:
  - child-care
  address:
    street: 3200 Rosedale St
    city: Houston
    state: tx
    zip: '77004'
  place: '4835000'
  geo:
    lat: 29.71748
    lng: -95.36558
  phone: 713-942-1950
  sources:
  - acf/head-start-locations
  verified:
    'on': '2026-07-19'
    method: api
- id: tx/houston/lone-star-counseling-services
  name: Lone Star Counseling Services
  categories:
  - su-treatment
  address:
    street: 11301 Richmond Avenue
    city: Houston
    state: tx
    zip: '77082'
  place: '4835000'
  geo:
    lat: 29.72731
    lng: -95.57662
  phone: 281-293-9600
  website: https://www.lonestarcounselingservices.com
  sources:
  - samhsa/findtreatment
  verified:
    'on': '2026-07-19'
    method: api
- id: tx/houston/lord-of-the-streets
  name: Lord of the Streets
  categories:
  - community-health-center
  address:
    street: 3401 Fannin St
    city: Houston
    state: tx
    zip: '77004'
  place: '4835000'
  geo:
    lat: 29.73951
    lng: -95.37706
  phone: 713-526-0311
  external_ids:
    bphc: BPS-H80-013531
  sources:
  - hrsa/health-center-sites
  verified:
    'on': '2026-07-19'
    method: api
- id: tx/houston/mangum-educational-center
  name: Mangum Educational Center
  categories:
  - child-care
  address:
    street: 4503 Mangum Rd
    city: Houston
    state: tx
    zip: '77092'
  place: '4835000'
  geo:
    lat: 29.83472
    lng: -95.46328
  phone: 713-686-5228
  sources:
  - acf/head-start-locations
  verified:
    'on': '2026-07-19'
    method: api
- id: tx/houston/martin-luther-king-early-childhood-center
  name: Martin Luther King Early Childhood Center
  categories:
  - child-care
  address:
    street: 3930 W Fuqua St
    city: Houston
    state: tx
    zip: '77045'
  place: '4835000'
  geo:
    lat: 29.61355
    lng: -95.43596
  phone: 713-797-7900
  sources:
  - acf/head-start-locations
  verified:
    'on': '2026-07-19'
    method: api
- id: tx/houston/meadows-outpatient-center
  name: Meadows Outpatient Center
  categories:
  - su-treatment
  - mh-treatment
  address:
    street: 515 Post Oak Road
    city: Houston
    state: tx
    zip: '77027'
  place: '4835000'
  geo:
    lat: 29.77655
    lng: -95.45706
  phone: 928-764-8719
  website: https://meadowsbh.com/treatment-locations/outpatient-treatment
  sources:
  - samhsa/findtreatment
  verified:
    'on': '2026-07-19'
    method: api
- id: tx/houston/medical-mobile-unit
  name: Medical Mobile  Unit
  categories:
  - community-health-center
  address:
    street: 3550 Swingle Rd
    city: Houston
    state: tx
    zip: '77047'
  place: '4835000'
  geo:
    lat: 29.61976
    lng: -95.36694
  phone: 346-426-0500
  external_ids:
    bphc: BPS-H80-033387
  sources:
  - hrsa/health-center-sites
  verified:
    'on': '2026-07-19'
    method: api
- id: tx/houston/medical-mobile-unit-2
  name: 'Medical Mobile Unit #2'
  categories:
  - community-health-center
  address:
    street: 3550 Swingle Rd
    city: Houston
    state: tx
    zip: '77047'
  place: '4835000'
  geo:
    lat: 29.61976
    lng: -95.36694
  phone: 346-426-0500
  external_ids:
    bphc: BPS-H80-039046
  sources:
  - hrsa/health-center-sites
  verified:
    'on': '2026-07-19'
    method: api
- id: tx/houston/medical-mobile-unit-3
  name: 'Medical Mobile Unit #3'
  categories:
  - community-health-center
  address:
    street: 3550 Swingle Rd
    city: Houston
    state: tx
    zip: '77047'
  place: '4835000'
  geo:
    lat: 29.61976
    lng: -95.36694
  phone: 346-426-0500
  external_ids:
    bphc: BPS-H80-038939
  sources:
  - hrsa/health-center-sites
  verified:
    'on': '2026-07-19'
    method: api
- id: tx/houston/medical-mobile-unit-4-specialty
  name: 'Medical Mobile Unit #4 (Specialty)'
  categories:
  - community-health-center
  address:
    street: 3550 Swingle Rd
    city: Houston
    state: tx
    zip: '77047'
  place: '4835000'
  geo:
    lat: 29.61976
    lng: -95.36694
  phone: 346-426-0500
  external_ids:
    bphc: BPS-H80-038940
  sources:
  - hrsa/health-center-sites
  verified:
    'on': '2026-07-19'
    method: api
- id: tx/houston/methodist-hospital-behavioral-health-main-700
  name: Methodist Hospital Behavioral Health Main 700
  categories:
  - su-treatment
  - mh-treatment
  address:
    street: 6565 Fannin Street
    city: Houston
    state: tx
    zip: '77030'
  place: '4835000'
  geo:
    lat: 29.70991
    lng: -95.39972
  phone: 713-441-1708
  website: https://www.houstonmethodist.org/
  sources:
  - samhsa/findtreatment
  verified:
    'on': '2026-07-19'
    method: api
- id: tx/houston/michael-e-debakey-va-medical-center
  name: Michael E DeBakey VA Medical Center
  categories:
  - su-treatment
  - mh-treatment
  address:
    street: 2002 Holcombe Boulevard
    city: Houston
    state: tx
    zip: '77030'
  place: '4835000'
  geo:
    lat: 29.70209
    lng: -95.38894
  phone: 713-797-1414
  website: https://
  sources:
  - samhsa/findtreatment
  verified:
    'on': '2026-07-19'
    method: api
- id: tx/houston/monte-nido-houston-eating-disorder-day-treatment
  name: Monte Nido Houston Eating Disorder Day Treatment
  categories:
  - su-treatment
  - mh-treatment
  address:
    street: 925 Gessner Road
    city: Houston
    state: tx
    zip: '77024'
  place: '4835000'
  phone: 888-228-1253
  website: https://www.montenido.com/locations/texas-houston-day-treatment
  sources:
  - samhsa/findtreatment
  verified:
    'on': '2026-07-19'
    method: api
- id: tx/houston/montrose-center
  name: Montrose Center
  categories:
  - su-treatment
  address:
    street: 401 Branard Street
    city: Houston
    state: tx
    zip: '77006'
  place: '4835000'
  geo:
    lat: 29.73701
    lng: -95.38506
  phone: 713-529-0037 x0
  website: https://www.montrosecenter.org
  sources:
  - samhsa/findtreatment
  verified:
    'on': '2026-07-19'
    method: api
- id: tx/houston/montrose-counseling-center-inc-dba-the-montrose
  name: Montrose Counseling Center Inc DBA The Montrose Center
  categories:
  - su-treatment
  - mh-treatment
  address:
    street: 401 Branard Street
    city: Houston
    state: tx
    zip: '77006'
  place: '4835000'
  geo:
    lat: 29.73701
    lng: -95.38506
  phone: 713-529-0037
  website: https://www.montrosecenter.org
  sources:
  - samhsa/findtreatment
  verified:
    'on': '2026-07-19'
    method: api
- id: tx/houston/mt-houston
  name: Mt. Houston
  categories:
  - child-care
  address:
    street: 11703 Eastex Fwy
    street2: '# B1'
    city: Houston
    state: tx
    zip: '77039'
  place: '4835000'
  geo:
    lat: 29.89191
    lng: -95.31993
  phone: 281-219-2256
  sources:
  - acf/head-start-locations
  verified:
    'on': '2026-07-19'
    method: api
- id: tx/houston/mychn-at-westwood
  name: MyCHN at Westwood
  categories:
  - community-health-center
  address:
    street: 9700 Bissonnet St, Suite 1000 W
    city: Houston
    state: tx
    zip: '77036'
  place: '4835000'
  geo:
    lat: 29.67738
    lng: -95.54565
  phone: 281-824-1480
  website: https://www.mychn.org
  external_ids:
    bphc: BPS-H80-040154
  sources:
  - hrsa/health-center-sites
  verified:
    'on': '2026-07-19'
    method: api
- id: tx/houston/mychn-east-houston
  name: MyCHN East Houston
  categories:
  - community-health-center
  address:
    street: 12871 East Fwy
    city: Houston
    state: tx
    zip: '77015'
  place: '4835000'
  geo:
    lat: 29.77227
    lng: -95.20345
  phone: 281-824-1480
  website: https://www.mychn.org
  external_ids:
    bphc: BPS-H80-040286
  sources:
  - hrsa/health-center-sites
  verified:
    'on': '2026-07-19'
    method: api
- id: tx/houston/navigation-center
  name: Navigation Center
  categories:
  - community-health-center
  address:
    street: 2903 Jensen Dr
    city: Houston
    state: tx
    zip: '77026'
  place: '4835000'
  geo:
    lat: 29.78787
    lng: -95.3423
  phone: 346-426-0691
  external_ids:
    bphc: BPS-H80-036304
  sources:
  - hrsa/health-center-sites
  verified:
    'on': '2026-07-19'
    method: api
- id: tx/houston/neff-early-learning-center
  name: Neff Early Learning Center
  categories:
  - child-care
  address:
    street: 8200 Carvel Ln
    city: Houston
    state: tx
    zip: '77036'
  place: '4835000'
  geo:
    lat: 29.69765
    lng: -95.52921
  phone: 713-778-3470
  sources:
  - acf/head-start-locations
  verified:
    'on': '2026-07-19'
    method: api
- id: tx/houston/new-dimensions-day-treatment-centers-clear-lake
  name: New Dimensions Day Treatment Centers Clear Lake
  categories:
  - su-treatment
  - mh-treatment
  address:
    street: 1345 Space Park Drive
    city: Houston
    state: tx
    zip: '77058'
  place: '4835000'
  geo:
    lat: 29.54755
    lng: -95.09782
  phone: 281-333-2284 x1307
  website: https://www.nddtreatment.com
  sources:
  - samhsa/findtreatment
  verified:
    'on': '2026-07-19'
    method: api
- id: tx/houston/north-shore-senior-high-school
  name: North Shore Senior High School
  categories:
  - community-health-center
  address:
    street: 353 N Castlegory Rd
    city: Houston
    state: tx
    zip: '77049'
  place: '4835000'
  geo:
    lat: 29.81097
    lng: -95.17458
  phone: 832-548-5000
  external_ids:
    bphc: BPS-H80-031127
  sources:
  - hrsa/health-center-sites
  verified:
    'on': '2026-07-19'
    method: api
- id: tx/houston/northshore-treatment-center
  name: Northshore Treatment Center
  categories:
  - su-treatment
  address:
    street: 1140 Westmont Drive
    city: Houston
    state: tx
    zip: '77015'
  place: '4835000'
  geo:
    lat: 29.7721
    lng: -95.19547
  phone: 713-455-7008
  website: https://nstreatmentctr.com
  sources:
  - samhsa/findtreatment
  verified:
    'on': '2026-07-19'
    method: api
- id: tx/houston/northwest-houston-1
  name: Northwest Houston 1
  place: '4835000'
  geo:
    lat: 29.83233
    lng: -95.51901
  website: http://mapping.littlefreepantry.org/pantry/2285
  provisional: true
  sources:
  - mutualaidhub/firestore
  verified:
    'on': '2026-07-19'
    method: api
  categories:
  - food-pantry
- id: tx/houston/open-door-mission
  name: OPEN DOOR MISSION
  categories:
  - community-health-center
  address:
    street: 5803 Harrisburg Blvd
    city: Houston
    state: tx
    zip: '77011'
  place: '4835000'
  geo:
    lat: 29.74067
    lng: -95.31682
  phone: 713-921-7520
  website: https://www.opendoorhouston.org
  external_ids:
    bphc: BPS-H80-004932
  sources:
  - hrsa/health-center-sites
  verified:
    'on': '2026-07-19'
    method: api
- id: tx/houston/patterson
  name: Patterson
  categories:
  - child-care
  address:
    street: 5302 Allendale Rd
    city: Houston
    state: tx
    zip: '77017'
  place: '4835000'
  geo:
    lat: 29.68305
    lng: -95.24258
  phone: 713-943-5750
  sources:
  - acf/head-start-locations
  verified:
    'on': '2026-07-19'
    method: api
- id: tx/houston/pearland
  name: Pearland
  place: '4835000'
  geo:
    lat: 29.75673
    lng: -95.61495
  website: http://mapping.littlefreepantry.org/pantry/686
  provisional: true
  sources:
  - mutualaidhub/firestore
  verified:
    'on': '2026-07-19'
    method: api
  categories:
  - food-pantry
- id: tx/houston/port-houston-elementary-school
  name: Port Houston Elementary School
  categories:
  - community-health-center
  address:
    street: 1800 McCarty St
    city: Houston
    state: tx
    zip: '77029'
  place: '4835000'
  geo:
    lat: 29.76011
    lng: -95.28365
  phone: 713-671-3890
  external_ids:
    bphc: BPS-H80-024913
  sources:
  - hrsa/health-center-sites
  verified:
    'on': '2026-07-19'
    method: api
- id: tx/houston/positive-recovery-llc-clear-lake
  name: Positive Recovery LLC Clear Lake
  categories:
  - su-treatment
  address:
    street: 1120 East NASA Parkway
    city: Houston
    state: tx
    zip: '77058'
  place: '4835000'
  geo:
    lat: 29.54525
    lng: -95.10242
  phone: 877-697-1383
  website: https://www.positiverecovery.com
  sources:
  - samhsa/findtreatment
  verified:
    'on': '2026-07-19'
    method: api
- id: tx/houston/positive-recovery-llc-energy-corridor
  name: Positive Recovery LLC Energy Corridor
  categories:
  - su-treatment
  address:
    street: 14825 Saint Marys Lane
    city: Houston
    state: tx
    zip: '77079'
  place: '4835000'
  geo:
    lat: 29.78254
    lng: -95.61089
  phone: 877-697-1383
  website: https://www.positiverecovery.com
  sources:
  - samhsa/findtreatment
  verified:
    'on': '2026-07-19'
    method: api
- id: tx/houston/positive-recovery-llc-garden-oaks
  name: Positive Recovery LLC Garden Oaks
  categories:
  - su-treatment
  address:
    street: 513 Thornton Road
    city: Houston
    state: tx
    zip: '77018'
  place: '4835000'
  geo:
    lat: 29.83204
    lng: -95.40721
  phone: 877-697-1383
  website: https://www.positiverecovery.com
  sources:
  - samhsa/findtreatment
  verified:
    'on': '2026-07-19'
    method: api
- id: tx/houston/positive-recovery-llc-montrose
  name: Positive Recovery LLC Montrose
  categories:
  - su-treatment
  address:
    street: 902 West Alabama Street
    city: Houston
    state: tx
    zip: '77006'
  place: '4835000'
  geo:
    lat: 29.73906
    lng: -95.39009
  phone: 877-697-1383
  website: https://www.positiverecovery.com
  sources:
  - samhsa/findtreatment
  verified:
    'on': '2026-07-19'
    method: api
- id: tx/houston/providence-wellness-inc-providence-medical-and-m
  name: Providence Wellness Inc Providence Medical and MH Clinic
  categories:
  - su-treatment
  - mh-treatment
  address:
    street: 13155 Westheimer Road
    city: Houston
    state: tx
    zip: '77077'
  place: '4835000'
  geo:
    lat: 29.73479
    lng: -95.62131
  phone: 281-920-0344
  website: https://providencewellness.org
  sources:
  - samhsa/findtreatment
  verified:
    'on': '2026-07-19'
    method: api
- id: tx/houston/pugh-elementary
  name: Pugh Elementary
  categories:
  - community-health-center
  address:
    street: 1147 Kress St
    city: Houston
    state: tx
    zip: '77020'
  place: '4835000'
  geo:
    lat: 29.7683
    lng: -95.30686
  phone: 713-671-3820
  external_ids:
    bphc: BPS-H80-021100
  sources:
  - hrsa/health-center-sites
  verified:
    'on': '2026-07-19'
    method: api
- id: tx/houston/raul-yzaguirre
  name: Raul Yzaguirre
  categories:
  - child-care
  address:
    street: 2950 Broadway St
    city: Houston
    state: tx
    zip: '77017'
  place: '4835000'
  geo:
    lat: 29.69756
    lng: -95.27913
  phone: 713-640-3739
  sources:
  - acf/head-start-locations
  verified:
    'on': '2026-07-19'
    method: api
- id: tx/houston/reed-family-clinic
  name: Reed Family Clinic
  categories:
  - community-health-center
  address:
    street: 2605 Reed Rd
    city: Houston
    state: tx
    zip: '77051'
  place: '4835000'
  geo:
    lat: 29.65772
    lng: -95.39053
  phone: 713-286-6125
  external_ids:
    bphc: BPS-H80-031963
  sources:
  - hrsa/health-center-sites
  verified:
    'on': '2026-07-19'
    method: api
- id: tx/houston/regency-square-early-head-start-head-start
  name: Regency Square Early Head Start/Head Start
  categories:
  - child-care
  address:
    street: 7207 Regency Square Blvd
    street2: Ste 150
    city: Houston
    state: tx
    zip: '77036'
  place: '4835000'
  geo:
    lat: 29.71519
    lng: -95.50933
  phone: 713-779-4856
  sources:
  - acf/head-start-locations
  verified:
    'on': '2026-07-19'
    method: api
- id: tx/houston/regency-square-home-based
  name: Regency Square Home Based
  categories:
  - child-care
  address:
    street: 7207 Regency Square Blvd
    street2: Ste 130
    city: Houston
    state: tx
    zip: '77036'
  place: '4835000'
  geo:
    lat: 29.71519
    lng: -95.50933
  phone: 346-867-3638
  sources:
  - acf/head-start-locations
  verified:
    'on': '2026-07-19'
    method: api
- id: tx/houston/reveille
  name: Reveille
  categories:
  - child-care
  address:
    street: 3716 Reveille St
    city: Houston
    state: tx
    zip: '77087'
  place: '4835000'
  geo:
    lat: 29.68815
    lng: -95.29094
  phone: 713-643-2235
  sources:
  - acf/head-start-locations
  verified:
    'on': '2026-07-19'
    method: api
- id: tx/houston/rucker-elementary
  name: Rucker Elementary
  categories:
  - child-care
  address:
    street: 5201 Vinett Ave
    city: Houston
    state: tx
    zip: '77017'
  place: '4835000'
  geo:
    lat: 29.69417
    lng: -95.24174
  phone: 713-845-7467
  sources:
  - acf/head-start-locations
  verified:
    'on': '2026-07-19'
    method: api
- id: tx/houston/rutland-st-little-free-pantry
  name: Rutland St. Little Free Pantry
  categories:
  - food-pantry
  place: '4835000'
  geo:
    lat: 29.7885
    lng: -95.40141
  external_ids:
    lfp: '5708'
  sources:
  - littlefreepantry/map
  verified:
    'on': '2026-07-19'
    method: scrape
- id: tx/houston/salvation-army-adult-rehab-ctr
  name: SALVATION ARMY ADULT REHAB CTR
  categories:
  - community-health-center
  address:
    street: 2118 Washington Ave
    city: Houston
    state: tx
    zip: '77007'
  place: '4835000'
  geo:
    lat: 29.76847
    lng: -95.37999
  phone: 713-869-3551
  website: https://www.salvationarmyhouston.org
  external_ids:
    bphc: BPS-H80-005539
  sources:
  - hrsa/health-center-sites
  verified:
    'on': '2026-07-19'
    method: api
- id: tx/houston/sanchez-charter-school
  name: Sanchez Charter School
  categories:
  - community-health-center
  address:
    street: 215 Rittenhouse St
    city: Houston
    state: tx
    zip: '77076'
  place: '4835000'
  geo:
    lat: 29.86461
    lng: -95.37485
  phone: 713-742-0947
  external_ids:
    bphc: BPS-H80-028192
  sources:
  - hrsa/health-center-sites
  verified:
    'on': '2026-07-19'
    method: api
- id: tx/houston/scarsdale-integrated-health-clinic
  name: Scarsdale Integrated Health Clinic
  categories:
  - community-health-center
  address:
    street: 10851 Scarsdale Blvd, Suite 160
    city: Houston
    state: tx
    zip: '77089'
  place: '4835000'
  geo:
    lat: 29.58473
    lng: -95.216
  phone: 281-824-1480
  external_ids:
    bphc: BPS-H80-027804
  sources:
  - hrsa/health-center-sites
  verified:
    'on': '2026-07-19'
    method: api
- id: tx/houston/scroggins-elementary-school
  name: Scroggins Elementary School
  categories:
  - community-health-center
  address:
    street: 400 Boyles St
    city: Houston
    state: tx
    zip: '77020'
  place: '4835000'
  geo:
    lat: 29.78096
    lng: -95.29864
  phone: 713-671-4130
  external_ids:
    bphc: BPS-H80-017786
  sources:
  - hrsa/health-center-sites
  verified:
    'on': '2026-07-19'
    method: api
- id: tx/houston/sharpview-head-start
  name: Sharpview Head Start
  categories:
  - child-care
  address:
    street: 12280 Sharpview Dr
    city: Houston
    state: tx
    zip: '77072'
  place: '4835000'
  geo:
    lat: 29.69991
    lng: -95.59575
  phone: 713-669-5287
  sources:
  - acf/head-start-locations
  verified:
    'on': '2026-07-19'
    method: api
- id: tx/houston/shearn-elementary
  name: Shearn Elementary
  categories:
  - child-care
  address:
    street: 9802 Stella Link Rd
    city: Houston
    state: tx
    zip: '77025'
  place: '4835000'
  geo:
    lat: 29.67746
    lng: -95.44084
  phone: 713-295-5236
  sources:
  - acf/head-start-locations
  verified:
    'on': '2026-07-19'
    method: api
- id: tx/houston/sheffield
  name: Sheffield
  categories:
  - child-care
  address:
    street: 14300 Wallisville Rd
    city: Houston
    state: tx
    zip: '77049'
  place: '4835000'
  geo:
    lat: 29.80533
    lng: -95.19552
  phone: 713-450-3813
  sources:
  - acf/head-start-locations
  verified:
    'on': '2026-07-19'
    method: api
- id: tx/houston/spirit-mind-and-body-behavioral-health-services
  name: Spirit Mind and Body Behavioral Health Services PLLC
  categories:
  - su-treatment
  - mh-treatment
  address:
    street: 2925 West TC Jester Boulevard
    city: Houston
    state: tx
    zip: '77018'
  place: '4835000'
  geo:
    lat: 29.81484
    lng: -95.44606
  phone: 713-988-4878
  website: https://
  sources:
  - samhsa/findtreatment
  verified:
    'on': '2026-07-19'
    method: api
- id: tx/houston/spring-branch-chc-administration
  name: Spring Branch CHC - Administration
  categories:
  - community-health-center
  address:
    street: 800 W Sam Houston Pkwy S, Ste 200
    city: Houston
    state: tx
    zip: '77042'
  place: '4835000'
  geo:
    lat: 29.75317
    lng: -95.55847
  phone: 713-462-6565
  external_ids:
    bphc: BPS-H80-015347
  sources:
  - hrsa/health-center-sites
  verified:
    'on': '2026-07-19'
    method: api
- id: tx/houston/spring-branch-chc-memorial-clinic
  name: Spring Branch CHC - Memorial Clinic
  categories:
  - community-health-center
  address:
    street: 902 Frostwood Dr, Suite 108
    city: Houston
    state: tx
    zip: '77024'
  place: '4835000'
  geo:
    lat: 29.7802
    lng: -95.54688
  phone: 713-827-4744
  website: https://www.sbchc.net
  external_ids:
    bphc: BPS-H80-034250
  sources:
  - hrsa/health-center-sites
  verified:
    'on': '2026-07-19'
    method: api
- id: tx/houston/spring-branch-chc-nam-clinic
  name: Spring Branch CHC - NAM Clinic
  categories:
  - community-health-center
  address:
    street: 15555 Kuykendahl Rd
    city: Houston
    state: tx
    zip: '77090'
  place: '4835000'
  geo:
    lat: 30.00418
    lng: -95.46147
  phone: 713-462-6565
  website: https://www.sbchc.net
  external_ids:
    bphc: BPS-H80-033412
  sources:
  - hrsa/health-center-sites
  verified:
    'on': '2026-07-19'
    method: api
- id: tx/houston/spring-branch-chc-pitner-clinic
  name: Spring Branch CHC- Pitner Clinic
  categories:
  - community-health-center
  address:
    street: 8575 Pitner Rd
    city: Houston
    state: tx
    zip: '77080'
  place: '4835000'
  geo:
    lat: 29.82837
    lng: -95.50162
  phone: 713-462-6545
  external_ids:
    bphc: BPS-H80-008909
  sources:
  - hrsa/health-center-sites
  verified:
    'on': '2026-07-19'
    method: api
- id: tx/houston/spring-branch-chc-wholelife-clinic
  name: Spring Branch CHC -  WholeLife Clinic
  categories:
  - community-health-center
  address:
    street: 1905 Jacquelyn Dr
    city: Houston
    state: tx
    zip: '77055'
  place: '4835000'
  geo:
    lat: 29.8052
    lng: -95.48136
  phone: 713-462-6565
  website: https://www.sbchc.net
  external_ids:
    bphc: BPS-H80-015559
  sources:
  - hrsa/health-center-sites
  verified:
    'on': '2026-07-19'
    method: api
- id: tx/houston/spring-branch-early-head-start-head-start
  name: Spring Branch Early Head Start/Head Start
  categories:
  - child-care
  address:
    street: 9655 Long Point Rd
    city: Houston
    state: tx
    zip: '77055'
  place: '4835000'
  geo:
    lat: 29.79594
    lng: -95.52896
  phone: 713-464-8401
  sources:
  - acf/head-start-locations
  verified:
    'on': '2026-07-19'
    method: api
- id: tx/houston/st-hope-foundation-community-health-clinic
  name: St. Hope Foundation Community Health Clinic
  categories:
  - community-health-center
  address:
    street: 255 Northpoint Dr
    city: Houston
    state: tx
    zip: '77060'
  place: '4835000'
  geo:
    lat: 29.93863
    lng: -95.40393
  phone: 832-300-8040
  external_ids:
    bphc: BPS-H80-013712
  sources:
  - hrsa/health-center-sites
  verified:
    'on': '2026-07-19'
    method: api
- id: tx/houston/st-hope-foundation-inc-admin
  name: St. Hope Foundation, Inc- ADMIN
  categories:
  - community-health-center
  address:
    street: 6200 Savoy Dr, Ste 540
    city: Houston
    state: tx
    zip: '77036'
  place: '4835000'
  geo:
    lat: 29.71555
    lng: -95.50506
  phone: 713-778-1300
  website: https://www.offeringhope.org
  external_ids:
    bphc: BPS-H80-022071
  sources:
  - hrsa/health-center-sites
  verified:
    'on': '2026-07-19'
    method: api
- id: tx/houston/star-of-hope-cornerstone-community
  name: Star of Hope Cornerstone Community
  categories:
  - community-health-center
  address:
    street: 2575 Reed Rd
    city: Houston
    state: tx
    zip: '77051'
  place: '4835000'
  geo:
    lat: 29.65952
    lng: -95.39309
  phone: 713-497-0930
  external_ids:
    bphc: BPS-H80-020948
  sources:
  - hrsa/health-center-sites
  verified:
    'on': '2026-07-19'
    method: api
- id: tx/houston/star-of-hope-men-s-shelter
  name: STAR OF HOPE MEN'S SHELTER
  categories:
  - community-health-center
  address:
    street: 1811 Ruiz St
    city: Houston
    state: tx
    zip: '77002'
  place: '4835000'
  geo:
    lat: 29.76056
    lng: -95.35133
  phone: 713-226-5424
  website: https://www.sohmission.org
  external_ids:
    bphc: BPS-H80-002086
  sources:
  - hrsa/health-center-sites
  verified:
    'on': '2026-07-19'
    method: api
- id: tx/houston/successful-starters-learning-academy-ii
  name: Successful Starters Learning Academy II
  categories:
  - child-care
  address:
    street: 10635 Homestead Rd
    street2: '# B'
    city: Houston
    state: tx
    zip: '77016'
  place: '4835000'
  geo:
    lat: 29.86855
    lng: -95.30131
  phone: 713-491-0047
  sources:
  - acf/head-start-locations
  verified:
    'on': '2026-07-19'
    method: api
- id: tx/houston/sylvan-rodriguez-elementary
  name: Sylvan Rodriguez Elementary
  categories:
  - child-care
  address:
    street: 5858 Chimney Rock Rd
    city: Houston
    state: tx
    zip: '77081'
  place: '4835000'
  geo:
    lat: 29.7188
    lng: -95.47809
  phone: 713-295-3870
  sources:
  - acf/head-start-locations
  verified:
    'on': '2026-07-19'
    method: api
- id: tx/houston/symetria-recovery-houston
  name: Symetria Recovery Houston
  categories:
  - su-treatment
  address:
    street: 17347 Village Green Drive
    city: Houston
    state: tx
    zip: '77040'
  place: '4835000'
  geo:
    lat: 29.89028
    lng: -95.58078
  phone: 866-440-7429
  website: https://www.symetriarecovery.com/
  sources:
  - samhsa/findtreatment
  verified:
    'on': '2026-07-19'
    method: api
- id: tx/houston/texas-clinic-fulton
  name: Texas Clinic Fulton
  categories:
  - su-treatment
  address:
    street: 6501 Fulton Street
    city: Houston
    state: tx
    zip: '77022'
  place: '4835000'
  geo:
    lat: 29.81679
    lng: -95.37171
  phone: 713-694-8100
  website: https://www.texasclinic.com
  sources:
  - samhsa/findtreatment
  verified:
    'on': '2026-07-19'
    method: api
- id: tx/houston/texas-clinic-melbourne
  name: Texas Clinic Melbourne
  categories:
  - su-treatment
  address:
    street: 6501 Fulton Street
    city: Houston
    state: tx
    zip: '77022'
  place: '4835000'
  geo:
    lat: 29.81679
    lng: -95.37171
  phone: 713-694-8100
  website: https://www.texasclinic.com
  sources:
  - samhsa/findtreatment
  verified:
    'on': '2026-07-19'
    method: api
- id: tx/houston/texas-clinic-westview-westview
  name: Texas Clinic Westview Westview
  categories:
  - su-treatment
  address:
    street: 1416 B Campbell Road
    city: Houston
    state: tx
    zip: '77055'
  place: '4835000'
  geo:
    lat: 29.79544
    lng: -95.51361
  phone: 713-468-0536
  website: https://www.texasclinicwestview.com
  sources:
  - samhsa/findtreatment
  verified:
    'on': '2026-07-19'
    method: api
- id: tx/houston/texas-prevention-network-inc
  name: Texas Prevention Network Inc
  categories:
  - su-treatment
  address:
    street: 10103 Fondren Road
    city: Houston
    state: tx
    zip: '77096'
  place: '4835000'
  geo:
    lat: 29.66911
    lng: -95.50799
  phone: 713-981-6063
  website: https://tpni.org
  sources:
  - samhsa/findtreatment
  verified:
    'on': '2026-07-19'
    method: api
- id: tx/houston/texas-treatment-centers-inc
  name: Texas Treatment Centers Inc
  categories:
  - su-treatment
  address:
    street: 4800 West 34th Street
    city: Houston
    state: tx
    zip: '77092'
  place: '4835000'
  geo:
    lat: 29.82069
    lng: -95.46181
  phone: 713-956-7712
  website: https://texastreat.org
  sources:
  - samhsa/findtreatment
  verified:
    'on': '2026-07-19'
    method: api
- id: tx/houston/the-bes-group-inc-solutions-plus
  name: The BES Group Inc Solutions Plus
  categories:
  - su-treatment
  address:
    street: 13201 Northwest Freeway
    city: Houston
    state: tx
    zip: '77040'
  place: '4835000'
  geo:
    lat: 29.84808
    lng: -95.50682
  phone: 832-220-5752
  website: https://www.soyoulive.com
  sources:
  - samhsa/findtreatment
  verified:
    'on': '2026-07-19'
    method: api
- id: tx/houston/the-womens-home
  name: The Womens Home
  categories:
  - su-treatment
  address:
    street: 607 Westheimer Road
    city: Houston
    state: tx
    zip: '77006'
  place: '4835000'
  phone: 713-521-3150
  website: https://www.thewomenshome.org
  sources:
  - samhsa/findtreatment
  verified:
    'on': '2026-07-19'
    method: api
- id: tx/houston/the-womens-home-mabee-wholelife-service-center
  name: The Womens Home Mabee WholeLife Service Center
  categories:
  - su-treatment
  address:
    street: 1905 Jacquelyn Drive
    city: Houston
    state: tx
    zip: '77055'
  place: '4835000'
  geo:
    lat: 29.80525
    lng: -95.4814
  phone: 713-328-1963
  website: https://www.thewomenshome.org
  sources:
  - samhsa/findtreatment
  verified:
    'on': '2026-07-19'
    method: api
- id: tx/houston/third-ward
  name: Third Ward
  place: '4835000'
  geo:
    lat: 29.71044
    lng: -95.35587
  provisional: true
  sources:
  - mutualaidhub/firestore
  verified:
    'on': '2026-07-19'
    method: api
  categories:
  - community-fridge
- id: tx/houston/thompson-elementary
  name: Thompson Elementary
  categories:
  - child-care
  address:
    street: 6121 Tierwester St
    city: Houston
    state: tx
    zip: '77021'
  place: '4835000'
  geo:
    lat: 29.70526
    lng: -95.36308
  phone: 832-389-2840
  sources:
  - acf/head-start-locations
  verified:
    'on': '2026-07-19'
    method: api
- id: tx/houston/tidwell
  name: Tidwell
  categories:
  - child-care
  address:
    street: 8302 John Ralston Rd
    city: Houston
    state: tx
    zip: '77044'
  place: '4835000'
  geo:
    lat: 29.84411
    lng: -95.22442
  phone: 713-696-3124
  sources:
  - acf/head-start-locations
  verified:
    'on': '2026-07-19'
    method: api
- id: tx/houston/toxicology-associates-inc
  name: Toxicology Associates Inc
  categories:
  - su-treatment
  address:
    street: 6910 Bellaire Boulevard
    city: Houston
    state: tx
    zip: '77074'
  place: '4835000'
  geo:
    lat: 29.70521
    lng: -95.50535
  phone: 713-271-0067
  website: https://www.toxicologyassociates.com
  sources:
  - samhsa/findtreatment
  verified:
    'on': '2026-07-19'
    method: api
- id: tx/houston/trc-living
  name: TRC Living
  categories:
  - su-treatment
  - mh-treatment
  address:
    city: Houston
    state: tx
    zip: '77007'
  place: '4835000'
  phone: 832-979-3625
  website: https://www.transcendrecoverycommunity.com
  sources:
  - samhsa/findtreatment
  verified:
    'on': '2026-07-19'
    method: api
- id: tx/houston/triad-mental-health-youth-service-center
  name: TRIAD Mental Health Youth Service Center
  categories:
  - mh-treatment
  address:
    street: 6300 Chimney Rock Road
    city: Houston
    state: tx
    zip: '77081'
  place: '4835000'
  geo:
    lat: 29.71165
    lng: -95.47721
  phone: 713-295-2500
  website: https://resources.harriscountytx.gov
  sources:
  - samhsa/findtreatment
  verified:
    'on': '2026-07-19'
    method: api
- id: tx/houston/unity-childrens-home-trickey-road-location
  name: Unity Childrens Home Trickey Road Location
