- id: tx/jacksonville/access-jacksonville
  name: ACCESS Jacksonville
  categories:
  - su-treatment
  address:
    street: 1011 College Avenue
    city: Jacksonville
    state: tx
    zip: '75766'
  place: '4837216'
  geo:
    lat: 31.95173
    lng: -95.27701
  phone: 903-589-9000
  website: https://www.accessmhmr.org
  sources:
  - samhsa/findtreatment
  verified:
    'on': '2026-07-19'
    method: api
- id: tx/jacksonville/alternative-opiate-treatment-program
  name: Alternative Opiate Treatment Program
  categories:
  - su-treatment
  address:
    street: 1401 East Rusk Street
    city: Jacksonville
    state: tx
    zip: '75766'
  place: '4837216'
  geo:
    lat: 31.96549
    lng: -95.25124
  phone: 903-284-6802
  website: https://
  sources:
  - samhsa/findtreatment
  verified:
    'on': '2026-07-19'
    method: api
- id: tx/jacksonville/family-circle-of-care-jacksonville-clinic
  name: FAMILY Circle of Care Jacksonville Clinic
  categories:
  - community-health-center
  address:
    street: 510 E Commerce St
    city: Jacksonville
    state: tx
    zip: '75766'
  place: '4837216'
  geo:
    lat: 31.96532
    lng: -95.26974
  phone: 903-535-9041
  website: https://www.tylercircleofcare.org
  external_ids:
    bphc: BPS-H80-018204
  sources:
  - hrsa/health-center-sites
  verified:
    'on': '2026-07-19'
    method: api
- id: tx/jacksonville/jacksonville-east-side-elementary
  name: JACKSONVILLE EAST SIDE ELEMENTARY
  categories:
  - child-care
  address:
    street: 711 Fort Worth St
    city: Jacksonville
    state: tx
    zip: '75766'
  place: '4837216'
  geo:
    lat: 31.95885
    lng: -95.26142
  phone: 903-589-3172
  sources:
  - acf/head-start-locations
  verified:
    'on': '2026-07-19'
    method: api
- id: tx/jacksonville/jacksonville-fred-douglass-elementary
  name: JACKSONVILLE FRED DOUGLASS ELEMENTARY
  categories:
  - child-care
  address:
    street: 1501 E Pine St
    city: Jacksonville
    state: tx
    zip: '75766'
  place: '4837216'
  geo:
    lat: 31.97733
    lng: -95.25733
  phone: 903-589-9703
  sources:
  - acf/head-start-locations
  verified:
    'on': '2026-07-19'
    method: api
- id: tx/jacksonville/jacksonville-joe-wright-elementary
  name: JACKSONVILLE JOE WRIGHT ELEMENTARY
  categories:
  - child-care
  address:
    street: 1055 N Pineda St
    city: Jacksonville
    state: tx
    zip: '75766'
  place: '4837216'
  geo:
    lat: 31.97371
    lng: -95.28754
  phone: 903-589-2851
  sources:
  - acf/head-start-locations
  verified:
    'on': '2026-07-19'
    method: api
- id: tx/jacksonville/jacksonville-west-side-elementary
  name: JACKSONVILLE WEST SIDE ELEMENTARY
  categories:
  - child-care
  address:
    street: 1105 College Ave
    city: Jacksonville
    state: tx
    zip: '75766'
  place: '4837216'
  geo:
    lat: 31.95001
    lng: -95.27839
  phone: 903-589-5165
  sources:
  - acf/head-start-locations
  verified:
    'on': '2026-07-19'
    method: api
