- id: tx/kilgore/chandler-el
  name: Chandler El
  categories:
  - meal-program
  address: {street: 2500 Chandler St, city: Kilgore, state: tx, zip: '75662'}
  description: Free summer meals for kids and teens (2026 season) — sponsored by KILGORE ISD.
  place: '4839124'
  geo: {lat: 32.36554, lng: -94.86241}
  external_ids: {usda_master: Cycle 01_TX_SSO_0312}
  sources:
  - usda/summer-meal-sites
  verified: {'on': '2026-07-19', method: api}
- id: tx/kilgore/kilgore-int
  name: Kilgore Int
  categories:
  - meal-program
  address: {street: 2201 Whipporwill, city: Kilgore, state: tx, zip: '75662'}
  description: Free summer meals for kids and teens (2026 season) — sponsored by KILGORE ISD.
  place: '4839124'
  geo: {lat: 32.37049, lng: -94.8597}
  external_ids: {usda_master: Cycle 01_TX_SSO_0837}
  sources:
  - usda/summer-meal-sites
  verified: {'on': '2026-07-19', method: api}
- id: tx/kilgore/kilgore-primary
  name: KILGORE PRIMARY
  categories:
  - child-care
  address:
    street: 255 Baughman Rd
    city: Kilgore
    state: tx
    zip: '75662'
  place: '4839124'
  geo:
    lat: 32.34748
    lng: -94.84967
  phone: 903-988-3905
  sources:
  - acf/head-start-locations
  verified:
    'on': '2026-07-19'
    method: api
- id: tx/kilgore/kilgore-primary-school
  name: Kilgore Primary School
  categories:
  - meal-program
  address: {street: 255 Baughman Road, city: Kilgore, state: tx, zip: '75662'}
  description: Free summer meals for kids and teens (2026 season) — sponsored by KILGORE ISD.
  place: '4839124'
  geo: {lat: 32.35765, lng: -94.86609}
  external_ids: {usda_master: Cycle 01_TX_SSO_0838}
  sources:
  - usda/summer-meal-sites
  verified: {'on': '2026-07-19', method: api}
- id: tx/kilgore/kilgore-primary-school-2
  name: Kilgore Primary School
  categories:
  - meal-program
  address: {street: 255 Baughman Rd., city: Kilgore, state: tx, zip: '75662'}
  description: Free summer meals for kids and teens (2026 season) — sponsored by KILGORE ISD.
  place: '4839124'
  geo: {lat: 32.35765, lng: -94.86609}
  external_ids: {usda_master: Cycle 10_TX_SSO_1842}
  sources:
  - usda/summer-meal-sites
  verified: {'on': '2026-07-19', method: api}
- id: tx/kilgore/sabine-el
  name: Sabine El
  categories:
  - meal-program
  address: {street: 645 Acess Rd (Cr 3634), city: Kilgore, state: tx, zip: '75662'}
  description: Free summer meals for kids and teens (2026 season) — sponsored by SABINE ISD.
  place: '4839124'
  geo: {lat: 32.43392, lng: -94.93561}
  external_ids: {usda_master: Cycle 01_TX_SSO_1342}
  sources:
  - usda/summer-meal-sites
  verified: {'on': '2026-07-19', method: api}
- id: tx/kilgore/wellness-pointe-kilgore
  name: Wellness Pointe - Kilgore
  categories:
  - community-health-center
  cost: sliding-scale
  address:
    street: '1711 S Henderson Blvd, #400'
    city: Kilgore
    state: tx
    zip: '75662'
  place: '4839124'
  geo:
    lat: 32.3728
    lng: -94.86998
  phone: 888-811-6648
  website: https://www.longviewwellness.org
  external_ids:
    bphc: BPS-H80-009094
  sources:
  - hrsa/health-center-sites
  verified:
    'on': '2026-07-19'
    method: api
