- id: tx/kyle/communicare-health-centers-kyle
  name: CommuniCare Health Centers - Kyle
  categories:
  - community-health-center
  address:
    street: 2810 Dacy Ln
    city: Kyle
    state: tx
    zip: '78640'
  place: '4839952'
  geo:
    lat: 30.01468
    lng: -97.84002
  phone: 512-268-8900
  website: https://www.communicaresa.org
  external_ids:
    bphc: BPS-H80-008672
  sources:
  - hrsa/health-center-sites
  verified:
    'on': '2026-07-19'
    method: api
- id: tx/kyle/hemphill-cdc-early-head-start
  name: Hemphill CDC Early Head Start
  categories:
  - child-care
  address:
    street: 3995 E Hwy 150A
    city: Kyle
    state: tx
    zip: '78640'
  place: '4839952'
  geo:
    lat: 29.94246
    lng: -97.8273
  phone: 512-268-2480
  sources:
  - acf/head-start-locations
  verified:
    'on': '2026-07-19'
    method: api
- id: tx/kyle/hemphill-cdc-head-start
  name: Hemphill CDC Head Start
  categories:
  - child-care
  address:
    street: 3995 E FM 150
    city: Kyle
    state: tx
    zip: '78640'
  place: '4839952'
  geo:
    lat: 29.94233
    lng: -97.82714
  phone: 512-268-4716
  sources:
  - acf/head-start-locations
  verified:
    'on': '2026-07-19'
    method: api
- id: tx/kyle/hill-country-mhdd-centers-kyle-mental-health
  name: Hill Country MHDD Centers Kyle Mental Health
  categories:
  - su-treatment
  - mh-treatment
  address:
    street: 1300 Dacy Lane
    city: Kyle
    state: tx
    zip: '78640'
  place: '4839952'
  geo:
    lat: 30.00572
    lng: -97.85201
  phone: 512-392-8953
  website: https://hillcountry.org
  sources:
  - samhsa/findtreatment
  verified:
    'on': '2026-07-19'
    method: api
- id: tx/kyle/kyle-housing-authority
  name: Kyle Housing Authority
  categories:
  - housing-assistance
  address: {street: 417 W 2nd St, city: Kyle, state: tx, zip: '78640'}
  description: Public housing (Low-Rent) agency
  place: '4839952'
  geo: {lat: 29.9834, lng: -97.88019}
  phone: 512-394-4138
  sources:
  - hud/resource-locator
  verified: {'on': '2026-07-19', method: api}
