- id: tx/lockhart/bluebonnet-trails-community-services-caldwell-co
  name: Bluebonnet Trails Community Services Caldwell County
  categories:
  - su-treatment
  - mh-treatment
  address:
    street: 2060 South Colorado Street
    city: Lockhart
    state: tx
    zip: '78644'
  place: '4843240'
  geo:
    lat: 29.85252
    lng: -97.66752
  phone: 830-875-5700
  website: https://www.bbtrails.org
  sources:
  - samhsa/findtreatment
  verified:
    'on': '2026-07-19'
    method: api
- id: tx/lockhart/lockhart-cdc
  name: Lockhart CDC
  categories:
  - child-care
  address:
    street: 1808 W San Antonio St
    city: Lockhart
    state: tx
    zip: '78644'
  place: '4843240'
  geo:
    lat: 29.88238
    lng: -97.70336
  phone: 512-398-7141
  sources:
  - acf/head-start-locations
  verified:
    'on': '2026-07-19'
    method: api
- id: tx/lockhart/lockhart-family-practice-center
  name: Lockhart Family Practice Center
  categories:
  - community-health-center
  address:
    street: '2060 S Colorado St # 183'
    city: Lockhart
    state: tx
    zip: '78644'
  place: '4843240'
  geo:
    lat: 29.85257
    lng: -97.66812
  phone: 830-494-4001
  website: https://www.chcsct.com
  external_ids:
    bphc: BPS-H80-017056
  sources:
  - hrsa/health-center-sites
  verified:
    'on': '2026-07-19'
    method: api
- id: tx/lockhart/lockhart-housing-authority
  name: Lockhart Housing Authority
  categories:
  - housing-assistance
  address: {street: 809 Redwood St, city: Lockhart, state: tx, zip: '78644'}
  description: Public housing (Low-Rent) agency
  place: '4843240'
  geo: {lat: 29.8865, lng: -97.68362}
  phone: 512-398-2715
  sources:
  - hud/resource-locator
  verified: {'on': '2026-07-19', method: api}
- id: tx/lockhart/pegasus-schools-inc
  name: Pegasus Schools Inc
  categories:
  - su-treatment
  - mh-treatment
  address:
    street: 896 Robin Ranch Road
    city: Lockhart
    state: tx
    zip: '78644'
  place: '4843240'
  geo:
    lat: 29.83825
    lng: -97.67987
  phone: 512-432-1621
  website: https://www.pegasusschool.net
  sources:
  - samhsa/findtreatment
  verified:
    'on': '2026-07-19'
    method: api
