- id: tx/mansfield/addiction-recovery-center-texas-health
  name: Addiction Recovery Center Texas Health
  categories:
  - su-treatment
  address:
    street: 240 North Miller Road
    city: Mansfield
    state: tx
    zip: '76063'
  place: '4846452'
  geo:
    lat: 32.57013
    lng: -97.09303
  phone: 682-812-6150
  website: https://TexasHealthRecovery.com
  sources:
  - samhsa/findtreatment
  verified:
    'on': '2026-07-19'
    method: api
- id: tx/mansfield/alice-ponder-elementary
  name: Alice Ponder Elementary
  categories:
  - meal-program
  address: {street: 101 Pleasant Ridge Drive, city: Mansfield, state: tx, zip: '76063'}
  description: Free summer meals for kids and teens (2026 season) — sponsored by MANSFIELD ISD.
  place: '4846452'
  geo: {lat: 32.57413, lng: -97.14268}
  external_ids: {usda_master: Cycle 01_TX_SFSP_0020}
  sources:
  - usda/summer-meal-sites
  verified: {'on': '2026-07-19', method: api}
- id: tx/mansfield/bethlehem-baptist-church
  name: Bethlehem Baptist Church
  categories:
  - meal-program
  address: {street: '1188 W. Broad St. #500', city: Mansfield, state: tx, zip: '76063'}
  description: Free summer meals for kids and teens (2026 season) — sponsored by MANSFIELD ISD.
  place: '4846452'
  geo: {lat: 32.55599, lng: -97.16309}
  external_ids: {usda_master: Cycle 01_TX_SFSP_0124}
  sources:
  - usda/summer-meal-sites
  verified: {'on': '2026-07-19', method: api}
- id: tx/mansfield/gallus-detox-dallas
  name: Gallus Detox Dallas
  categories:
  - su-treatment
  address:
    street: 1776 North U.S. Highway 287
    city: Mansfield
    state: tx
    zip: '76063'
  place: '4846452'
  geo:
    lat: 32.54339
    lng: -97.10653
  phone: 682-422-7518 x1501
  website: https://www.gallusdetox.com
  sources:
  - samhsa/findtreatment
  verified:
    'on': '2026-07-19'
    method: api
- id: tx/mansfield/knd-behavioral-health-clinic
  name: KND Behavioral Health Clinic
  categories:
  - su-treatment
  - mh-treatment
  address:
    street: 99 Regency Parkway
    city: Mansfield
    state: tx
    zip: '76063'
  place: '4846452'
  geo:
    lat: 32.56264
    lng: -97.10664
  phone: 469-243-5711 x100
  website: https://www.kndbehavioralhealth.com
  sources:
  - samhsa/findtreatment
  verified:
    'on': '2026-07-19'
    method: api
- id: tx/mansfield/mansfield-cdc
  name: Mansfield CDC
  categories:
  - child-care
  address:
    street: 800 E Broad St
    city: Mansfield
    state: tx
    zip: '76063'
  place: '4846452'
  geo:
    lat: 32.5641
    lng: -97.13244
  phone: 817-453-9315
  sources:
  - acf/head-start-locations
  verified:
    'on': '2026-07-19'
    method: api
- id: tx/mansfield/mansfield-public-library
  name: Mansfield Public Library
  categories:
  - meal-program
  address: {street: 104 S. Wisteria Street, city: Mansfield, state: tx, zip: '76063'}
  description: Free summer meals for kids and teens (2026 season) — sponsored by MANSFIELD ISD.
  place: '4846452'
  geo: {lat: 32.56488, lng: -97.12313}
  external_ids: {usda_master: Cycle 01_TX_SFSP_0970}
  sources:
  - usda/summer-meal-sites
  verified: {'on': '2026-07-19', method: api}
- id: tx/mansfield/mary-jo-sheppard-elementary
  name: Mary Jo Sheppard Elementary
  categories:
  - meal-program
  address: {street: 1701 Fm 1187, city: Mansfield, state: tx, zip: '76063'}
  description: Free summer meals for kids and teens (2026 season) — sponsored by MANSFIELD ISD.
  place: '4846452'
  geo: {lat: 32.58729, lng: -97.169}
  external_ids: {usda_master: Cycle 01_TX_SFSP_0994}
  sources:
  - usda/summer-meal-sites
  verified: {'on': '2026-07-19', method: api}
- id: tx/mansfield/riverwalk-ranch
  name: Riverwalk Ranch
  categories:
  - su-treatment
  address:
    street: 6960 Dick Price Road
    city: Mansfield
    state: tx
    zip: '76063'
  place: '4846452'
  geo:
    lat: 32.60501
    lng: -97.21048
  phone: 877-863-3869
  website: https://www.riverwalkranch.com
  sources:
  - samhsa/findtreatment
  verified:
    'on': '2026-07-19'
    method: api
- id: tx/mansfield/roberta-tipps-elementary
  name: Roberta Tipps Elementary
  categories:
  - meal-program
  address: {street: 3001 N Walnut Creek, city: Mansfield, state: tx, zip: '76063'}
  description: Free summer meals for kids and teens (2026 season) — sponsored by MANSFIELD ISD.
  place: '4846452'
  geo: {lat: 32.60766, lng: -97.13634}
  external_ids: {usda_master: Cycle 01_TX_SFSP_1313}
  sources:
  - usda/summer-meal-sites
  verified: {'on': '2026-07-19', method: api}
