- id: tx/mansfield/addiction-recovery-center-texas-health
  name: Addiction Recovery Center Texas Health
  categories:
  - su-treatment
  address:
    street: 240 North Miller Road
    city: Mansfield
    state: tx
    zip: '76063'
  place: '4846452'
  geo:
    lat: 32.57013
    lng: -97.09303
  phone: 682-812-6150
  website: https://TexasHealthRecovery.com
  sources:
  - samhsa/findtreatment
  verified:
    'on': '2026-07-19'
    method: api
- id: tx/mansfield/gallus-detox-dallas
  name: Gallus Detox Dallas
  categories:
  - su-treatment
  address:
    street: 1776 North U.S. Highway 287
    city: Mansfield
    state: tx
    zip: '76063'
  place: '4846452'
  geo:
    lat: 32.54339
    lng: -97.10653
  phone: 682-422-7518 x1501
  website: https://www.gallusdetox.com
  sources:
  - samhsa/findtreatment
  verified:
    'on': '2026-07-19'
    method: api
- id: tx/mansfield/knd-behavioral-health-clinic
  name: KND Behavioral Health Clinic
  categories:
  - su-treatment
  - mh-treatment
  address:
    street: 99 Regency Parkway
    city: Mansfield
    state: tx
    zip: '76063'
  place: '4846452'
  geo:
    lat: 32.56264
    lng: -97.10664
  phone: 469-243-5711 x100
  website: https://www.kndbehavioralhealth.com
  sources:
  - samhsa/findtreatment
  verified:
    'on': '2026-07-19'
    method: api
- id: tx/mansfield/mansfield-cdc
  name: Mansfield CDC
  categories:
  - child-care
  address:
    street: 800 E Broad St
    city: Mansfield
    state: tx
    zip: '76063'
  place: '4846452'
  geo:
    lat: 32.5641
    lng: -97.13244
  phone: 817-453-9315
  sources:
  - acf/head-start-locations
  verified:
    'on': '2026-07-19'
    method: api
- id: tx/mansfield/riverwalk-ranch
  name: Riverwalk Ranch
  categories:
  - su-treatment
  address:
    street: 6960 Dick Price Road
    city: Mansfield
    state: tx
    zip: '76063'
  place: '4846452'
  geo:
    lat: 32.60501
    lng: -97.21048
  phone: 877-863-3869
  website: https://www.riverwalkranch.com
  sources:
  - samhsa/findtreatment
  verified:
    'on': '2026-07-19'
    method: api
