- id: tx/menard/fhn-menard-elem-middle
  name: FHN -  Menard Elem-MIddle
  categories:
  - community-health-center
  cost: sliding-scale
  address:
    street: 300 Gay St
    city: Menard
    state: tx
    zip: '76859'
  place: '4847628'
  geo:
    lat: 30.91463
    lng: -99.78465
  phone: 325-396-4612
  external_ids:
    bphc: BPS-H80-038150
  sources:
  - hrsa/health-center-sites
  verified:
    'on': '2026-07-19'
    method: api
- id: tx/menard/fhn-menard-hs
  name: FHN - Menard HS
  categories:
  - community-health-center
  cost: sliding-scale
  address:
    street: 401 Travis St
    city: Menard
    state: tx
    zip: '76859'
  place: '4847628'
  geo:
    lat: 30.91345
    lng: -99.79039
  phone: 325-396-4612
  external_ids:
    bphc: BPS-H80-038899
  sources:
  - hrsa/health-center-sites
  verified:
    'on': '2026-07-19'
    method: api
- id: tx/menard/frontera-healthcare-network-menard-admin
  name: Frontera Healthcare Network - Menard Admin
  categories:
  - community-health-center
  cost: sliding-scale
  address:
    street: 105 E San Saba St
    city: Menard
    state: tx
    zip: '76859'
  place: '4847628'
  geo:
    lat: 30.91745
    lng: -99.78489
  phone: 325-869-5500
  website: https://www.fronterahcn.org/index.php
  external_ids:
    bphc: BPS-H80-037643
  sources:
  - hrsa/health-center-sites
  verified:
    'on': '2026-07-19'
    method: api
- id: tx/menard/frontera-healthcare-network-menard-clinic
  name: Frontera Healthcare Network - Menard Clinic
  categories:
  - community-health-center
  cost: sliding-scale
  address:
    street: 119 Ellis St
    city: Menard
    state: tx
    zip: '76859'
  place: '4847628'
  geo:
    lat: 30.91658
    lng: -99.7863
  phone: 325-396-4612
  external_ids:
    bphc: BPS-H80-001766
  sources:
  - hrsa/health-center-sites
  verified:
    'on': '2026-07-19'
    method: api
- id: tx/menard/menard-head-start-early-head-start
  name: Menard Head Start / Early Head Start
  categories:
  - child-care
  address:
    street: 110E San Saba Ave
    city: Menard
    state: tx
    zip: '76859'
  place: '4847628'
  geo:
    lat: 30.91755
    lng: -99.78552
  phone: 325-396-2885
  sources:
  - acf/head-start-locations
  verified:
    'on': '2026-07-19'
    method: api
