- id: tx/midland/carver-early-head-start-center
  name: Carver Early Head Start Center
  categories:
  - child-care
  address:
    street: 815 S Carver St
    city: Midland
    state: tx
    zip: '79701'
  place: '4848072'
  geo:
    lat: 31.9908
    lng: -102.05652
  phone: 432-685-5313
  sources:
  - acf/head-start-locations
  verified:
    'on': '2026-07-19'
    method: api
- id: tx/midland/casa-de-amigos
  name: Casa De Amigos
  categories:
  - meal-program
  address:
    street: 1101 Garden Lane
    city: Midland
    state: tx
    zip: '79701'
  description: Free summer meals for kids and teens (2026 season) — sponsored by WEST TEXAS FOOD BANK.
  place: '4848072'
  geo:
    lat: 32.00852
    lng: -102.06681
  external_ids:
    usda_master: Cycle 01_TX_SFSP_0287
  sources:
  - usda/summer-meal-sites
  verified:
    'on': '2026-07-19'
    method: api
- id: tx/midland/fannin-el
  name: Fannin El
  categories:
  - meal-program
  address:
    street: 2400 Fannin Ave
    city: Midland
    state: tx
    zip: '79705'
  description: Free summer meals for kids and teens (2026 season) — sponsored by MIDLAND ISD.
  place: '4848072'
  geo:
    lat: 32.01774
    lng: -102.11018
  external_ids:
    usda_master: Cycle 06_TX_SSO_1055
  sources:
  - usda/summer-meal-sites
  verified:
    'on': '2026-07-19'
    method: api
- id: tx/midland/george-t-abell-j-h
  name: George T Abell J H
  categories:
  - meal-program
  address:
    street: 3201 Heritage Blvd
    city: Midland
    state: tx
    zip: '79707'
  description: Free summer meals for kids and teens (2026 season) — sponsored by MIDLAND ISD.
  place: '4848072'
  geo:
    lat: 32.00995
    lng: -102.1603
  external_ids:
    usda_master: Cycle 06_TX_SSO_1195
  sources:
  - usda/summer-meal-sites
  verified:
    'on': '2026-07-19'
    method: api
- id: tx/midland/henderson-el
  name: Henderson El
  categories:
  - meal-program
  address:
    street: 4800 Graceland Dr
    city: Midland
    state: tx
    zip: '79703'
  description: Free summer meals for kids and teens (2026 season) — sponsored by MIDLAND ISD.
  place: '4848072'
  geo:
    lat: 31.97616
    lng: -102.13943
  external_ids:
    usda_master: Cycle 06_TX_SSO_1343
  sources:
  - usda/summer-meal-sites
  verified:
    'on': '2026-07-19'
    method: api
- id: tx/midland/legacy-h-s
  name: Legacy H S
  categories:
  - meal-program
  address:
    street: 3500 Neely Ave
    city: Midland
    state: tx
    zip: '79707'
  description: Free summer meals for kids and teens (2026 season) — sponsored by MIDLAND ISD.
  place: '4848072'
  geo:
    lat: 32.01132
    lng: -102.12888
  external_ids:
    usda_master: Cycle 06_TX_SSO_1938
  sources:
  - usda/summer-meal-sites
  verified:
    'on': '2026-07-19'
    method: api
- id: tx/midland/mchs-administration-office
  name: MCHS Administration Office
  categories:
  - community-health-center
  address:
    street: 5001 Andrews Hwy
    city: Midland
    state: tx
    zip: '79703'
  place: '4848072'
  geo:
    lat: 31.99875
    lng: -102.14881
  phone: 432-570-0238
  external_ids:
    bphc: BPS-H80-018087
  sources:
  - hrsa/health-center-sites
  verified:
    'on': '2026-07-19'
    method: api
- id: tx/midland/mchs-pediatric-clinic
  name: MCHS Pediatric Clinic
  categories:
  - community-health-center
  address:
    street: 4214 Andrews Hwy
    city: Midland
    state: tx
    zip: '79703'
  place: '4848072'
  geo:
    lat: 32.00405
    lng: -102.13487
  phone: 432-697-4747
  external_ids:
    bphc: BPS-H80-030519
  sources:
  - hrsa/health-center-sites
  verified:
    'on': '2026-07-19'
    method: api
- id: tx/midland/midland-chc-adult-family-svs
  name: MIDLAND CHC -ADULT FAMILY SVS
  categories:
  - community-health-center
  address:
    street: 801 E Florida Ave
    city: Midland
    state: tx
    zip: '79701'
  place: '4848072'
  geo:
    lat: 31.98994
    lng: -102.06495
  phone: 432-685-0450
  website: https://www.midlandchs.org
  external_ids:
    bphc: BPS-H80-002817
  sources:
  - hrsa/health-center-sites
  verified:
    'on': '2026-07-19'
    method: api
- id: tx/midland/midland-college-pre-k-academy
  name: Midland College Pre-K Academy
  categories:
  - child-care
  address:
    street: 3600 N Garfield St
    city: Midland
    state: tx
    zip: '79705'
  place: '4848072'
  geo:
    lat: 32.03084
    lng: -102.10631
  phone: 432-685-6806
  sources:
  - acf/head-start-locations
  verified:
    'on': '2026-07-19'
    method: api
- id: tx/midland/midland-community-healthcare-services-patient-as
  name: Midland Community Healthcare Services Patient Assistance Office
  categories:
  - community-health-center
  address:
    street: 4214 Andrews Hwy
    city: Midland
    state: tx
    zip: '79703'
  place: '4848072'
  geo:
    lat: 32.00405
    lng: -102.13487
  phone: 432-699-3817
  external_ids:
    bphc: BPS-H80-030957
  sources:
  - hrsa/health-center-sites
  verified:
    'on': '2026-07-19'
    method: api
- id: tx/midland/midland-community-healthcare-services-pbcc-satte
  name: Midland Community Healthcare Services, PBCC Sattelite Clinic
  categories:
  - community-health-center
  address:
    street: 401 E Illinois Ave
    city: Midland
    state: tx
    zip: '79701'
  place: '4848072'
  geo:
    lat: 32.00007
    lng: -102.07047
  phone: 432-570-0238
  website: https://www.midlandchs.org
  external_ids:
    bphc: BPS-H80-014091
  sources:
  - hrsa/health-center-sites
  verified:
    'on': '2026-07-19'
    method: api
- id: tx/midland/midland-community-healthcare-services-women-s-se
  name: Midland Community Healthcare Services, Women's Services Clinic
  categories:
  - community-health-center
  address:
    street: 400 Rosalind Redfern Grover Pkwy
    city: Midland
    state: tx
    zip: '79701'
  place: '4848072'
  geo:
    lat: 31.99676
    lng: -102.09953
  phone: 432-681-3100
  website: https://midlandchs.org
  external_ids:
    bphc: BPS-H80-013774
  sources:
  - hrsa/health-center-sites
  verified:
    'on': '2026-07-19'
    method: api
- id: tx/midland/midland-county-housing-authority
  name: Midland County Housing Authority
  categories:
  - housing-assistance
  address:
    street: 1710 Edwards St
    city: Midland
    state: tx
    zip: '79701'
  description: Housing Choice Voucher (Section 8) agency
  place: '4848072'
  geo:
    lat: 32.01594
    lng: -102.07456
  phone: 432-570-4753
  sources:
  - hud/resource-locator
  verified:
    'on': '2026-07-19'
    method: api
- id: tx/midland/midland-downtown-library
  name: Midland Downtown Library
  categories:
  - meal-program
  address:
    street: 301 W Missouri Ave
    city: Midland
    state: tx
    zip: '79701'
  description: Free summer meals for kids and teens (2026 season) — sponsored by WEST TEXAS FOOD BANK.
  place: '4848072'
  geo:
    lat: 31.99637
    lng: -102.07715
  external_ids:
    usda_master: Cycle 01_TX_SFSP_1036
  sources:
  - usda/summer-meal-sites
  verified:
    'on': '2026-07-19'
    method: api
- id: tx/midland/midland-h-s
  name: Midland H S
  categories:
  - meal-program
  address:
    street: 906 W Illinois Ave
    city: Midland
    state: tx
    zip: '79701'
  description: Free summer meals for kids and teens (2026 season) — sponsored by MIDLAND ISD.
  place: '4848072'
  geo:
    lat: 31.99914
    lng: -102.08398
  external_ids:
    usda_master: Cycle 06_TX_SSO_2226
  sources:
  - usda/summer-meal-sites
  verified:
    'on': '2026-07-19'
    method: api
- id: tx/midland/midland-vet-center
  name: Midland Vet Center
  categories:
  - vet-center
  address: {street: 4001 W. Illinois, city: Midland, state: tx, zip: '79703'}
  place: '4848072'
  geo: {lat: 31.98917, lng: -102.12645}
  phone: 432-697-8222
  website: https://www.va.gov/midland-vet-center/
  hours:
  - {days: [mon, tue, wed, thu, fri], open: '08:00', close: '16:30'}
  external_ids: {va: vc_0716V}
  sources:
  - va/facilities-api
  verified: {'on': '2026-07-19', method: api}
- id: tx/midland/pease-communications-technology-magnet
  name: Pease Communications/Technology Magnet
  categories:
  - meal-program
  address:
    street: 1700 E Magnolia Ave
    city: Midland
    state: tx
    zip: '79705'
  description: Free summer meals for kids and teens (2026 season) — sponsored by MIDLAND ISD.
  place: '4848072'
  geo:
    lat: 32.02516
    lng: -102.06027
  external_ids:
    usda_master: Cycle 06_TX_SSO_2506
  sources:
  - usda/summer-meal-sites
  verified:
    'on': '2026-07-19'
    method: api
- id: tx/midland/permiacare
  name: PermiaCare
  categories:
  - su-treatment
  - mh-treatment
  address:
    street: 401 East Illinois Avenue
    city: Midland
    state: tx
    zip: '79701'
  place: '4848072'
  geo:
    lat: 32.00014
    lng: -102.07044
  phone: 432-570-3300
  website: https://www.permiacare.org
  sources:
  - samhsa/findtreatment
  verified:
    'on': '2026-07-19'
    method: api
- id: tx/midland/permiacare-johnson-center
  name: PermiaCare Johnson Center
  categories:
  - su-treatment
  address:
    street: 502 North Carver Street
    city: Midland
    state: tx
    zip: '79701'
  place: '4848072'
  geo:
    lat: 32.00379
    lng: -102.06092
  phone: 432-570-3390
  website: https://www.permiacare.org
  sources:
  - samhsa/findtreatment
  verified:
    'on': '2026-07-19'
    method: api
- id: tx/midland/springboard-center
  name: Springboard Center
  categories:
  - su-treatment
  address:
    street: 200 Corporate Drive
    city: Midland
    state: tx
    zip: '79705'
  place: '4848072'
  geo:
    lat: 32.03501
    lng: -102.08277
  phone: 432-620-0255
  website: https://www.springboardcenter.org
  sources:
  - samhsa/findtreatment
  verified:
    'on': '2026-07-19'
    method: api
- id: tx/midland/troop-19-free-pantry
  name: Troop 19 free pantry
  categories:
  - food-pantry
  place: '4848072'
  geo:
    lat: 31.98125
    lng: -102.12913
  external_ids:
    lfp: '3042'
  sources:
  - littlefreepantry/map
  verified:
    'on': '2026-07-19'
    method: scrape
- id: tx/midland/viola-m-coleman-h-s
  name: Viola M Coleman H S
  categories:
  - meal-program
  address:
    street: 1600 E Golf Course Rd
    city: Midland
    state: tx
    zip: '79701'
  description: Free summer meals for kids and teens (2026 season) — sponsored by MIDLAND ISD.
  place: '4848072'
  geo:
    lat: 32.01965
    lng: -102.06044
  external_ids:
    usda_master: Cycle 06_TX_SSO_3327
  sources:
  - usda/summer-meal-sites
  verified:
    'on': '2026-07-19'
    method: api
- id: tx/midland/wtcr-midland
  name: WTCR Midland
  categories:
  - su-treatment
  address:
    street: 2401 West Wall Street
    city: Midland
    state: tx
    zip: '79701'
  place: '4848072'
  geo:
    lat: 31.99138
    lng: -102.10051
  phone: 432-687-3945
  website: https://www.wtcr.net
  sources:
  - samhsa/findtreatment
  verified:
    'on': '2026-07-19'
    method: api
- id: tx/midland/yarbrough-elementary
  name: Yarbrough Elementary
  categories:
  - meal-program
  address:
    street: 6000 Riverfront Drive
    city: Midland
    state: tx
    zip: '79706'
  description: Free summer meals for kids and teens (2026 season) — sponsored by MIDLAND ISD.
  place: '4848072'
  geo:
    lat: 31.98352
    lng: -102.16243
  external_ids:
    usda_master: Cycle 06_TX_SSO_3527
  sources:
  - usda/summer-meal-sites
  verified:
    'on': '2026-07-19'
    method: api
