- id: tx/mission/e-chapa-head-start
  name: E. Chapa Head Start
  categories:
  - child-care
  address:
    street: 5670 N Doffing Rd
    city: Mission
    state: tx
    zip: '78574'
  place: '4848768'
  geo:
    lat: 26.28665
    lng: -98.37654
  phone: 956-383-0706
  sources:
  - acf/head-start-locations
  verified:
    'on': '2026-07-19'
    method: api
- id: tx/mission/juan-seguin-head-start
  name: Juan Seguin Head Start
  categories:
  - child-care
  address:
    street: 8500 Western Rd
    city: Mission
    state: tx
    zip: '78574'
  place: '4848768'
  geo:
    lat: 26.33022
    lng: -98.39083
  phone: 956-383-0706
  sources:
  - acf/head-start-locations
  verified:
    'on': '2026-07-19'
    method: api
- id: tx/mission/mission-head-start-center
  name: Mission Head Start Center
  categories:
  - child-care
  address:
    street: 1105 E 8th St
    city: Mission
    state: tx
    zip: '78572'
  place: '4848768'
  geo:
    lat: 26.21197
    lng: -98.31527
  phone: 956-581-3635
  sources:
  - acf/head-start-locations
  verified:
    'on': '2026-07-19'
    method: api
- id: tx/mission/mission-housing-authority
  name: Mission Housing Authority
  categories:
  - housing-assistance
  address: {street: 1300 E 8th St, city: Mission, state: tx, zip: '78572'}
  description: Public housing and Housing Choice Voucher agency
  place: '4848768'
  geo: {lat: 26.21141, lng: -98.31217}
  phone: 956-585-9747
  sources:
  - hud/resource-locator
  verified: {'on': '2026-07-19', method: api}
- id: tx/mission/mission-mshs-center
  name: Mission MSHS Center
  categories:
  - child-care
  address:
    street: 4400 W Mile 3 Rd
    city: Mission
    state: tx
    zip: '78574'
  place: '4848768'
  geo:
    lat: 26.26641
    lng: -98.3709
  phone: 956-420-4110
  sources:
  - acf/head-start-locations
  verified:
    'on': '2026-07-19'
    method: api
- id: tx/mission/nuestra-clinica-del-valle-alton-ii
  name: Nuestra Clinica del Valle - Alton II
  categories:
  - community-health-center
  address:
    street: 317 E Dukakis Ave
    city: Mission
    state: tx
    zip: '78573'
  place: '4848768'
  geo:
    lat: 26.28274
    lng: -98.31209
  phone: 956-519-1800
  website: https://www.nuestraclinicadelvalle.org
  external_ids:
    bphc: BPS-H80-033717
  sources:
  - hrsa/health-center-sites
  verified:
    'on': '2026-07-19'
    method: api
- id: tx/mission/nuestra-clinica-del-valle-memorial
  name: NUESTRA CLINICA DEL VALLE - MEMORIAL
  categories:
  - community-health-center
  address:
    street: 201 S Los Ebanos Rd
    city: Mission
    state: tx
    zip: '78573'
  place: '4848768'
  geo:
    lat: 26.28819
    lng: -98.33028
  phone: 956-519-1800
  website: https://www.nuestraclinicadelvalle.org
  external_ids:
    bphc: BPS-H80-000364
  sources:
  - hrsa/health-center-sites
  verified:
    'on': '2026-07-19'
    method: api
- id: tx/mission/nuestra-clinica-del-valle-mission
  name: NUESTRA CLINICA DEL VALLE - MISSION
  categories:
  - community-health-center
  address:
    street: 611 N Bryan Rd
    city: Mission
    state: tx
    zip: '78572'
  place: '4848768'
  geo:
    lat: 26.20909
    lng: -98.31107
  phone: 956-580-3303
  website: https://www.nuestraclinicadelvalle.org
  external_ids:
    bphc: BPS-H80-005392
  sources:
  - hrsa/health-center-sites
  verified:
    'on': '2026-07-19'
    method: api
- id: tx/mission/salinas-elementary-head-start
  name: Salinas Elementary Head Start
  categories:
  - child-care
  address:
    street: 10820 N Conway Ave
    city: Mission
    state: tx
    zip: '78573'
  place: '4848768'
  geo:
    lat: 26.31313
    lng: -98.30733
  phone: 956-383-0706
  sources:
  - acf/head-start-locations
  verified:
    'on': '2026-07-19'
    method: api
