- id: tx/mission/boys-and-girls-club-banworth-park
  name: Boys And Girls Club Banworth Park
  categories:
  - meal-program
  address:
    street: 1822 N. Shary Rd
    city: Mission
    state: tx
    zip: '78572'
  description: Free summer meals for kids and teens (2026 season) — sponsored by SHARYLAND ISD.
  place: '4848768'
  geo:
    lat: 26.21792
    lng: -98.28459
  external_ids:
    usda_master: Cycle 06_TX_SSO_0377
  sources:
  - usda/summer-meal-sites
  verified:
    'on': '2026-07-19'
    method: api
- id: tx/mission/creative-arts-studio
  name: Creative Arts Studio
  categories:
  - meal-program
  address:
    street: 516 N. Shary Rd
    city: Mission
    state: tx
    zip: '78572'
  description: Free summer meals for kids and teens (2026 season) — sponsored by SHARYLAND ISD.
  place: '4848768'
  geo:
    lat: 26.20659
    lng: -98.28653
  external_ids:
    usda_master: Cycle 06_TX_SSO_0727
  sources:
  - usda/summer-meal-sites
  verified:
    'on': '2026-07-19'
    method: api
- id: tx/mission/dr-maria-palmira-mendiola-el
  name: Dr Maria Palmira Mendiola El
  categories:
  - meal-program
  address:
    street: 6401 N Abram Rd
    city: Mission
    state: tx
    zip: '78574'
  description: Free summer meals for kids and teens (2026 season) — sponsored by LA JOYA ISD.
  place: '4848768'
  geo:
    lat: 26.29933
    lng: -98.38897
  external_ids:
    usda_master: Cycle 10_TX_SSO_0934
  sources:
  - usda/summer-meal-sites
  verified:
    'on': '2026-07-19'
    method: api
- id: tx/mission/dr-palmira-mendiola-el
  name: Dr. Palmira Mendiola El
  categories:
  - meal-program
  address:
    street: 6401 N Abram Rd
    city: Mission
    state: tx
    zip: '78572'
  description: Free summer meals for kids and teens (2026 season) — sponsored by LA JOYA ISD.
  place: '4848768'
  geo:
    lat: 26.29915
    lng: -98.38789
  external_ids:
    usda_master: Cycle 01_TX_SSO_0470
  sources:
  - usda/summer-meal-sites
  verified:
    'on': '2026-07-19'
    method: api
- id: tx/mission/e-chapa-head-start
  name: E. Chapa Head Start
  categories:
  - child-care
  address:
    street: 5670 N Doffing Rd
    city: Mission
    state: tx
    zip: '78574'
  description: Head Start early childhood program — 116 funded slots; operated by Hidalgo County Head
    Start Program.
  place: '4848768'
  geo:
    lat: 26.28665
    lng: -98.37654
  phone: 956-383-0706
  sources:
  - acf/head-start-locations
  verified:
    'on': '2026-07-19'
    method: api
- id: tx/mission/empire-gym
  name: Empire Gym
  categories:
  - meal-program
  address:
    street: 715 N Inspiration Rd Ste B
    city: Mission
    state: tx
    zip: '78572'
  description: Free summer meals for kids and teens (2026 season) — sponsored by LA JOYA ISD.
  place: '4848768'
  geo:
    lat: 26.21544
    lng: -98.35046
  external_ids:
    usda_master: Cycle 10_TX_SSO_1047
  sources:
  - usda/summer-meal-sites
  verified:
    'on': '2026-07-19'
    method: api
- id: tx/mission/evangelina-garza-el
  name: Evangelina Garza El
  categories:
  - meal-program
  address:
    street: 8731 N Doffing Rd
    city: Mission
    state: tx
    zip: '78574'
  description: Free summer meals for kids and teens (2026 season) — sponsored by LA JOYA ISD.
  place: '4848768'
  geo:
    lat: 26.3348
    lng: -98.3686
  external_ids:
    usda_master: Cycle 01_TX_SSO_0534
  sources:
  - usda/summer-meal-sites
  verified:
    'on': '2026-07-19'
    method: api
- id: tx/mission/excellence-in-leadership-academy-school
  name: Excellence In Leadership Academy-School
  categories:
  - meal-program
  address:
    street: 915 W Interstate Hwy 2
    city: Mission
    state: tx
    zip: '78572'
  description: Free summer meals for kids and teens (2026 season) — sponsored by EXCELLENCE IN LEADERSHIP
    ACADEMY.
  place: '4848768'
  geo:
    lat: 26.20422
    lng: -98.33793
  external_ids:
    usda_master: Cycle 01_TX_SSO_0538
  sources:
  - usda/summer-meal-sites
  verified:
    'on': '2026-07-19'
    method: api
- id: tx/mission/idea-college-academy-mission
  name: Idea College Academy-Mission
  categories:
  - meal-program
  address:
    street: 1600 S. Schuerbach Rd
    city: Mission
    state: tx
    zip: '78572'
  description: Free summer meals for kids and teens (2026 season) — sponsored by IDEA ACADEMY.
  place: '4848768'
  geo:
    lat: 26.1963
    lng: -98.36485
  external_ids:
    usda_master: Cycle 06_TX_SSO_1473
  sources:
  - usda/summer-meal-sites
  verified:
    'on': '2026-07-19'
    method: api
- id: tx/mission/idea-north-mission-academy
  name: Idea North Mission Academy
  categories:
  - meal-program
  address:
    street: 2706 N. Holland Ave
    city: Mission
    state: tx
    zip: '78574'
  description: Free summer meals for kids and teens (2026 season) — sponsored by IDEA ACADEMY.
  place: '4848768'
  geo:
    lat: 26.23679
    lng: -98.33032
  external_ids:
    usda_master: Cycle 06_TX_SSO_1501
  sources:
  - usda/summer-meal-sites
  verified:
    'on': '2026-07-19'
    method: api
- id: tx/mission/idea-palmview-academy
  name: Idea Palmview Academy
  categories:
  - meal-program
  address:
    street: 4100 N Schuerbach Rd
    city: Mission
    state: tx
    zip: '78574'
  description: Free summer meals for kids and teens (2026 season) — sponsored by IDEA ACADEMY.
  place: '4848768'
  geo:
    lat: 26.26047
    lng: -98.35334
  external_ids:
    usda_master: Cycle 06_TX_SSO_1503
  sources:
  - usda/summer-meal-sites
  verified:
    'on': '2026-07-19'
    method: api
- id: tx/mission/iglesia-el-dios-viviente
  name: Iglesia El Dios Viviente
  categories:
  - meal-program
  address:
    street: 6204 Longhorn Dr.
    city: Mission
    state: tx
    zip: '78574'
  description: Free summer meals for kids and teens (2026 season) — sponsored by LA JOYA ISD.
  place: '4848768'
  geo:
    lat: 26.29644
    lng: -98.38694
  external_ids:
    usda_master: Cycle 06_TX_SSO_1533
  sources:
  - usda/summer-meal-sites
  verified:
    'on': '2026-07-19'
    method: api
- id: tx/mission/irene-m-garcia-middle-school
  name: Irene M Garcia Middle School
  categories:
  - meal-program
  address:
    street: 933 Paula Dr
    city: Mission
    state: tx
    zip: '78574'
  description: Free summer meals for kids and teens (2026 season) — sponsored by LA JOYA ISD.
  place: '4848768'
  geo:
    lat: 26.23649
    lng: -98.3588
  external_ids:
    usda_master: Cycle 01_TX_SSO_0740
  sources:
  - usda/summer-meal-sites
  verified:
    'on': '2026-07-19'
    method: api
- id: tx/mission/juan-seguin-el
  name: Juan Seguin El
  categories:
  - meal-program
  address:
    street: 8500 N Western Rd
    city: Mission
    state: tx
    zip: '78574'
  description: Free summer meals for kids and teens (2026 season) — sponsored by LA JOYA ISD.
  place: '4848768'
  geo:
    lat: 26.33026
    lng: -98.39131
  external_ids:
    usda_master: Cycle 01_TX_SSO_0794
  sources:
  - usda/summer-meal-sites
  verified:
    'on': '2026-07-19'
    method: api
- id: tx/mission/juan-seguin-head-start
  name: Juan Seguin Head Start
  categories:
  - child-care
  address:
    street: 8500 Western Rd
    city: Mission
    state: tx
    zip: '78574'
  description: Head Start early childhood program — 134 funded slots; operated by Hidalgo County Head
    Start Program.
  place: '4848768'
  geo:
    lat: 26.33022
    lng: -98.39083
  phone: 956-383-0706
  sources:
  - acf/head-start-locations
  verified:
    'on': '2026-07-19'
    method: api
- id: tx/mission/juarez-lincoln-h-s
  name: Juarez-Lincoln H S
  categories:
  - meal-program
  address:
    street: 7801 W. Mile 7 Rd.
    city: Mission
    state: tx
    zip: '78574'
  description: Free summer meals for kids and teens (2026 season) — sponsored by LA JOYA ISD.
  place: '4848768'
  geo:
    lat: 26.32772
    lng: -98.39836
  external_ids:
    usda_master: Cycle 01_TX_SSO_0796
  sources:
  - usda/summer-meal-sites
  verified:
    'on': '2026-07-19'
    method: api
- id: tx/mission/kali-productions
  name: Kali Productions
  categories:
  - meal-program
  address:
    street: 7418 N. La Homa Road
    city: Mission
    state: tx
    zip: '78574'
  description: Free summer meals for kids and teens (2026 season) — sponsored by LA JOYA ISD.
  place: '4848768'
  geo:
    lat: 26.30931
    lng: -98.34883
  external_ids:
    usda_master: Cycle 10_TX_SSO_1790
  sources:
  - usda/summer-meal-sites
  verified:
    'on': '2026-07-19'
    method: api
- id: tx/mission/las-colonias
  name: Las Colonias
  categories:
  - meal-program
  address:
    street: 7206 W Mile 7 1/2 Road
    city: Mission
    state: tx
    zip: '78574'
  description: Free summer meals for kids and teens (2026 season) — sponsored by LA JOYA ISD.
  place: '4848768'
  geo:
    lat: 26.33408
    lng: -98.38726
  external_ids:
    usda_master: Cycle 06_TX_SSO_1915
  sources:
  - usda/summer-meal-sites
  verified:
    'on': '2026-07-19'
    method: api
- id: tx/mission/ljisd-sport-learning-complex
  name: Ljisd Sport & Learning Complex
  categories:
  - meal-program
  address:
    street: 1801 Western Road
    city: Mission
    state: tx
    zip: '78572'
  description: Free summer meals for kids and teens (2026 season) — sponsored by LA JOYA ISD.
  place: '4848768'
  geo:
    lat: 26.24255
    lng: -98.40893
  external_ids:
    usda_master: Cycle 10_TX_SSO_2073
  sources:
  - usda/summer-meal-sites
  verified:
    'on': '2026-07-19'
    method: api
- id: tx/mission/lloyd-m-bentsen-elementary
  name: Lloyd M Bentsen Elementary
  categories:
  - meal-program
  address:
    street: 3301 Mile 3 Rd
    city: Mission
    state: tx
    zip: '78574'
  description: Free summer meals for kids and teens (2026 season) — sponsored by LA JOYA ISD.
  place: '4848768'
  geo:
    lat: 26.26376
    lng: -98.3575
  external_ids:
    usda_master: Cycle 01_TX_SSO_0927
  sources:
  - usda/summer-meal-sites
  verified:
    'on': '2026-07-19'
    method: api
- id: tx/mission/ministerios-la-vid-verdadera
  name: Ministerios La Vid Verdadera
  categories:
  - meal-program
  address:
    street: 6816 N. La Homa Road
    city: Mission
    state: tx
    zip: '78574'
  description: Free summer meals for kids and teens (2026 season) — sponsored by LA JOYA ISD.
  place: '4848768'
  geo:
    lat: 26.30061
    lng: -98.35036
  external_ids:
    usda_master: Cycle 06_TX_SSO_2244
  sources:
  - usda/summer-meal-sites
  verified:
    'on': '2026-07-19'
    method: api
- id: tx/mission/mission-boys-and-girls-club
  name: Mission Boys And Girls Club
  categories:
  - meal-program
  address:
    street: 209 Cleo Dawson St
    city: Mission
    state: tx
    zip: '78572'
  description: Free summer meals for kids and teens (2026 season) — sponsored by MISSION CONS ISD.
  place: '4848768'
  geo:
    lat: 26.22394
    lng: -98.32589
  external_ids:
    usda_master: Cycle 06_TX_SSO_2249
  sources:
  - usda/summer-meal-sites
  verified:
    'on': '2026-07-19'
    method: api
- id: tx/mission/mission-h-s
  name: Mission H S
  categories:
  - meal-program
  address:
    street: 1802 Cleo Dawson St.
    city: Mission
    state: tx
    zip: '78572'
  description: Free summer meals for kids and teens (2026 season) — sponsored by MISSION CONS ISD.
  place: '4848768'
  geo:
    lat: 26.22426
    lng: -98.32869
  external_ids:
    usda_master: Cycle 01_TX_SSO_1046
  sources:
  - usda/summer-meal-sites
  verified:
    'on': '2026-07-19'
    method: api
- id: tx/mission/mission-head-start-center
  name: Mission Head Start Center
  categories:
  - child-care
  address:
    street: 1105 E 8th St
    city: Mission
    state: tx
    zip: '78572'
  description: Head Start early childhood program — 100 funded slots; operated by Hidalgo County Head
    Start Program.
  place: '4848768'
  geo:
    lat: 26.21197
    lng: -98.31527
  phone: 956-581-3635
  sources:
  - acf/head-start-locations
  verified:
    'on': '2026-07-19'
    method: api
- id: tx/mission/mission-housing-authority
  name: Mission Housing Authority
  categories:
  - housing-assistance
  address:
    street: 1300 E 8th St
    city: Mission
    state: tx
    zip: '78572'
  description: Public housing and Housing Choice Voucher agency
  place: '4848768'
  geo:
    lat: 26.21141
    lng: -98.31217
  phone: 956-585-9747
  sources:
  - hud/resource-locator
  verified:
    'on': '2026-07-19'
    method: api
- id: tx/mission/mission-housing-authority-2
  name: Mission Housing Authority
  categories:
  - meal-program
  address:
    street: 722 N. Mayberry Road
    city: Mission
    state: tx
    zip: '78573'
  description: Free summer meals for kids and teens (2026 season) — sponsored by Healthy Kids and Teens
    of South Texas, Inc..
  place: '4848768'
  geo:
    lat: 26.29172
    lng: -98.30475
  external_ids:
    usda_master: Cycle 06_TX_SFSP_2251
  sources:
  - usda/summer-meal-sites
  verified:
    'on': '2026-07-19'
    method: api
- id: tx/mission/mission-mshs-center
  name: Mission MSHS Center
  categories:
  - child-care
  address:
    street: 4400 W Mile 3 Rd
    city: Mission
    state: tx
    zip: '78574'
  description: Head Start early childhood program — 142 funded slots; operated by United Migrant Opportunity
    Services, Inc..
  place: '4848768'
  geo:
    lat: 26.26641
    lng: -98.3709
  phone: 956-420-4110
  sources:
  - acf/head-start-locations
  verified:
    'on': '2026-07-19'
    method: api
- id: tx/mission/nuestra-clinica-del-valle-alton-ii
  name: Nuestra Clinica del Valle - Alton II
  categories:
  - community-health-center
  cost: sliding-scale
  address:
    street: 317 E Dukakis Ave
    city: Mission
    state: tx
    zip: '78573'
  place: '4848768'
  geo:
    lat: 26.28274
    lng: -98.31209
  phone: 956-519-1800
  website: https://www.nuestraclinicadelvalle.org
  external_ids:
    bphc: BPS-H80-033717
  sources:
  - hrsa/health-center-sites
  verified:
    'on': '2026-07-19'
    method: api
- id: tx/mission/nuestra-clinica-del-valle-memorial
  name: NUESTRA CLINICA DEL VALLE - MEMORIAL
  categories:
  - community-health-center
  cost: sliding-scale
  address:
    street: 201 S Los Ebanos Rd
    city: Mission
    state: tx
    zip: '78573'
  place: '4848768'
  geo:
    lat: 26.28819
    lng: -98.33028
  phone: 956-519-1800
  website: https://www.nuestraclinicadelvalle.org
  external_ids:
    bphc: BPS-H80-000364
  sources:
  - hrsa/health-center-sites
  verified:
    'on': '2026-07-19'
    method: api
- id: tx/mission/nuestra-clinica-del-valle-mission
  name: NUESTRA CLINICA DEL VALLE - MISSION
  categories:
  - community-health-center
  cost: sliding-scale
  address:
    street: 611 N Bryan Rd
    city: Mission
    state: tx
    zip: '78572'
  place: '4848768'
  geo:
    lat: 26.20909
    lng: -98.31107
  phone: 956-580-3303
  website: https://www.nuestraclinicadelvalle.org
  external_ids:
    bphc: BPS-H80-005392
  sources:
  - hrsa/health-center-sites
  verified:
    'on': '2026-07-19'
    method: api
- id: tx/mission/palmview-high-school
  name: Palmview High School
  categories:
  - meal-program
  address:
    street: 3901 N. La Homa Rd
    city: Mission
    state: tx
    zip: '78574'
  description: Free summer meals for kids and teens (2026 season) — sponsored by LA JOYA ISD.
  place: '4848768'
  geo:
    lat: 26.2578
    lng: -98.35795
  external_ids:
    usda_master: Cycle 01_TX_SSO_1167
  sources:
  - usda/summer-meal-sites
  verified:
    'on': '2026-07-19'
    method: api
- id: tx/mission/pearson-el
  name: Pearson El
  categories:
  - meal-program
  address:
    street: 315 Holland Ave
    city: Mission
    state: tx
    zip: '78572'
  description: Free summer meals for kids and teens (2026 season) — sponsored by MISSION CONS ISD.
  place: '4848768'
  geo:
    lat: 26.21027
    lng: -98.33484
  external_ids:
    usda_master: Cycle 01_TX_SSO_1189
  sources:
  - usda/summer-meal-sites
  verified:
    'on': '2026-07-19'
    method: api
- id: tx/mission/penitas-public-library
  name: Penitas Public Library
  categories:
  - meal-program
  address:
    street: 1111 South Main Street
    city: Mission
    state: tx
    zip: '78576'
  description: Free summer meals for kids and teens (2026 season) — sponsored by LA JOYA ISD.
  place: '4848768'
  geo:
    lat: 26.23047
    lng: -98.44517
  external_ids:
    usda_master: Cycle 10_TX_SSO_2626
  sources:
  - usda/summer-meal-sites
  verified:
    'on': '2026-07-19'
    method: api
- id: tx/mission/premier-high-school-of-mission
  name: Premier High School Of Mission
  categories:
  - meal-program
  address:
    street: 1203 St. Claire
    city: Mission
    state: tx
    zip: '78572'
  description: Free summer meals for kids and teens (2026 season) — sponsored by MISSION CONS ISD.
  place: '4848768'
  geo:
    lat: 26.19459
    lng: -98.31523
  external_ids:
    usda_master: Cycle 06_TX_SSO_2582
  sources:
  - usda/summer-meal-sites
  verified:
    'on': '2026-07-19'
    method: api
- id: tx/mission/proyecto-desarrollo-humano-2
  name: 'Proyecto Desarrollo Humano #2'
  categories:
  - meal-program
  address:
    street: 8245 Poinsetta Drive
    city: Mission
    state: tx
    zip: '78574'
  description: Free summer meals for kids and teens (2026 season) — sponsored by LA JOYA ISD.
  place: '4848768'
  geo:
    lat: 26.32687
    lng: -98.39053
  external_ids:
    usda_master: Cycle 06_TX_SSO_2603
  sources:
  - usda/summer-meal-sites
  verified:
    'on': '2026-07-19'
    method: api
- id: tx/mission/retama-escuela-de-tutoria
  name: Retama Escuela De Tutoria
  categories:
  - meal-program
  address:
    street: 2112 S. Shary Rd. Suite 1
    city: Mission
    state: tx
    zip: '78572'
  description: Free summer meals for kids and teens (2026 season) — sponsored by HIDALGO ISD.
  place: '4848768'
  geo:
    lat: 26.17984
    lng: -98.29114
  external_ids:
    usda_master: Cycle 06_TX_SSO_2675
  sources:
  - usda/summer-meal-sites
  verified:
    'on': '2026-07-19'
    method: api
- id: tx/mission/romulo-d-martinez
  name: Romulo D. Martinez
  categories:
  - meal-program
  address:
    street: 2571 E 4Th St
    city: Mission
    state: tx
    zip: '78572'
  description: Free summer meals for kids and teens (2026 season) — sponsored by SHARYLAND ISD.
  place: '4848768'
  geo:
    lat: 26.20377
    lng: -98.28041
  external_ids:
    usda_master: Cycle 06_TX_SSO_2746
  sources:
  - usda/summer-meal-sites
  verified:
    'on': '2026-07-19'
    method: api
- id: tx/mission/salinas-elementary-head-start
  name: Salinas Elementary Head Start
  categories:
  - child-care
  address:
    street: 10820 N Conway Ave
    city: Mission
    state: tx
    zip: '78573'
  description: Head Start early childhood program — 84 funded slots; operated by Hidalgo County Head Start
    Program.
  place: '4848768'
  geo:
    lat: 26.31313
    lng: -98.30733
  phone: 956-383-0706
  sources:
  - acf/head-start-locations
  verified:
    'on': '2026-07-19'
    method: api
- id: tx/mission/sharyland-b-l-gray-j-h
  name: Sharyland B L Gray J H
  categories:
  - meal-program
  address:
    street: 4400 S Glasscock Rd
    city: Mission
    state: tx
    zip: '78572'
  description: Free summer meals for kids and teens (2026 season) — sponsored by SHARYLAND ISD.
  place: '4848768'
  geo:
    lat: 26.15865
    lng: -98.30285
  external_ids:
    usda_master: Cycle 06_TX_SSO_2881
  sources:
  - usda/summer-meal-sites
  verified:
    'on': '2026-07-19'
    method: api
- id: tx/mission/sharyland-h-s
  name: Sharyland H S
  categories:
  - meal-program
  address:
    street: 1216 N Shary Rd
    city: Mission
    state: tx
    zip: '78572'
  description: Free summer meals for kids and teens (2026 season) — sponsored by SHARYLAND ISD.
  place: '4848768'
  geo:
    lat: 26.21426
    lng: -98.28523
  external_ids:
    usda_master: Cycle 06_TX_SSO_2882
  sources:
  - usda/summer-meal-sites
  verified:
    'on': '2026-07-19'
    method: api
- id: tx/mission/sharyland-pioneer-h-s
  name: Sharyland Pioneer H S
  categories:
  - meal-program
  address:
    street: 10001 N. Shary Rd
    city: Mission
    state: tx
    zip: '78573'
  description: Free summer meals for kids and teens (2026 season) — sponsored by SHARYLAND ISD.
  place: '4848768'
  geo:
    lat: 26.30055
    lng: -98.2707
  external_ids:
    usda_master: Cycle 06_TX_SSO_2884
  sources:
  - usda/summer-meal-sites
  verified:
    'on': '2026-07-19'
    method: api
- id: tx/mission/speer-memorial-library
  name: Speer Memorial Library
  categories:
  - meal-program
  address:
    street: 801 E 12Th St
    city: Mission
    state: tx
    zip: '78572'
  description: Free summer meals for kids and teens (2026 season) — sponsored by MISSION CONS ISD.
  place: '4848768'
  geo:
    lat: 26.21674
    lng: -98.31672
  external_ids:
    usda_master: Cycle 06_TX_SSO_2978
  sources:
  - usda/summer-meal-sites
  verified:
    'on': '2026-07-19'
    method: api
- id: tx/mission/templo-la-nueva-jerusalen
  name: Templo La Nueva Jerusalen
  categories:
  - meal-program
  address:
    street: 2801 Trey Leal Ave
    city: Mission
    state: tx
    zip: '78574'
  description: Free summer meals for kids and teens (2026 season) — sponsored by LA JOYA ISD.
  place: '4848768'
  geo:
    lat: 26.32483
    lng: -98.34579
  external_ids:
    usda_master: Cycle 10_TX_SSO_3251
  sources:
  - usda/summer-meal-sites
  verified:
    'on': '2026-07-19'
    method: api
- id: tx/mission/vanguard-monet
  name: Vanguard Monet
  categories:
  - meal-program
  address:
    street: 1020 N. Los Ebanos Road
    city: Mission
    state: tx
    zip: '78572'
  description: Free summer meals for kids and teens (2026 season) — sponsored by VANGUARD ACADEMY.
  place: '4848768'
  geo:
    lat: 26.219
    lng: -98.34146
  external_ids:
    usda_master: Cycle 01_TX_SSO_1622
  sources:
  - usda/summer-meal-sites
  verified:
    'on': '2026-07-19'
    method: api
- id: tx/mission/veterans-memorial-high-school
  name: Veterans Memorial High School
  categories:
  - meal-program
  address:
    street: 700 E Two Mile Road
    city: Mission
    state: tx
    zip: '78574'
  description: Free summer meals for kids and teens (2026 season) — sponsored by MISSION CONS ISD.
  place: '4848768'
  geo:
    lat: 26.24117
    lng: -98.29182
  external_ids:
    usda_master: Cycle 01_TX_SSO_1631
  sources:
  - usda/summer-meal-sites
  verified:
    'on': '2026-07-19'
    method: api
