- id: tx/muleshoe/dillman-el
  name: Dillman El
  categories:
  - meal-program
  address: {street: 510 West 18Th, city: Muleshoe, state: tx, zip: '79347'}
  description: Free summer meals for kids and teens (2026 season) — sponsored by MULESHOE ISD.
  place: '4849968'
  geo: {lat: 34.23217, lng: -102.7464}
  external_ids: {usda_master: Cycle 01_TX_SFSP_0454}
  sources:
  - usda/summer-meal-sites
  verified: {'on': '2026-07-19', method: api}
- id: tx/muleshoe/mary-deshazo-el
  name: Mary Deshazo El
  categories:
  - meal-program
  address: {street: 300 West 3Rd Street, city: Muleshoe, state: tx, zip: '79347'}
  description: Free summer meals for kids and teens (2026 season) — sponsored by MULESHOE ISD.
  place: '4849968'
  geo: {lat: 34.22539, lng: -102.72777}
  external_ids: {usda_master: Cycle 01_TX_SFSP_0990}
  sources:
  - usda/summer-meal-sites
  verified: {'on': '2026-07-19', method: api}
- id: tx/muleshoe/muleshoe
  name: Muleshoe
  categories:
  - child-care
  address: {street: 719 E Gum Ave, city: Muleshoe, state: tx, zip: '79347'}
  description: Head Start early childhood program — 24 funded slots; operated by Chicanos por la Causa,
    Inc..
  place: '4849968'
  geo: {lat: 34.22428, lng: -102.71351}
  phone: 956-267-9497
  sources:
  - acf/head-start-locations
  verified: {'on': '2026-07-19', method: api}
- id: tx/muleshoe/muleshoe-h-s
  name: Muleshoe H S
  categories:
  - meal-program
  address: {street: 800 West 3Rd, city: Muleshoe, state: tx, zip: '79347'}
  description: Free summer meals for kids and teens (2026 season) — sponsored by MULESHOE ISD.
  place: '4849968'
  geo: {lat: 34.22149, lng: -102.73119}
  external_ids: {usda_master: Cycle 01_TX_SFSP_1075}
  sources:
  - usda/summer-meal-sites
  verified: {'on': '2026-07-19', method: api}
- id: tx/muleshoe/muleshoe-isd
  name: Muleshoe ISD
  categories:
  - child-care
  address: {street: 510 W 18th St, city: Muleshoe, state: tx, zip: '79347'}
  description: Head Start early childhood program — 55 funded slots; operated by South Plains Community
    Action Association, Inc..
  place: '4849968'
  geo: {lat: 34.23283, lng: -102.74674}
  phone: 806-272-7382
  sources:
  - acf/head-start-locations
  verified: {'on': '2026-07-19', method: api}
