- id: tx/nacogdoches/alcohol-and-drug-abuse-council-of-deep-east-texa
  name: Alcohol and Drug Abuse Council of Deep East Texas
  categories:
  - su-treatment
  address:
    street: 1407 North University Drive
    city: Nacogdoches
    state: tx
    zip: '75961'
  place: '4850256'
  geo:
    lat: 31.61582
    lng: -94.63973
  phone: 936-634-5753
  website: https://www.adacdet.org/
  sources:
  - samhsa/findtreatment
  verified:
    'on': '2026-07-19'
    method: api
- id: tx/nacogdoches/buckleys-free-pantry
  name: Buckley’s Free Pantry
  categories:
  - food-pantry
  place: '4850256'
  geo:
    lat: 31.60536
    lng: -94.65791
  external_ids:
    lfp: '3105'
  sources:
  - littlefreepantry/map
  verified:
    'on': '2026-07-19'
    method: scrape
- id: tx/nacogdoches/burke-nacogdoches
  name: Burke Nacogdoches
  categories:
  - su-treatment
  - mh-treatment
  address:
    street: 3824 North University Drive
    city: Nacogdoches
    state: tx
    zip: '75965'
  place: '4850256'
  geo:
    lat: 31.64087
    lng: -94.63845
  phone: 936-558-6200
  website: https://myburke.org
  sources:
  - samhsa/findtreatment
  verified:
    'on': '2026-07-19'
    method: api
- id: tx/nacogdoches/east-texas-community-health-services
  name: EAST TEXAS COMMUNITY HEALTH SERVICES
  categories:
  - community-health-center
  address:
    street: 1401 S University Dr
    city: Nacogdoches
    state: tx
    zip: '75961'
  place: '4850256'
  geo:
    lat: 31.58824
    lng: -94.64666
  phone: 936-560-5668
  website: https://www.etchc.com
  external_ids:
    bphc: BPS-H80-004461
  sources:
  - hrsa/health-center-sites
  verified:
    'on': '2026-07-19'
    method: api
- id: tx/nacogdoches/eastside-community-clinic
  name: EASTSIDE COMMUNITY CLINIC
  categories:
  - community-health-center
  address:
    street: 1309 S University Dr
    city: Nacogdoches
    state: tx
    zip: '75961'
  place: '4850256'
  geo:
    lat: 31.5889
    lng: -94.64651
  phone: 936-560-5668
  website: https://www.etchc.com
  external_ids:
    bphc: BPS-H80-008873
  sources:
  - hrsa/health-center-sites
  verified:
    'on': '2026-07-19'
    method: api
- id: tx/nacogdoches/etchs-littlejacks-pediatrics
  name: ETCHS LittleJacks Pediatrics
  categories:
  - community-health-center
  address:
    street: 4604 NE Stallings Dr
    city: Nacogdoches
    state: tx
    zip: '75965'
  place: '4850256'
  geo:
    lat: 31.65279
    lng: -94.64692
  phone: 936-205-5805
  external_ids:
    bphc: BPS-H80-038704
  sources:
  - hrsa/health-center-sites
  verified:
    'on': '2026-07-19'
    method: api
- id: tx/nacogdoches/etchsi-mobile-unit
  name: ETCHSI Mobile Unit
  categories:
  - community-health-center
  address:
    street: 1309 S University Dr
    city: Nacogdoches
    state: tx
    zip: '75961'
  place: '4850256'
  geo:
    lat: 31.5889
    lng: -94.64651
  phone: 936-560-5668
  website: https://www.etchc.com
  external_ids:
    bphc: BPS-H80-032064
  sources:
  - hrsa/health-center-sites
  verified:
    'on': '2026-07-19'
    method: api
- id: tx/nacogdoches/housing-authority-of-the-city-of-nacogdoches
  name: Housing Authority Of  The City Of Nacogdoches
  categories:
  - housing-assistance
  address: {street: 715 Summit St, city: Nacogdoches, state: tx, zip: '75961'}
  description: Housing Choice Voucher (Section 8) agency
  place: '4850256'
  geo: {lat: 31.61035, lng: -94.62743}
  phone: 936-569-1131
  sources:
  - hud/resource-locator
  verified: {'on': '2026-07-19', method: api}
- id: tx/nacogdoches/nacogdoches-head-start
  name: Nacogdoches Head Start
  categories:
  - child-care
  address:
    street: 1902 Old Tyler Rd
    street2: P.O. Drawer 631938
    city: Nacogdoches
    state: tx
    zip: '75964'
  place: '4850256'
  geo:
    lat: 31.6217
    lng: -94.66491
  phone: 936-564-1142
  sources:
  - acf/head-start-locations
  verified:
    'on': '2026-07-19'
    method: api
- id: tx/nacogdoches/nacogdoches-isd-head-start-fredonia-early-childh
  name: Nacogdoches ISD Head Start (Fredonia Early Childhood Elementary)
  categories:
  - child-care
  address:
    street: 1326 S Fredonia St
    city: Nacogdoches
    state: tx
    zip: '75964'
  place: '4850256'
  geo:
    lat: 31.59435
    lng: -94.66254
  phone: 936-569-5062
  sources:
  - acf/head-start-locations
  verified:
    'on': '2026-07-19'
    method: api
- id: tx/nacogdoches/westside-community-clinic
  name: WESTSIDE COMMUNITY CLINIC
  categories:
  - community-health-center
  address:
    street: 1210 Douglass Rd
    city: Nacogdoches
    state: tx
    zip: '75964'
  place: '4850256'
  geo:
    lat: 31.60735
    lng: -94.66759
  phone: 936-560-1122
  website: https://www.etchc.com
  external_ids:
    bphc: BPS-H80-003865
  sources:
  - hrsa/health-center-sites
  verified:
    'on': '2026-07-19'
    method: api
