- id: tx/odem/odem-fellowship-pantry-first-baptist-church
  name: Odem Fellowship Pantry- First Baptist Church
  org: tx/coastal-bend-food-bank
  categories:
  - food-pantry
  address: {street: 307 W. Turner, city: Odem, state: tx, zip: '78370'}
  place: '4853376'
  geo: {lat: 27.94771, lng: -97.58721}
  hours:
  - {days: [sat], open: '08:00', close: '10:00'}
  external_ids: {tx-coastal-bend-food-bank: '477'}
  sources:
  - foodbank/tx-coastal-bend-food-bank
  verified: {'on': '2026-07-20', method: api}
- id: tx/odem/odem-fellowship-pantry-methodist
  name: Odem Fellowship Pantry- Methodist
  org: tx/coastal-bend-food-bank
  categories:
  - food-pantry
  address: {street: 1301 Haisley, city: Odem, state: tx, zip: '78370'}
  place: '4853376'
  geo: {lat: 27.94445, lng: -97.59043}
  phone: 361-368-9187
  hours:
  - {days: [sat], open: '08:00', close: '10:00'}
  external_ids: {tx-coastal-bend-food-bank: '476'}
  sources:
  - foodbank/tx-coastal-bend-food-bank
  verified: {'on': '2026-07-20', method: api}
- id: tx/odem/odem-fellowship-pantry-sacred-heart-church
  name: Odem Fellowship Pantry-Sacred Heart Church
  org: tx/coastal-bend-food-bank
  categories:
  - food-pantry
  address: {street: 401 W. Willis, city: Odem, state: tx, zip: '78370'}
  place: '4853376'
  geo: {lat: 27.94981, lng: -97.58719}
  phone: 361-368-9156
  hours:
  - {days: [sat], open: '08:00', close: '10:00'}
  external_ids: {tx-coastal-bend-food-bank: '478'}
  sources:
  - foodbank/tx-coastal-bend-food-bank
  verified: {'on': '2026-07-20', method: api}
- id: tx/odem/odem-h-s
  name: Odem H S
  categories:
  - meal-program
  address: {street: 1 Owl Sq, city: Odem, state: tx, zip: '78370'}
  description: Free summer meals for kids and teens (2026 season) — sponsored by ODEM-EDROY ISD.
  place: '4853376'
  geo: {lat: 27.94775, lng: -97.59174}
  external_ids: {usda_master: Cycle 01_TX_SSO_1145}
  sources:
  - usda/summer-meal-sites
  verified: {'on': '2026-07-19', method: api}
- id: tx/odem/odem-head-start-1
  name: 'Odem Head Start #1'
  categories:
  - child-care
  address: {street: 1615 Voss Ave, city: Odem, state: tx, zip: '78370'}
  description: Head Start early childhood program — 8 funded slots; operated by Community Action Corporation
    of South Texas.
  place: '4853376'
  geo: {lat: 27.94027, lng: -97.59311}
  phone: 361-368-3780
  sources:
  - acf/head-start-locations
  verified: {'on': '2026-07-19', method: api}
