- id: tx/palestine/access-palestine
  name: ACCESS Palestine
  categories:
  - su-treatment
  - mh-treatment
  address:
    street: 2320 South Loop 256
    city: Palestine
    state: tx
    zip: '75801'
  place: '4854708'
  geo:
    lat: 31.73385
    lng: -95.61646
  phone: 903-723-6136
  website: https://www.accessmhmr.org
  sources:
  - samhsa/findtreatment
  verified:
    'on': '2026-07-19'
    method: api
- id: tx/palestine/central-texas-va-healthcare-system-palestine-cbo
  name: Central Texas VA Healthcare System Palestine CBOC
  categories:
  - mh-treatment
  address:
    street: 2000 South Loop 256
    city: Palestine
    state: tx
    zip: '75801'
  place: '4854708'
  geo:
    lat: 31.73367
    lng: -95.60851
  phone: 254-743-1271
  website: https://
  sources:
  - samhsa/findtreatment
  verified:
    'on': '2026-07-19'
    method: api
- id: tx/palestine/community-blessing-box
  name: Community Blessing Box
  categories:
  - food-pantry
  place: '4854708'
  geo:
    lat: 31.76312
    lng: -95.63126
  external_ids:
    lfp: '818'
  sources:
  - littlefreepantry/map
  verified:
    'on': '2026-07-19'
    method: scrape
- id: tx/palestine/crossroads-family-care-palestine
  name: Crossroads Family Care Palestine
  categories:
  - community-health-center
  address:
    street: 4002 S Loop 256, Suite K
    city: Palestine
    state: tx
    zip: '75801'
  place: '4854708'
  geo:
    lat: 31.73895
    lng: -95.64274
  phone: 903-729-3015
  external_ids:
    bphc: BPS-H80-022085
  sources:
  - hrsa/health-center-sites
  verified:
    'on': '2026-07-19'
    method: api
- id: tx/palestine/palestine-regional-medical-center-psychiatric-pr
  name: Palestine Regional Medical Center Psychiatric Programs
  categories:
  - su-treatment
  - mh-treatment
  address:
    street: 4000 South Loop 256
    city: Palestine
    state: tx
    zip: '75801'
  place: '4854708'
  geo:
    lat: 31.73882
    lng: -95.6444
  phone: 903-731-1000
  website: https://www.palestineregional.com
  sources:
  - samhsa/findtreatment
  verified:
    'on': '2026-07-19'
    method: api
- id: tx/palestine/palestine-washington-early-childhood-center
  name: PALESTINE WASHINGTON EARLY CHILDHOOD CENTER
  categories:
  - child-care
  address:
    street: 1020 W Hamlett St
    city: Palestine
    state: tx
    zip: '75803'
  place: '4854708'
  geo:
    lat: 31.75819
    lng: -95.65016
  phone: 903-727-2619
  sources:
  - acf/head-start-locations
  verified:
    'on': '2026-07-19'
    method: api
- id: tx/palestine/westwood-primary
  name: WESTWOOD PRIMARY
  categories:
  - child-care
  address:
    street: 1701 W Point Tap Rd
    city: Palestine
    state: tx
    zip: '75803'
  place: '4854708'
  geo:
    lat: 31.73405
    lng: -95.68473
  phone: 903-723-1035
  sources:
  - acf/head-start-locations
  verified:
    'on': '2026-07-19'
    method: api
