- id: tx/pearland/77584-blessing-box
  name: 77584 Blessing Box
  categories:
  - food-pantry
  place: '4856348'
  geo:
    lat: 29.56035
    lng: -95.29832
  website: https://mapping.littlefreepantry.org/pantry/3699
  external_ids:
    lfp: '3699'
  sources:
  - littlefreepantry/map
  verified:
    'on': '2026-07-19'
    method: scrape
- id: tx/pearland/horizon-montessori-pearland
  name: Horizon Montessori - Pearland
  categories:
  - meal-program
  address: {street: 2319 N. Grand Blvd., city: Pearland, state: tx, zip: '77581'}
  description: Free summer meals for kids and teens (2026 season) — sponsored by SOUTH TEXAS EDUCATIONAL
    TECH.
  place: '4856348'
  geo: {lat: 29.5652, lng: -95.28372}
  external_ids: {usda_master: Cycle 06_TX_SSO_1416}
  sources:
  - usda/summer-meal-sites
  verified: {'on': '2026-07-19', method: api}
- id: tx/pearland/iltexas-pearland-el
  name: Iltexas - Pearland El
  categories:
  - meal-program
  address: {street: 2468 Broadway Street, city: Pearland, state: tx, zip: '77581'}
  description: Free summer meals for kids and teens (2026 season) — sponsored by INTERNATIONAL LEADERSHIP
    OF TEXAS, INC..
  place: '4856348'
  geo: {lat: 29.55218, lng: -95.2544}
  external_ids: {usda_master: Cycle 06_TX_SSO_1555}
  sources:
  - usda/summer-meal-sites
  verified: {'on': '2026-07-19', method: api}
- id: tx/pearland/iltexas-pearland-middle
  name: Iltexas - Pearland Middle
  categories:
  - meal-program
  address: {street: 2468 Broadway Street, city: Pearland, state: tx, zip: '77581'}
  description: Free summer meals for kids and teens (2026 season) — sponsored by INTERNATIONAL LEADERSHIP
    OF TEXAS, INC..
  place: '4856348'
  geo: {lat: 29.55218, lng: -95.2544}
  external_ids: {usda_master: Cycle 06_TX_SSO_1556}
  sources:
  - usda/summer-meal-sites
  verified: {'on': '2026-07-19', method: api}
- id: tx/pearland/little-free-pantry-pearland
  name: Little Free Pantry Pearland
  categories:
  - food-pantry
  place: '4856348'
  geo:
    lat: 29.52644
    lng: -95.28042
  website: https://mapping.littlefreepantry.org/pantry/686
  external_ids:
    lfp: '686'
  sources:
  - littlefreepantry/map
  verified:
    'on': '2026-07-19'
    method: scrape
- id: tx/pearland/mychn-pearland-administration
  name: MyCHN Pearland Administration
  categories:
  - community-health-center
  cost: sliding-scale
  address:
    street: 1346 Broadway St
    city: Pearland
    state: tx
    zip: '77581'
  place: '4856348'
  geo:
    lat: 29.54459
    lng: -95.22755
  phone: 281-824-1480
  external_ids:
    bphc: BPS-H80-038606
  sources:
  - hrsa/health-center-sites
  verified:
    'on': '2026-07-19'
    method: api
- id: tx/pearland/mychn-pearland-silverlake
  name: MyCHN Pearland Silverlake
  categories:
  - community-health-center
  cost: sliding-scale
  address:
    street: 9430 Broadway St, Ste 120
    city: Pearland
    state: tx
    zip: '77584'
  place: '4856348'
  geo:
    lat: 29.55687
    lng: -95.36717
  phone: 281-824-1480
  external_ids:
    bphc: BPS-H80-034295
  sources:
  - hrsa/health-center-sites
  verified:
    'on': '2026-07-19'
    method: api
- id: tx/pearland/pearland-family-health-center
  name: Pearland Family Health Center
  categories:
  - community-health-center
  cost: sliding-scale
  address:
    street: 2552 Broadway St STE 102
    city: Pearland
    state: tx
    zip: '77581'
  place: '4856348'
  geo:
    lat: 29.55268
    lng: -95.25686
  phone: 281-824-1480
  external_ids:
    bphc: BPS-H80-021619
  sources:
  - hrsa/health-center-sites
  verified:
    'on': '2026-07-19'
    method: api
- id: tx/pearland/pursuit-of-hope-group-llc
  name: Pursuit of Hope Group LLC
  categories:
  - su-treatment
  - mh-treatment
  address:
    street: 2620 Cullen Parkway
    city: Pearland
    state: tx
    zip: '77581'
  place: '4856348'
  geo:
    lat: 29.56153
    lng: -95.35125
  phone: 832-780-3960
  website: https://www.pursuinghope.com
  services:
  - Outpatient
  - Clients with co-occurring mental and substance use disorders
  cost: sliding-scale
  sources:
  - samhsa/findtreatment
  verified:
    'on': '2026-07-19'
    method: api
- id: tx/pearland/resilence-center-houston
  name: Resilence Center Houston
  categories:
  - su-treatment
  - mh-treatment
  address:
    street: 12234 Shadow Creek Parkway
    city: Pearland
    state: tx
    zip: '77584'
  place: '4856348'
  geo:
    lat: 29.57549
    lng: -95.40883
  phone: 346-206-3992
  website: https://www.resiliencecenterhouston.com
  services:
  - Outpatient
  - Young adults
  - Seniors or older adults
  - Veterans
  - Active duty military
  - Members of military families
  - Clients with co-occurring mental and substance use disorders
  - Clients with HIV or AIDS
  - Clients who have experienced intimate partner violence, domestic violence
  - Clients who have experienced trauma
  - Persons with traumatic brain injury (TBI)
  - Persons with Alzheimer's or dementia
  - Persons with eating disorders
  - Persons experiencing first-episode psychosis
  cost: varies
  sources:
  - samhsa/findtreatment
  verified:
    'on': '2026-07-19'
    method: api
- id: tx/pearland/rock-of-power-church
  name: Rock of Power Church
  categories:
  - food-pantry
  place: '4856348'
  geo:
    lat: 29.52911
    lng: -95.2899
  website: https://mapping.littlefreepantry.org/pantry/4398
  external_ids:
    lfp: '4398'
  sources:
  - littlefreepantry/map
  verified:
    'on': '2026-07-19'
    method: scrape
- id: tx/pearland/upbring-head-start-pearland
  name: Upbring Head Start Pearland
  categories:
  - child-care
  address:
    street: 3801 Liberty Dr
    city: Pearland
    state: tx
    zip: '77581'
  place: '4856348'
  geo:
    lat: 29.54687
    lng: -95.26053
  phone: 346-326-6074
  sources:
  - acf/head-start-locations
  verified:
    'on': '2026-07-19'
    method: api
