- id: tx/pecos/crockett-middle-school
  name: Crockett Middle School
  categories:
  - meal-program
  address: {street: 1801 Missouri St, city: Pecos, state: tx, zip: '79772'}
  description: Free summer meals for kids and teens (2026 season) — sponsored by PECOS-BARSTOW-TOYAH ISD.
  geo: {lat: 31.40889, lng: -103.50704}
  external_ids: {usda_master: Cycle 01_TX_SSO_0399}
  sources:
  - usda/summer-meal-sites
  verified: {'on': '2026-07-19', method: api}
- id: tx/pecos/green-acres
  name: Green Acres
  categories:
  - meal-program
  address: {street: 2301 Limpia Rd, city: Pecos, state: tx, zip: '79772'}
  description: Free summer meals for kids and teens (2026 season) — sponsored by PECOS-BARSTOW-TOYAH ISD.
  geo: {lat: 31.37028, lng: -103.53748}
  external_ids: {usda_master: Cycle 01_TX_SSO_1089}
  sources:
  - usda/summer-meal-sites
  verified: {'on': '2026-07-19', method: api}
- id: tx/pecos/housing-authority-of-pecos
  name: Housing Authority Of Pecos
  categories:
  - housing-assistance
  address:
    city: Pecos
    state: tx
    zip: '79772'
  description: Public housing (Low-Rent) agency
  geo:
    lat: 31.39813
    lng: -103.50008
  phone: 432-447-2807
  sources:
  - hud/resource-locator
  verified:
    'on': '2026-07-19'
    method: api
- id: tx/pecos/mata-service-and-support-center
  name: Mata Service And Support Center
  categories:
  - meal-program
  address: {street: 100 West F Street, city: Pecos, state: tx, zip: '79772'}
  description: Free summer meals for kids and teens (2026 season) — sponsored by PECOS-BARSTOW-TOYAH ISD.
  geo: {lat: 31.4338, lng: -103.49966}
  external_ids: {usda_master: Cycle 01_TX_SSO_1092}
  sources:
  - usda/summer-meal-sites
  verified: {'on': '2026-07-19', method: api}
- id: tx/pecos/nc-crockett-middle-school
  name: Nc_Crockett Middle School
  categories:
  - meal-program
  address: {street: 1801 Missouri St, city: Pecos, state: tx, zip: '79772'}
  description: Free summer meals for kids and teens (2026 season) — sponsored by PECOS-BARSTOW-TOYAH ISD.
  geo: {lat: 31.40889, lng: -103.50704}
  external_ids: {usda_master: Cycle 07_TX_SSO_3657}
  sources:
  - usda/summer-meal-sites
  verified: {'on': '2026-07-19', method: api}
- id: tx/pecos/nc-green-acres
  name: Nc_Green Acres
  categories:
  - meal-program
  address: {street: 2301 Limpia Rd, city: Pecos, state: tx, zip: '79772'}
  description: Free summer meals for kids and teens (2026 season) — sponsored by PECOS-BARSTOW-TOYAH ISD.
  geo: {lat: 31.37028, lng: -103.53748}
  external_ids: {usda_master: Cycle 07_TX_SSO_3684}
  sources:
  - usda/summer-meal-sites
  verified: {'on': '2026-07-19', method: api}
- id: tx/pecos/nc-mata-service-and-support-center
  name: Nc_Mata Service And Support Center
  categories:
  - meal-program
  address: {street: 100 West F Street, city: Pecos, state: tx, zip: '79772'}
  description: Free summer meals for kids and teens (2026 season) — sponsored by PECOS-BARSTOW-TOYAH ISD.
  geo: {lat: 31.4338, lng: -103.49966}
  external_ids: {usda_master: Cycle 07_TX_SSO_3730}
  sources:
  - usda/summer-meal-sites
  verified: {'on': '2026-07-19', method: api}
- id: tx/pecos/nc-zavala-el
  name: Nc_Zavala El
  categories:
  - meal-program
  address: {street: 600 E 9Th St, city: Pecos, state: tx, zip: '79772'}
  description: Free summer meals for kids and teens (2026 season) — sponsored by PECOS-BARSTOW-TOYAH ISD.
  geo: {lat: 31.42179, lng: -103.4872}
  external_ids: {usda_master: Cycle 07_TX_SSO_3803}
  sources:
  - usda/summer-meal-sites
  verified: {'on': '2026-07-19', method: api}
- id: tx/pecos/t-ayres-d-love
  name: T. Ayres D. Love
  categories:
  - child-care
  address:
    street: 1001 E 10th St
    city: Pecos
    state: tx
    zip: '79772'
  geo:
    lat: 31.42223
    lng: -103.48341
  phone: 432-445-4528
  sources:
  - acf/head-start-locations
  verified:
    'on': '2026-07-19'
    method: api
- id: tx/pecos/west-texas-centers-reeves-county
  name: West Texas Centers Reeves County
  categories:
  - mh-treatment
  address:
    street: 700 West Daggett Street
    city: Pecos
    state: tx
    zip: '79772'
  geo:
    lat: 31.40407
    lng: -103.50099
  phone: 432-447-2628
  website: https://www.wtcmhmr.org
  services:
  - Outpatient
  - Young adults
  - Seniors or older adults
  - Veterans
  - Members of military families
  - Criminal justice (other than DUI/DWI)/Forensic clients
  - Clients with co-occurring mental and substance use disorders
  - Clients who have experienced trauma
  - Persons experiencing first-episode psychosis
  - Persons with post-traumatic stress disorder (PTSD)
  - Children/adolescents with serious emotional disturbance (SED)
  - Persons  18 and older with serious mental illness (SMI)
  cost: sliding-scale
  sources:
  - samhsa/findtreatment
  verified:
    'on': '2026-07-19'
    method: api
- id: tx/pecos/zavala-el
  name: Zavala El
  categories:
  - meal-program
  address: {street: 600 E 9Th St, city: Pecos, state: tx, zip: '79772'}
  description: Free summer meals for kids and teens (2026 season) — sponsored by PECOS-BARSTOW-TOYAH ISD.
  geo: {lat: 31.42179, lng: -103.4872}
  external_ids: {usda_master: Cycle 01_TX_SSO_1798}
  sources:
  - usda/summer-meal-sites
  verified: {'on': '2026-07-19', method: api}
