- id: tx/quinlan/boles-el
  name: Boles El
  categories:
  - meal-program
  address:
    street: 9777 Fm 2101
    city: Quinlan
    state: tx
    zip: '75474'
  description: Free summer meals for kids and teens (2026 season) — sponsored by BOLES ISD.
  place: '4860140'
  geo:
    lat: 32.94676
    lng: -96.10023
  external_ids:
    usda_master: Cycle 06_TX_SSO_0304
  sources:
  - usda/summer-meal-sites
  verified:
    'on': '2026-07-19'
    method: api
- id: tx/quinlan/boles-h-s
  name: Boles H S
  categories:
  - meal-program
  address:
    street: 9777 Fm 2101
    city: Quinlan
    state: tx
    zip: '75474'
  description: Free summer meals for kids and teens (2026 season) — sponsored by BOLES ISD.
  place: '4860140'
  geo:
    lat: 32.94676
    lng: -96.10023
  external_ids:
    usda_master: Cycle 06_TX_SSO_0305
  sources:
  - usda/summer-meal-sites
  verified:
    'on': '2026-07-19'
    method: api
- id: tx/quinlan/boles-middle-school
  name: Boles Middle School
  categories:
  - meal-program
  address:
    street: 9777 Fm 2101
    city: Quinlan
    state: tx
    zip: '75474'
  description: Free summer meals for kids and teens (2026 season) — sponsored by BOLES ISD.
  place: '4860140'
  geo:
    lat: 32.94676
    lng: -96.10023
  external_ids:
    usda_master: Cycle 06_TX_SSO_0306
  sources:
  - usda/summer-meal-sites
  verified:
    'on': '2026-07-19'
    method: api
- id: tx/quinlan/d-c-cannon-el
  name: D C Cannon El
  categories:
  - meal-program
  address:
    street: 315 S Business 34
    city: Quinlan
    state: tx
    zip: '75474'
  description: Free summer meals for kids and teens (2026 season) — sponsored by QUINLAN ISD.
  place: '4860140'
  geo:
    lat: 32.90772
    lng: -96.12792
  external_ids:
    usda_master: Cycle 01_TX_SSO_0416
  sources:
  - usda/summer-meal-sites
  verified:
    'on': '2026-07-19'
    method: api
- id: tx/quinlan/d-c-cannon-elem
  name: D.C Cannon Elem.
  categories:
  - child-care
  address:
    street: 401 Panther Path
    city: Quinlan
    state: tx
    zip: '75474'
  description: Head Start early childhood program — 30 funded slots; operated by Greenville Independent
    School District.
  place: '4860140'
  geo:
    lat: 32.91567
    lng: -96.13163
  phone: 903-356-4400
  sources:
  - acf/head-start-locations
  verified:
    'on': '2026-07-19'
    method: api
- id: tx/quinlan/duck-cove
  name: Duck Cove
  categories:
  - meal-program
  address:
    street: 2757 Pr 3824
    city: Quinlan
    state: tx
    zip: '75474'
  description: Free summer meals for kids and teens (2026 season) — sponsored by QUINLAN ISD.
  place: '4860140'
  geo:
    lat: 32.85421
    lng: -96.06168
  external_ids:
    usda_master: Cycle 01_TX_SSO_0476
  sources:
  - usda/summer-meal-sites
  verified:
    'on': '2026-07-19'
    method: api
- id: tx/quinlan/quinlan-community-park-feeding-site-3
  name: 'Quinlan Community Park Feeding Site # 3'
  categories:
  - meal-program
  address:
    street: 415 St. Hwy-Spur 264
    city: Quinlan
    state: tx
    zip: '75474'
  description: Free summer meals for kids and teens (2026 season) — sponsored by QUINLAN ISD.
  place: '4860140'
  geo:
    lat: 32.90371
    lng: -96.13538
  external_ids:
    usda_master: Cycle 01_TX_SSO_1253
  sources:
  - usda/summer-meal-sites
  verified:
    'on': '2026-07-19'
    method: api
