- id: tx/san-marcos/a-washington-cdc
  name: A.Washington CDC
  categories:
  - child-care
  address:
    street: 103 Hays St.
    city: San Marcos
    state: tx
    zip: '78666'
  place: '4865600'
  geo:
    lat: 29.8643
    lng: -97.93964
  phone: 512-353-1507
  sources:
  - acf/head-start-locations
  verified:
    'on': '2026-07-19'
    method: api
- id: tx/san-marcos/allenwood-housing
  name: Allenwood Housing
  categories:
  - meal-program
  address: {street: '1201 Thorpe Lane #177', city: San Marcos, state: tx, zip: '78666'}
  description: Free summer meals for kids and teens (2026 season) — sponsored by SAN MARCOS CONS ISD.
  place: '4865600'
  geo: {lat: 29.88888, lng: -97.92374}
  external_ids: {usda_master: Cycle 01_TX_SSO_0027}
  sources:
  - usda/summer-meal-sites
  verified: {'on': '2026-07-19', method: api}
- id: tx/san-marcos/bonham-pre-k
  name: Bonham Pre-K
  categories:
  - child-care
  address:
    street: 1225 N State Highway 123
    city: San Marcos
    state: tx
    zip: '78666'
  place: '4865600'
  geo:
    lat: 29.86128
    lng: -97.93962
  phone: 512-757-8243
  sources:
  - acf/head-start-locations
  verified:
    'on': '2026-07-19'
    method: api
- id: tx/san-marcos/bonham-pre-k-school
  name: Bonham Pre-K School
  categories:
  - meal-program
  address: {street: 1225 Hwy 123, city: San Marcos, state: tx, zip: '78666'}
  description: Free summer meals for kids and teens (2026 season) — sponsored by SAN MARCOS CONS ISD.
  place: '4865600'
  geo: {lat: 29.86123, lng: -97.93909}
  external_ids: {usda_master: Cycle 01_TX_SSO_0152}
  sources:
  - usda/summer-meal-sites
  verified: {'on': '2026-07-19', method: api}
- id: tx/san-marcos/c-m-allen-hud-housing
  name: C M Allen Hud Housing
  categories:
  - meal-program
  address: {street: 820 Sturgeon Street, city: San Marcos, state: tx, zip: '78666'}
  description: Free summer meals for kids and teens (2026 season) — sponsored by SAN MARCOS CONS ISD.
  place: '4865600'
  geo: {lat: 29.8742, lng: -97.92273}
  external_ids: {usda_master: Cycle 01_TX_SSO_0253}
  sources:
  - usda/summer-meal-sites
  verified: {'on': '2026-07-19', method: api}
- id: tx/san-marcos/communicare-health-centers-san-marcos
  name: CommuniCare Health Centers - San Marcos
  categories:
  - community-health-center
  address:
    street: 1941 S Interstate 35, Suite 101
    city: San Marcos
    state: tx
    zip: '78666'
  place: '4865600'
  geo:
    lat: 29.85784
    lng: -97.95098
  phone: 512-268-8900
  website: https://www.communicaresa.org
  external_ids:
    bphc: BPS-H80-024792
  sources:
  - hrsa/health-center-sites
  verified:
    'on': '2026-07-19'
    method: api
- id: tx/san-marcos/crockett-el
  name: Crockett El
  categories:
  - meal-program
  address: {street: 1300 Girard Street, city: San Marcos, state: tx, zip: '78666'}
  description: Free summer meals for kids and teens (2026 season) — sponsored by SAN MARCOS CONS ISD.
  place: '4865600'
  geo: {lat: 29.88482, lng: -97.96213}
  external_ids: {usda_master: Cycle 01_TX_SSO_0396}
  sources:
  - usda/summer-meal-sites
  verified: {'on': '2026-07-19', method: api}
- id: tx/san-marcos/dunbar-park
  name: Dunbar Park
  categories:
  - meal-program
  address: {street: 801 Martin Luther King Dr, city: San Marcos, state: tx, zip: '78666'}
  description: Free summer meals for kids and teens (2026 season) — sponsored by SAN MARCOS CONS ISD.
  place: '4865600'
  geo: {lat: 29.87696, lng: -97.94733}
  external_ids: {usda_master: Cycle 01_TX_SSO_0481}
  sources:
  - usda/summer-meal-sites
  verified: {'on': '2026-07-19', method: api}
- id: tx/san-marcos/goodnight-middle
  name: Goodnight Middle
  categories:
  - meal-program
  address: {street: 1301 Texas Hwy 123, city: San Marcos, state: tx, zip: '78666'}
  description: Free summer meals for kids and teens (2026 season) — sponsored by SAN MARCOS CONS ISD.
  place: '4865600'
  geo: {lat: 29.85914, lng: -97.93929}
  external_ids: {usda_master: Cycle 01_TX_SSO_0618}
  sources:
  - usda/summer-meal-sites
  verified: {'on': '2026-07-19', method: api}
- id: tx/san-marcos/henry-bush-cdc
  name: Henry Bush CDC
  categories:
  - child-care
  address:
    street: 722 McKie St
    city: San Marcos
    state: tx
    zip: '78666'
  place: '4865600'
  geo:
    lat: 29.873
    lng: -97.93764
  phone: 512-396-3533
  sources:
  - acf/head-start-locations
  verified:
    'on': '2026-07-19'
    method: api
- id: tx/san-marcos/lamar-phoenix-alternative-education
  name: Lamar - Phoenix Alternative Education
  categories:
  - meal-program
  address: {street: 121 De Zavala Dr, city: San Marcos, state: tx, zip: '78666'}
  description: Free summer meals for kids and teens (2026 season) — sponsored by SAN MARCOS CONS ISD.
  place: '4865600'
  geo: {lat: 29.85565, lng: -97.93749}
  external_ids: {usda_master: Cycle 01_TX_SSO_0875}
  sources:
  - usda/summer-meal-sites
  verified: {'on': '2026-07-19', method: api}
- id: tx/san-marcos/positive-recovery-llc-san-marcos
  name: Positive Recovery LLC San Marcos
  categories:
  - su-treatment
  address:
    street: 300 South CM Allen Parkway
    city: San Marcos
    state: tx
    zip: '78666'
  place: '4865600'
  geo:
    lat: 29.87838
    lng: -97.93592
  phone: 877-697-1383
  website: https://www.positiverecovery.com
  sources:
  - samhsa/findtreatment
  verified:
    'on': '2026-07-19'
    method: api
- id: tx/san-marcos/redwood-baptist-church
  name: Redwood Baptist Church
  categories:
  - meal-program
  address: {street: 2050 Poplar Street, city: San Marcos, state: tx, zip: '78666'}
  description: Free summer meals for kids and teens (2026 season) — sponsored by SAN MARCOS CONS ISD.
  place: '4865600'
  geo: {lat: 29.82089, lng: -97.91374}
  external_ids: {usda_master: Cycle 01_TX_SSO_1275}
  sources:
  - usda/summer-meal-sites
  verified: {'on': '2026-07-19', method: api}
- id: tx/san-marcos/san-antonio-specialty-health-sports-medicine-san
  name: San Antonio Specialty Health & Sports Medicine - San Marcos
  categories:
  - community-health-center
  address:
    street: 1941 S Interstate 35, Suite 113
    city: San Marcos
    state: tx
    zip: '78666'
  place: '4865600'
  geo:
    lat: 29.85761
    lng: -97.95123
  phone: 210-233-7000
  external_ids:
    bphc: BPS-H80-040834
  sources:
  - hrsa/health-center-sites
  verified:
    'on': '2026-07-19'
    method: api
- id: tx/san-marcos/san-marcos-excel-academy
  name: San Marcos Excel Academy
  categories:
  - meal-program
  address: {street: 121 De Zavala Dr, city: San Marcos, state: tx, zip: '78666'}
  description: Free summer meals for kids and teens (2026 season) — sponsored by SAN MARCOS CONS ISD.
  place: '4865600'
  geo: {lat: 29.85565, lng: -97.93749}
  external_ids: {usda_master: Cycle 10_TX_SSO_2952}
  sources:
  - usda/summer-meal-sites
  verified: {'on': '2026-07-19', method: api}
- id: tx/san-marcos/san-marcos-h-s
  name: San Marcos H S
  categories:
  - meal-program
  address: {street: 2601 E Mccarty Ln, city: San Marcos, state: tx, zip: '78666'}
  description: Free summer meals for kids and teens (2026 season) — sponsored by SAN MARCOS CONS ISD.
  place: '4865600'
  geo: {lat: 29.83287, lng: -97.96461}
  external_ids: {usda_master: Cycle 01_TX_SSO_1360}
  sources:
  - usda/summer-meal-sites
  verified: {'on': '2026-07-19', method: api}
- id: tx/san-marcos/san-marcos-housing-authority
  name: San Marcos Housing Authority
  categories:
  - housing-assistance
  address:
    street: 1201 Thorpe Ln
    city: San Marcos
    state: tx
    zip: '78666'
  description: Public housing and Housing Choice Voucher agency
  place: '4865600'
  geo:
    lat: 29.88769
    lng: -97.92382
  phone: 512-353-5058
  sources:
  - hud/resource-locator
  verified:
    'on': '2026-07-19'
    method: api
- id: tx/san-marcos/san-marcos-public-library
  name: San Marcos Public Library
  categories:
  - meal-program
  address: {street: 625 E Hopkins St, city: San Marcos, state: tx, zip: '78666'}
  description: Free summer meals for kids and teens (2026 season) — sponsored by SAN MARCOS CONS ISD.
  place: '4865600'
  geo: {lat: 29.88494, lng: -97.93096}
  external_ids: {usda_master: Cycle 01_TX_SSO_1361}
  sources:
  - usda/summer-meal-sites
  verified: {'on': '2026-07-19', method: api}
- id: tx/san-marcos/san-marcos-treatment-center
  name: San Marcos Treatment Center
  categories:
  - su-treatment
  - mh-treatment
  address:
    street: 120 Bert Brown Street
    city: San Marcos
    state: tx
    zip: '78666'
  place: '4865600'
  geo:
    lat: 29.89959
    lng: -97.92747
  phone: 512-396-8500 x3204
  website: https://sanmarcostc.com
  sources:
  - samhsa/findtreatment
  verified:
    'on': '2026-07-19'
    method: api
- id: tx/san-marcos/sunrise-rehab-and-recovery-llc-dba-evoke-wellnes
  name: Sunrise Rehab and Recovery LLC DBA Evoke Wellness at San Marcos
  categories:
  - su-treatment
  - mh-treatment
  address:
    street: 1106 North Interstate I-35
    city: San Marcos
    state: tx
    zip: '78666'
  place: '4865600'
  geo:
    lat: 29.85671
    lng: -97.95352
  phone: 512-874-7282
  website: https://www.evokewellnesstx.com
  sources:
  - samhsa/findtreatment
  verified:
    'on': '2026-07-19'
    method: api
- id: tx/san-marcos/travis-el
  name: Travis El
  categories:
  - meal-program
  address: {street: 1437 Post Road, city: San Marcos, state: tx, zip: '78666'}
  description: Free summer meals for kids and teens (2026 season) — sponsored by SAN MARCOS CONS ISD.
  place: '4865600'
  geo: {lat: 29.89571, lng: -97.92285}
  external_ids: {usda_master: Cycle 01_TX_SSO_1586}
  sources:
  - usda/summer-meal-sites
  verified: {'on': '2026-07-19', method: api}
- id: tx/san-marcos/william-crook-child-development-center
  name: William Crook Child Development Center
  categories:
  - child-care
  address:
    street: 1205 Davis Street
    city: San Marcos
    state: tx
    zip: '78666'
  place: '4865600'
  geo:
    lat: 29.88891
    lng: -97.91188
  phone: 512-610-5534
  sources:
  - acf/head-start-locations
  verified:
    'on': '2026-07-19'
    method: api
- id: tx/san-marcos/wonderland-school
  name: Wonderland School
  categories:
  - meal-program
  address: {street: 302 Country Estates Dr, city: San Marcos, state: tx, zip: '78666'}
  description: Free summer meals for kids and teens (2026 season) — sponsored by SAN MARCOS CONS ISD.
  place: '4865600'
  geo: {lat: 29.90149, lng: -97.97218}
  external_ids: {usda_master: Cycle 01_TX_SSO_1728}
  sources:
  - usda/summer-meal-sites
  verified: {'on': '2026-07-19', method: api}
