- id: tx/san-marcos/a-washington-cdc
  name: A.Washington CDC
  categories:
  - child-care
  address:
    street: 103 Hays St.
    city: San Marcos
    state: tx
    zip: '78666'
  place: '4865600'
  geo:
    lat: 29.8643
    lng: -97.93964
  phone: 512-353-1507
  sources:
  - acf/head-start-locations
  verified:
    'on': '2026-07-19'
    method: api
- id: tx/san-marcos/bonham-pre-k
  name: Bonham Pre-K
  categories:
  - child-care
  address:
    street: 1225 N State Highway 123
    city: San Marcos
    state: tx
    zip: '78666'
  place: '4865600'
  geo:
    lat: 29.86128
    lng: -97.93962
  phone: 512-757-8243
  sources:
  - acf/head-start-locations
  verified:
    'on': '2026-07-19'
    method: api
- id: tx/san-marcos/communicare-health-centers-san-marcos
  name: CommuniCare Health Centers - San Marcos
  categories:
  - community-health-center
  address:
    street: 1941 S Interstate 35, Suite 101
    city: San Marcos
    state: tx
    zip: '78666'
  place: '4865600'
  geo:
    lat: 29.85784
    lng: -97.95098
  phone: 512-268-8900
  website: https://www.communicaresa.org
  external_ids:
    bphc: BPS-H80-024792
  sources:
  - hrsa/health-center-sites
  verified:
    'on': '2026-07-19'
    method: api
- id: tx/san-marcos/henry-bush-cdc
  name: Henry Bush CDC
  categories:
  - child-care
  address:
    street: 722 McKie St
    city: San Marcos
    state: tx
    zip: '78666'
  place: '4865600'
  geo:
    lat: 29.873
    lng: -97.93764
  phone: 512-396-3533
  sources:
  - acf/head-start-locations
  verified:
    'on': '2026-07-19'
    method: api
- id: tx/san-marcos/positive-recovery-llc-san-marcos
  name: Positive Recovery LLC San Marcos
  categories:
  - su-treatment
  address:
    street: 300 South CM Allen Parkway
    city: San Marcos
    state: tx
    zip: '78666'
  place: '4865600'
  geo:
    lat: 29.87838
    lng: -97.93592
  phone: 877-697-1383
  website: https://www.positiverecovery.com
  sources:
  - samhsa/findtreatment
  verified:
    'on': '2026-07-19'
    method: api
- id: tx/san-marcos/san-antonio-specialty-health-sports-medicine-san
  name: San Antonio Specialty Health & Sports Medicine - San Marcos
  categories:
  - community-health-center
  address:
    street: 1941 S Interstate 35, Suite 113
    city: San Marcos
    state: tx
    zip: '78666'
  place: '4865600'
  geo:
    lat: 29.85761
    lng: -97.95123
  phone: 210-233-7000
  external_ids:
    bphc: BPS-H80-040834
  sources:
  - hrsa/health-center-sites
  verified:
    'on': '2026-07-19'
    method: api
- id: tx/san-marcos/san-marcos-housing-authority
  name: San Marcos Housing Authority
  categories:
  - housing-assistance
  address: {street: 1201 Thorpe Ln, city: San Marcos, state: tx, zip: '78666'}
  description: Public housing and Housing Choice Voucher agency
  place: '4865600'
  geo: {lat: 29.88769, lng: -97.92382}
  phone: 512-353-5058
  sources:
  - hud/resource-locator
  verified: {'on': '2026-07-19', method: api}
- id: tx/san-marcos/san-marcos-treatment-center
  name: San Marcos Treatment Center
  categories:
  - su-treatment
  - mh-treatment
  address:
    street: 120 Bert Brown Street
    city: San Marcos
    state: tx
    zip: '78666'
  place: '4865600'
  geo:
    lat: 29.89959
    lng: -97.92747
  phone: 512-396-8500 x3204
  website: https://sanmarcostc.com
  sources:
  - samhsa/findtreatment
  verified:
    'on': '2026-07-19'
    method: api
- id: tx/san-marcos/sunrise-rehab-and-recovery-llc-dba-evoke-wellnes
  name: Sunrise Rehab and Recovery LLC DBA Evoke Wellness at San Marcos
  categories:
  - su-treatment
  - mh-treatment
  address:
    street: 1106 North Interstate I-35
    city: San Marcos
    state: tx
    zip: '78666'
  place: '4865600'
  geo:
    lat: 29.85671
    lng: -97.95352
  phone: 512-874-7282
  website: https://www.evokewellnesstx.com
  sources:
  - samhsa/findtreatment
  verified:
    'on': '2026-07-19'
    method: api
- id: tx/san-marcos/william-crook-child-development-center
  name: William Crook Child Development Center
  categories:
  - child-care
  address:
    street: 1205 Davis Street
    city: San Marcos
    state: tx
    zip: '78666'
  place: '4865600'
  geo:
    lat: 29.88891
    lng: -97.91188
  phone: 512-610-5534
  sources:
  - acf/head-start-locations
  verified:
    'on': '2026-07-19'
    method: api
