- id: tx/seagoville/creekside-estates
  name: Creekside Estates
  categories:
  - meal-program
  address: {street: 301 Modene St., city: Seagoville, state: tx, zip: '75159'}
  description: Free summer meals for kids and teens (2026 season) — sponsored by NORA'S WOMEN OF PURPOSE.
  place: '4866428'
  geo: {lat: 32.66724, lng: -96.5719}
  external_ids: {usda_master: Cycle 01_TX_SFSP_0386}
  sources:
  - usda/summer-meal-sites
  verified: {'on': '2026-07-19', method: api}
- id: tx/seagoville/creekside-mobile-home-park
  name: Creekside Mobile Home Park
  categories:
  - meal-program
  address: {street: 2510 N. Hwy 175, city: Seagoville, state: tx, zip: '75159'}
  description: Free summer meals for kids and teens (2026 season) — sponsored by NORA'S WOMEN OF PURPOSE.
  place: '4866428'
  geo: {lat: 32.66383, lng: -96.57605}
  external_ids: {usda_master: Cycle 01_TX_SFSP_0387}
  sources:
  - usda/summer-meal-sites
  verified: {'on': '2026-07-19', method: api}
- id: tx/seagoville/kimberly-at-creekside
  name: Kimberly At Creekside
  categories:
  - meal-program
  address: {street: 2402 N. Hwy 175, city: Seagoville, state: tx, zip: '75159'}
  description: Free summer meals for kids and teens (2026 season) — sponsored by NORA'S WOMEN OF PURPOSE.
  place: '4866428'
  geo: {lat: 32.66129, lng: -96.5713}
  external_ids: {usda_master: Cycle 01_TX_SFSP_0839}
  sources:
  - usda/summer-meal-sites
  verified: {'on': '2026-07-19', method: api}
- id: tx/seagoville/seagoville-north-elem-school
  name: Seagoville North Elem School
  categories:
  - meal-program
  address: {street: 1906 Seagoville Rd, city: Seagoville, state: tx, zip: '75159'}
  description: Free summer meals for kids and teens (2026 season) — sponsored by DALLAS ISD.
  place: '4866428'
  geo: {lat: 32.65819, lng: -96.55858}
  external_ids: {usda_master: Cycle 06_TX_SSO_2852}
  sources:
  - usda/summer-meal-sites
  verified: {'on': '2026-07-19', method: api}
- id: tx/seagoville/zoppe-s
  name: Zoppe'S
  categories:
  - meal-program
  address: {street: 2607 N. Hwy 175, city: Seagoville, state: tx, zip: '75159'}
  description: Free summer meals for kids and teens (2026 season) — sponsored by NORA'S WOMEN OF PURPOSE.
  place: '4866428'
  geo: {lat: 32.66418, lng: -96.57914}
  external_ids: {usda_master: Cycle 01_TX_SFSP_1801}
  sources:
  - usda/summer-meal-sites
  verified: {'on': '2026-07-19', method: api}
