- id: tx/uvalde/administrative-office-building
  name: Administrative Office Building
  categories:
  - community-health-center
  address:
    street: 908 Evans St
    city: Uvalde
    state: tx
    zip: '78801'
  place: '4874588'
  geo:
    lat: 29.19335
    lng: -99.78981
  phone: 830-278-5604
  website: https://www.chdi4health.org
  external_ids:
    bphc: BPS-H80-011895
  sources:
  - hrsa/health-center-sites
  verified:
    'on': '2026-07-19'
    method: api
- id: tx/uvalde/chdi-ham-lane
  name: CHDI Ham Lane
  categories:
  - community-health-center
  address:
    street: 115 Ham Ln
    city: Uvalde
    state: tx
    zip: '78801'
  place: '4874588'
  geo:
    lat: 29.23379
    lng: -99.75542
  phone: 830-278-7105
  website: https://chdi4health.org
  external_ids:
    bphc: BPS-H80-040287
  sources:
  - hrsa/health-center-sites
  verified:
    'on': '2026-07-19'
    method: api
- id: tx/uvalde/chdi-sbhc-uvalde
  name: CHDI SBHC Uvalde
  categories:
  - community-health-center
  address:
    street: 601 Dean St
    city: Uvalde
    state: tx
    zip: '78801'
  place: '4874588'
  geo:
    lat: 29.2171
    lng: -99.79263
  phone: 830-278-7105
  external_ids:
    bphc: BPS-H80-039169
  sources:
  - hrsa/health-center-sites
  verified:
    'on': '2026-07-19'
    method: api
- id: tx/uvalde/crossroads-behavioral-health-services-uvalde-cou
  name: Crossroads Behavioral Health Services Uvalde County Hospital Authority
  categories:
  - mh-treatment
  address:
    street: 100 Royal Lane
    city: Uvalde
    state: tx
    zip: '78801'
  place: '4874588'
  phone: 830-278-8144
  website: https://www.umhtx.org
  sources:
  - samhsa/findtreatment
  verified:
    'on': '2026-07-19'
    method: api
- id: tx/uvalde/ninos-de-uvalde
  name: Ninos de Uvalde
  categories:
  - child-care
  address:
    street: 2104 Garner Field Rd
    city: Uvalde
    state: tx
    zip: '78801'
  place: '4874588'
  geo:
    lat: 29.21904
    lng: -99.74948
  phone: 830-278-3760
  sources:
  - acf/head-start-locations
  verified:
    'on': '2026-07-19'
    method: api
- id: tx/uvalde/our-health-nuestro-centro-de-salud
  name: OUR HEALTH/NUESTRO CENTRO DE SALUD
  categories:
  - community-health-center
  address:
    street: 200 Evans St
    city: Uvalde
    state: tx
    zip: '78801'
  place: '4874588'
  geo:
    lat: 29.20405
    lng: -99.7955
  phone: 830-278-7105
  website: https://www.chdi4health.org
  external_ids:
    bphc: BPS-H80-002180
  sources:
  - hrsa/health-center-sites
  verified:
    'on': '2026-07-19'
    method: api
- id: tx/uvalde/south-texas-rural-health-services-inc-uvalde-wel
  name: South Texas Rural Health Services Inc Uvalde Wellness Center
  categories:
  - su-treatment
  - mh-treatment
  address:
    street: 1815 Garner Field Road
    city: Uvalde
    state: tx
    zip: '78801'
  place: '4874588'
  geo:
    lat: 29.21803
    lng: -99.75409
  phone: 830-591-1822
  website: https://southtexasruralhealth.com
  sources:
  - samhsa/findtreatment
  verified:
    'on': '2026-07-19'
    method: api
- id: tx/uvalde/strhs-uvalde-behavioral-health-site
  name: STRHS Uvalde Behavioral Health Site
  categories:
  - community-health-center
  address:
    street: 1815 Garner Field Rd
    city: Uvalde
    state: tx
    zip: '78801'
  place: '4874588'
  geo:
    lat: 29.21793
    lng: -99.7542
  phone: 830-591-1822
  external_ids:
    bphc: BPS-H80-009297
  sources:
  - hrsa/health-center-sites
  verified:
    'on': '2026-07-19'
    method: api
- id: tx/uvalde/the-center-for-community-wellness-wellness-cente
  name: 'The Center for Community Wellness: Wellness Center'
  categories:
  - community-health-center
  address:
    street: 908 Evans St, Suite B
    city: Uvalde
    state: tx
    zip: '78801'
  place: '4874588'
  geo:
    lat: 29.19335
    lng: -99.78981
  phone: 830-278-3765
  website: https://www.chdi4health.org
  external_ids:
    bphc: BPS-H80-008611
  sources:
  - hrsa/health-center-sites
  verified:
    'on': '2026-07-19'
    method: api
- id: tx/uvalde/uvalde
  name: Uvalde
  categories:
  - child-care
  address:
    street: 801 Vanessa St
    city: Uvalde
    state: tx
    zip: '78801'
  place: '4874588'
  geo:
    lat: 29.19544
    lng: -99.79527
  phone: 956-267-4313
  sources:
  - acf/head-start-locations
  verified:
    'on': '2026-07-19'
    method: api
- id: tx/uvalde/uvalde-ehs
  name: Uvalde EHS
  categories:
  - child-care
  address:
    street: 219 W Nopal St
    city: Uvalde
    state: tx
    zip: '78801'
  place: '4874588'
  geo:
    lat: 29.21017
    lng: -99.78962
  phone: 830-278-3999
  sources:
  - acf/head-start-locations
  verified:
    'on': '2026-07-19'
    method: api
- id: tx/uvalde/uvalde-head-start
  name: Uvalde Head Start
  categories:
  - child-care
  address:
    street: 217 W Nopal St
    city: Uvalde
    state: tx
    zip: '78801'
  place: '4874588'
  geo:
    lat: 29.20991
    lng: -99.78928
  phone: 830-278-3610
  sources:
  - acf/head-start-locations
  verified:
    'on': '2026-07-19'
    method: api
- id: tx/uvalde/uvalde-housing-authority
  name: Uvalde Housing Authority
  categories:
  - housing-assistance
  address: {street: 1700 Garner Field Rd, city: Uvalde, state: tx, zip: '78801'}
  description: Housing Choice Voucher (Section 8) agency
  place: '4874588'
  geo: {lat: 29.21857, lng: -99.75743}
  phone: 830-278-7161
  sources:
  - hud/resource-locator
  verified: {'on': '2026-07-19', method: api}
