- id: tx/victoria/best-recovery-healthcare-inc
  name: Best Recovery Healthcare Inc
  categories:
  - su-treatment
  address:
    street: 1708 North Laurent Street
    city: Victoria
    state: tx
    zip: '77901'
  place: '4875428'
  geo:
    lat: 28.80969
    lng: -96.99095
  phone: 361-572-9122
  website: https://
  sources:
  - samhsa/findtreatment
  verified:
    'on': '2026-07-19'
    method: api
- id: tx/victoria/billy-t-cattan-recovery-outreach
  name: Billy T Cattan Recovery Outreach
  categories:
  - su-treatment
  address:
    street: 802 East Crestwood Drive
    city: Victoria
    state: tx
    zip: '77901'
  place: '4875428'
  geo:
    lat: 28.82846
    lng: -96.99714
  phone: 361-576-5673 x116
  website: https://www.btcro.org
  sources:
  - samhsa/findtreatment
  verified:
    'on': '2026-07-19'
    method: api
- id: tx/victoria/gulf-bend-center
  name: Gulf Bend Center
  categories:
  - su-treatment
  - mh-treatment
  address:
    street: 6502 Nursery Drive
    city: Victoria
    state: tx
    zip: '77904'
  place: '4875428'
  geo:
    lat: 28.8536
    lng: -97.0202
  phone: 361-575-0611 x2329
  website: https://gulfbend.org
  sources:
  - samhsa/findtreatment
  verified:
    'on': '2026-07-19'
    method: api
- id: tx/victoria/schroeder-community-pantry
  name: Schroeder Community Pantry
  categories:
  - food-pantry
  place: '4875428'
  geo:
    lat: 28.80527
    lng: -97.0036
  external_ids:
    lfp: '4451'
  sources:
  - littlefreepantry/map
  verified:
    'on': '2026-07-19'
    method: scrape
- id: tx/victoria/the-food-truck
  name: The Food Truck
  categories:
  - food-pantry
  place: '4875428'
  geo:
    lat: 28.82612
    lng: -96.99689
  external_ids:
    lfp: '2443'
  sources:
  - littlefreepantry/map
  verified:
    'on': '2026-07-19'
    method: scrape
- id: tx/victoria/victoria-community-health-center
  name: Victoria Community Health Center
  categories:
  - community-health-center
  address:
    street: 4206 Retama Cir
    city: Victoria
    state: tx
    zip: '77901'
  place: '4875428'
  geo:
    lat: 28.83251
    lng: -96.99144
  phone: 361-576-2110
  external_ids:
    bphc: BPS-H80-021312
  sources:
  - hrsa/health-center-sites
  verified:
    'on': '2026-07-19'
    method: api
- id: tx/victoria/victoria-county-early-head-start-and-head-start
  name: Victoria County Early Head Start and Head Start Center
  categories:
  - child-care
  address:
    street: 1309 E Red River St
    city: Victoria
    state: tx
    zip: '77901'
  place: '4875428'
  geo:
    lat: 28.81254
    lng: -96.99055
  phone: 830-331-8908
  sources:
  - acf/head-start-locations
  verified:
    'on': '2026-07-19'
    method: api
- id: tx/victoria/victoria-county-early-head-start-center-red-rive
  name: Victoria County Early Head Start Center, Red River - Victoria
  categories:
  - child-care
  address:
    street: 2102 N Laurent St
    city: Victoria
    state: tx
    zip: '77901'
  place: '4875428'
  geo:
    lat: 28.81231
    lng: -96.99079
  phone: 361-788-2847
  sources:
  - acf/head-start-locations
  verified:
    'on': '2026-07-19'
    method: api
