- id: tx/waco/brazos-early-head-start
  name: Brazos Early Head Start
  categories:
  - child-care
  address:
    street: 3005 Edna Ave
    city: Waco
    state: tx
    zip: '76708'
  place: '4876000'
  geo:
    lat: 31.56844
    lng: -97.18122
  phone: 254-750-5124
  sources:
  - acf/head-start-locations
  verified:
    'on': '2026-07-19'
    method: api
- id: tx/waco/cenikor-foudation-waco
  name: Cenikor Foudation Waco
  categories:
  - su-treatment
  address:
    street: 3015 Herring Avenue
    city: Waco
    state: tx
    zip: '76708'
  place: '4876000'
  geo:
    lat: 31.56042
    lng: -97.17571
  phone: 254-299-2790
  website: https://www.cenikor.org
  sources:
  - samhsa/findtreatment
  verified:
    'on': '2026-07-19'
    method: api
- id: tx/waco/central-texas-va-healthcare-system-waco-va-medic
  name: Central Texas VA Healthcare System Waco VA Medical Center
  categories:
  - su-treatment
  - mh-treatment
  address:
    street: 4800 Memorial Drive
    city: Waco
    state: tx
    zip: '76711'
  place: '4876000'
  geo:
    lat: 31.51196
    lng: -97.16421
  phone: 254-297-3050
  website: https://
  sources:
  - samhsa/findtreatment
  verified:
    'on': '2026-07-19'
    method: api
- id: tx/waco/harmony-science-academy-collaboration
  name: Harmony Science Academy Collaboration
  categories:
  - child-care
  address:
    street: 1900 N Valley Mills Dr
    city: Waco
    state: tx
    zip: '76710'
  place: '4876000'
  geo:
    lat: 31.53142
    lng: -97.20168
  phone: 254-751-0331
  sources:
  - acf/head-start-locations
  verified:
    'on': '2026-07-19'
    method: api
- id: tx/waco/housing-authority-of-the-city-of-waco
  name: Housing Authority Of The City Of Waco
  categories:
  - housing-assistance
  address: {street: 4400 Cobbs Dr, city: Waco, state: tx, zip: '76710'}
  description: Public housing and Housing Choice Voucher agency
  place: '4876000'
  geo: {lat: 31.54641, lng: -97.191}
  phone: 254-752-0324
  sources:
  - hud/resource-locator
  verified: {'on': '2026-07-19', method: api}
- id: tx/waco/johnette-hicks-head-start-early-head-start
  name: Johnette Hicks Head Start/Early Head Start
  categories:
  - child-care
  address:
    street: 510 S 12th St
    city: Waco
    state: tx
    zip: '76706'
  place: '4876000'
  geo:
    lat: 31.54773
    lng: -97.13354
  phone: 254-754-5641
  sources:
  - acf/head-start-locations
  verified:
    'on': '2026-07-19'
    method: api
- id: tx/waco/medmark-treatment-centers-waco
  name: MedMark Treatment Centers Waco
  categories:
  - su-treatment
  address:
    street: 2210 Washington Avenue
    city: Waco
    state: tx
    zip: '76701'
  place: '4876000'
  geo:
    lat: 31.54327
    lng: -97.14846
  phone: 254-755-6411
  website: https://medmark.com/locations/texas/waco
  sources:
  - samhsa/findtreatment
  verified:
    'on': '2026-07-19'
    method: api
- id: tx/waco/mitchell-avenue-early-head-start
  name: Mitchell Avenue Early Head Start
  categories:
  - child-care
  address:
    street: 1824 Mitchell Ave
    city: Waco
    state: tx
    zip: '76708'
  place: '4876000'
  geo:
    lat: 31.56814
    lng: -97.16348
  phone: 254-218-1038
  sources:
  - acf/head-start-locations
  verified:
    'on': '2026-07-19'
    method: api
- id: tx/waco/new-road-head-start-early-head-start
  name: New Road Head Start/Early Head Start
  categories:
  - child-care
  address:
    street: 1407 N New Rd
    city: Waco
    state: tx
    zip: '76710'
  place: '4876000'
  geo:
    lat: 31.53897
    lng: -97.17865
  phone: 254-244-2446
  sources:
  - acf/head-start-locations
  verified:
    'on': '2026-07-19'
    method: api
- id: tx/waco/petite-pantry-7
  name: 'Petite Pantry #7'
  categories:
  - food-pantry
  place: '4876000'
  geo:
    lat: 31.58121
    lng: -97.18789
  external_ids:
    lfp: '842'
  sources:
  - littlefreepantry/map
  verified:
    'on': '2026-07-19'
    method: scrape
- id: tx/waco/south-waco-elementary-waco-isd-collaboration
  name: South Waco Elementary - Waco ISD Collaboration
  categories:
  - child-care
  address:
    street: 2104 Gurley Ln
    city: Waco
    state: tx
    zip: '76706'
  place: '4876000'
  geo:
    lat: 31.52133
    lng: -97.12192
  phone: 254-753-0331
  sources:
  - acf/head-start-locations
  verified:
    'on': '2026-07-19'
    method: api
- id: tx/waco/thurman-e-dorsey-head-start-early-head-start
  name: Thurman E. Dorsey Head Start/Early Head Start
  categories:
  - child-care
  address:
    street: 3221 Speight Ave
    city: Waco
    state: tx
    zip: '76711'
  place: '4876000'
  geo:
    lat: 31.52337
    lng: -97.1437
  phone: 254-753-5324
  sources:
  - acf/head-start-locations
  verified:
    'on': '2026-07-19'
    method: api
- id: tx/waco/waco-family-medicine
  name: Waco Family Medicine
  categories:
  - mh-treatment
  address:
    street: 1600 Providence Drive
    city: Waco
    state: tx
    zip: '76707'
  place: '4876000'
  geo:
    lat: 31.55924
    lng: -97.15313
  phone: 254-313-4500
  website: https://www.wacofamilymedicine.org
  sources:
  - samhsa/findtreatment
  verified:
    'on': '2026-07-19'
    method: api
- id: tx/waco/waco-family-medicine-bellmead
  name: Waco Family Medicine  -  Bellmead
  categories:
  - community-health-center
  address:
    street: 556 N Loop 340
    city: Waco
    state: tx
    zip: '76705'
  place: '4876000'
  geo:
    lat: 31.60394
    lng: -97.09932
  phone: 254-313-5400
  external_ids:
    bphc: BPS-H80-032997
  sources:
  - hrsa/health-center-sites
  verified:
    'on': '2026-07-19'
    method: api
- id: tx/waco/waco-family-medicine-bellmead-administration
  name: Waco Family Medicine  -  Bellmead Administration
  categories:
  - community-health-center
  address:
    street: 3400 Bellmead Dr
    city: Waco
    state: tx
    zip: '76705'
  place: '4876000'
  geo:
    lat: 31.59265
    lng: -97.09811
  phone: 254-313-4200
  website: https://wacofamilymedicine.org/
  external_ids:
    bphc: BPS-H80-000192
  sources:
  - hrsa/health-center-sites
  verified:
    'on': '2026-07-19'
    method: api
- id: tx/waco/waco-family-medicine-central
  name: Waco Family Medicine  -  Central
  categories:
  - community-health-center
  address:
    street: 1600 Providence Dr
    city: Waco
    state: tx
    zip: '76707'
  place: '4876000'
  geo:
    lat: 31.55889
    lng: -97.15284
  phone: 254-313-4200
  website: https://wacofamilymedicine.org/
  external_ids:
    bphc: BPS-H80-001712
  sources:
  - hrsa/health-center-sites
  verified:
    'on': '2026-07-19'
    method: api
- id: tx/waco/waco-family-medicine-cesar-chavez
  name: Waco Family Medicine - Cesar Chavez
  categories:
  - community-health-center
  address:
    street: 700 S 15th St
    city: Waco
    state: tx
    zip: '76706'
  place: '4876000'
  geo:
    lat: 31.54303
    lng: -97.13305
  phone: 254-313-5790
  external_ids:
    bphc: BPS-H80-041049
  sources:
  - hrsa/health-center-sites
  verified:
    'on': '2026-07-19'
    method: api
- id: tx/waco/waco-family-medicine-elm-avenue
  name: Waco Family Medicine  -  Elm Avenue
  categories:
  - community-health-center
  address:
    street: 609 Elm Ave
    city: Waco
    state: tx
    zip: '76704'
  place: '4876000'
  geo:
    lat: 31.56604
    lng: -97.12297
  phone: 254-313-6900
  website: https://wacofamilymedicine.org/
  external_ids:
    bphc: BPS-H80-000632
  sources:
  - hrsa/health-center-sites
  verified:
    'on': '2026-07-19'
    method: api
- id: tx/waco/waco-family-medicine-g-w-carver
  name: Waco Family Medicine - G.W. Carver
  categories:
  - community-health-center
  address:
    street: 1601 J J Flewellen Rd
    city: Waco
    state: tx
    zip: '76704'
  place: '4876000'
  geo:
    lat: 31.57985
    lng: -97.13069
  phone: 254-313-5791
  external_ids:
    bphc: BPS-H80-041050
  sources:
  - hrsa/health-center-sites
  verified:
    'on': '2026-07-19'
    method: api
- id: tx/waco/waco-family-medicine-imperial-drive
  name: Waco Family Medicine - Imperial Drive
  categories:
  - community-health-center
  address:
    street: 6500 Imperial Dr
    city: Waco
    state: tx
    zip: '76712'
  place: '4876000'
  geo:
    lat: 31.50322
    lng: -97.18496
  phone: 254-313-4110
  website: https://www.wacofamilymedicine.org
  external_ids:
    bphc: BPS-H80-037070
  sources:
  - hrsa/health-center-sites
  verified:
    'on': '2026-07-19'
    method: api
- id: tx/waco/waco-family-medicine-macarthur
  name: Waco Family Medicine  -  MacArthur
  categories:
  - community-health-center
  address:
    street: 2201 Macarthur Dr
    city: Waco
    state: tx
    zip: '76708'
  place: '4876000'
  geo:
    lat: 31.55573
    lng: -97.17846
  phone: 254-313-5300
  website: https://wacofamilymedicine.org/
  external_ids:
    bphc: BPS-H80-014564
  sources:
  - hrsa/health-center-sites
  verified:
    'on': '2026-07-19'
    method: api
- id: tx/waco/waco-family-medicine-madison-cooper
  name: Waco Family Medicine  -  Madison Cooper
  categories:
  - community-health-center
  address:
    street: 1610 Providence Dr
    city: Waco
    state: tx
    zip: '76707'
  place: '4876000'
  geo:
    lat: 31.55868
    lng: -97.15384
  phone: 254-313-4800
  website: https://wacofamilymedicine.org/
  external_ids:
    bphc: BPS-H80-034731
  sources:
  - hrsa/health-center-sites
  verified:
    'on': '2026-07-19'
    method: api
- id: tx/waco/waco-family-medicine-martin-luther-king-jr
  name: Waco Family Medicine  -  Martin Luther King, Jr.
  categories:
  - community-health-center
  address:
    street: 1911 N Martin Luther King Jr Blvd
    city: Waco
    state: tx
    zip: '76704'
  place: '4876000'
  geo:
    lat: 31.57726
    lng: -97.14247
  phone: 254-313-5000
  website: https://wacofamilymedicine.org/
  external_ids:
    bphc: BPS-H80-008615
  sources:
  - hrsa/health-center-sites
  verified:
    'on': '2026-07-19'
    method: api
- id: tx/waco/waco-family-medicine-mobile-unit
  name: Waco Family Medicine - Mobile Unit
  categories:
  - community-health-center
  address:
    street: 1600 Providence Dr
    city: Waco
    state: tx
    zip: '76707'
  place: '4876000'
  geo:
    lat: 31.55889
    lng: -97.15284
  phone: 254-313-4200
  external_ids:
    bphc: BPS-H80-041183
  sources:
  - hrsa/health-center-sites
  verified:
    'on': '2026-07-19'
    method: api
- id: tx/waco/waco-family-medicine-tennyson
  name: Waco Family Medicine - Tennyson
  categories:
  - community-health-center
  address:
    street: 6001 Sanger Ave
    city: Waco
    state: tx
    zip: '76710'
  place: '4876000'
  geo:
    lat: 31.52291
    lng: -97.19285
  phone: 254-313-5792
  external_ids:
    bphc: BPS-H80-041051
  sources:
  - hrsa/health-center-sites
  verified:
    'on': '2026-07-19'
    method: api
- id: tx/waco/waco-family-medicine-tom-oliver-s-18th
  name: Waco Family Medicine  -  Tom Oliver S. 18th
  categories:
  - community-health-center
  address:
    street: 1800 Gurley Ln
    city: Waco
    state: tx
    zip: '76706'
  place: '4876000'
  geo:
    lat: 31.52488
    lng: -97.1186
  phone: 254-313-6000
  website: https://wacofamilymedicine.org/
  external_ids:
    bphc: BPS-H80-004196
  sources:
  - hrsa/health-center-sites
  verified:
    'on': '2026-07-19'
    method: api
- id: tx/waco/waco-family-medicine-west-waco
  name: Waco Family Medicine  -  West Waco
  categories:
  - community-health-center
  address:
    street: 600 W State Highway 6
    city: Waco
    state: tx
    zip: '76712'
  place: '4876000'
  geo:
    lat: 31.51685
    lng: -97.20273
  phone: 254-313-6700
  website: https://wacofamilymedicine.org/
  external_ids:
    bphc: BPS-H80-014193
  sources:
  - hrsa/health-center-sites
  verified:
    'on': '2026-07-19'
    method: api
- id: tx/waco/west-elementary-jump-start-wisd-collaboration
  name: West Elementary Jump Start - WISD Collaboration
  categories:
  - child-care
  address:
    street: 1101 N 15th St
    city: Waco
    state: tx
    zip: '76707'
  place: '4876000'
  geo:
    lat: 31.55766
    lng: -97.1494
  phone: 254-750-0331
  sources:
  - acf/head-start-locations
  verified:
    'on': '2026-07-19'
    method: api
- id: tx/waco/woodrow-logan-head-start-early-head-start
  name: Woodrow Logan Head Start/Early Head Start
  categories:
  - child-care
  address:
    street: 3510 Latimer St
    city: Waco
    state: tx
    zip: '76705'
  place: '4876000'
  geo:
    lat: 31.59365
    lng: -97.09812
  phone: 254-412-0313
  sources:
  - acf/head-start-locations
  verified:
    'on': '2026-07-19'
    method: api
