- id: tx/waller/cy-hope
  name: Cy- Hope
  categories:
  - meal-program
  address: {street: 1210 A Street, city: Waller, state: tx, zip: '77484'}
  description: Free summer meals for kids and teens (2026 season) — sponsored by THE HOUSTON FOOD BANK.
  place: '4876228'
  geo: {lat: 30.05789, lng: -95.92945}
  external_ids: {usda_master: Cycle 06_TX_SFSP_0775}
  sources:
  - usda/summer-meal-sites
  verified: {'on': '2026-07-19', method: api}
- id: tx/waller/mary-alice-cure-elementary
  name: Mary Alice Cure Elementary
  categories:
  - meal-program
  address: {street: 20700 Fields Store Rd, city: Waller, state: tx, zip: '77484'}
  description: Free summer meals for kids and teens (2026 season) — sponsored by WALLER ISD.
  place: '4876228'
  geo: {lat: 30.07539, lng: -95.9217}
  external_ids: {usda_master: Cycle 01_TX_SFSP_0989}
  sources:
  - usda/summer-meal-sites
  verified: {'on': '2026-07-19', method: api}
- id: tx/waller/nc-carriage-crossing-apartment
  name: Nc_Carriage Crossing Apartment
  categories:
  - meal-program
  address: {street: 31623 Waller-Tomball Rd, city: Waller, state: tx, zip: '77484'}
  description: Free summer meals for kids and teens (2026 season) — sponsored by Journeys Of The Heart,
    Inc..
  place: '4876228'
  geo: {lat: 30.05878, lng: -95.91573}
  external_ids: {usda_master: Cycle 07_TX_SFSP_3641}
  sources:
  - usda/summer-meal-sites
  verified: {'on': '2026-07-19', method: api}
- id: tx/waller/nc-waller-hillside-apartment
  name: Nc_Waller Hillside Apartment
  categories:
  - meal-program
  address: {street: 19610 Fm 362, city: Waller, state: tx, zip: '77484'}
  description: Free summer meals for kids and teens (2026 season) — sponsored by Journeys Of The Heart,
    Inc..
  place: '4876228'
  geo: {lat: 30.05287, lng: -95.93281}
  external_ids: {usda_master: Cycle 07_TX_SFSP_3792}
  sources:
  - usda/summer-meal-sites
  verified: {'on': '2026-07-19', method: api}
- id: tx/waller/waller-h-s
  name: Waller H S
  categories:
  - meal-program
  address: {street: 31213 Waller Spring Creek Road, city: Waller, state: tx, zip: '77484'}
  description: Free summer meals for kids and teens (2026 season) — sponsored by WALLER ISD.
  place: '4876228'
  geo: {lat: 30.08025, lng: -95.91316}
  external_ids: {usda_master: Cycle 01_TX_SFSP_1650}
  sources:
  - usda/summer-meal-sites
  verified: {'on': '2026-07-19', method: api}
