- id: tx/zapata/avance-fidel-andrea-villarreal-elementary
  name: AVANCE Fidel & Andrea Villarreal Elementary
  categories:
  - child-care
  address:
    street: 805 Mira Flores Ave
    city: Zapata
    state: tx
    zip: '78076'
  place: '4880716'
  geo:
    lat: 26.92347
    lng: -99.26346
  phone: 210-550-9784
  sources:
  - acf/head-start-locations
  verified:
    'on': '2026-07-19'
    method: api
- id: tx/zapata/avance-zapata-south-elementary
  name: AVANCE Zapata South Elementary
  categories:
  - child-care
  address:
    street: 500 Delmar St
    city: Zapata
    state: tx
    zip: '78076'
  place: '4880716'
  geo:
    lat: 26.90387
    lng: -99.26059
  phone: 210-550-8533
  sources:
  - acf/head-start-locations
  verified:
    'on': '2026-07-19'
    method: api
- id: tx/zapata/border-region-behavioral-health-center
  name: Border Region Behavioral Health Center
  categories:
  - su-treatment
  - mh-treatment
  address:
    street: 101 South U.S. Highway 83
    city: Zapata
    state: tx
    zip: '78076'
  place: '4880716'
  geo:
    lat: 26.89571
    lng: -99.26344
  phone: 956-765-9664
  website: https://www.borderregion.org
  sources:
  - samhsa/findtreatment
  verified:
    'on': '2026-07-19'
    method: api
- id: tx/zapata/dora-o-martinez-early-childhood-development-cent
  name: Dora O. Martinez Early Childhood Development Center
  categories:
  - child-care
  address:
    street: 708 Delmar St
    city: Zapata
    state: tx
    zip: '78076'
  place: '4880716'
  geo:
    lat: 26.90557
    lng: -99.2632
  phone: 956-750-3325
  sources:
  - acf/head-start-locations
  verified:
    'on': '2026-07-19'
    method: api
- id: tx/zapata/serving-children-and-adults-in-need-scan-youth-o
  name: Serving Children and Adults in Need (SCAN)/Youth Outpatient Program
  categories:
  - su-treatment
  address:
    street: 605 North U.S. Highway 83
    city: Zapata
    state: tx
    zip: '78076'
  place: '4880716'
  geo:
    lat: 26.90103
    lng: -99.26773
  phone: 956-568-7105
  website: https://www.scan-inc.org
  sources:
  - samhsa/findtreatment
  verified:
    'on': '2026-07-19'
    method: api
- id: tx/zapata/zapata
  name: Zapata
  categories:
  - community-health-center
  address:
    street: 210 Rathmell
    city: Zapata
    state: tx
    zip: '78076'
  place: '4880716'
  geo:
    lat: 26.90153
    lng: -99.26896
  phone: 956-765-4367
  website: https://www.gatewaychc.com
  external_ids:
    bphc: BPS-H80-008214
  sources:
  - hrsa/health-center-sites
  verified:
    'on': '2026-07-19'
    method: api
- id: tx/zapata/zapata-early-head-start
  name: Zapata Early Head Start
  categories:
  - child-care
  address:
    street: 146 1st Ave
    street2: Suites 2
    city: Zapata
    state: tx
    zip: '78076'
  place: '4880716'
  geo:
    lat: 26.89911
    lng: -99.25822
  phone: 956-265-9307
  sources:
  - acf/head-start-locations
  verified:
    'on': '2026-07-19'
    method: api
