- id: ut/american-fork/ascend-recovery-eagle-view
  name: Ascend Recovery Eagle View
  categories:
  - su-treatment
  - mh-treatment
  address:
    street: 6280 West 9600 North
    city: American Fork
    state: ut
    zip: '84003'
  place: '4901310'
  geo:
    lat: 40.40656
    lng: -111.80867
  phone: 801-216-4800
  website: https://www.AscendRecovery.com
  sources:
  - samhsa/findtreatment
  verified:
    'on': '2026-07-19'
    method: api
- id: ut/american-fork/ascend-recovery-lake-house
  name: Ascend Recovery Lake House
  categories:
  - su-treatment
  - mh-treatment
  address:
    street: 6595 North 6000 West
    city: American Fork
    state: ut
    zip: '84003'
  place: '4901310'
  geo:
    lat: 40.35038
    lng: -111.80229
  phone: 801-216-4800
  website: https://www.AscendRecovery.com
  sources:
  - samhsa/findtreatment
  verified:
    'on': '2026-07-19'
    method: api
- id: ut/american-fork/ascend-recovery-montgomery
  name: Ascend Recovery Montgomery
  categories:
  - su-treatment
  - mh-treatment
  address:
    street: 6280 West 9600 North
    city: American Fork
    state: ut
    zip: '84003'
  place: '4901310'
  phone: 801-216-4800
  website: https://www.ascendrecovery.com
  sources:
  - samhsa/findtreatment
  verified:
    'on': '2026-07-19'
    method: api
- id: ut/american-fork/forbes-elementary
  name: Forbes Elementary
  categories:
  - meal-program
  address: {street: 281 N 200 E, city: American Fork, state: ut, zip: '84003'}
  description: Free summer meals for kids and teens (2026 season) — sponsored by ALPINE SCHOOL DISTRICT.
  place: '4901310'
  geo: {lat: 40.38202, lng: -111.79324}
  phone: (801) 610-8030
  external_ids: {usda_master: Cycle 04_UT_SSO_0105}
  sources:
  - usda/summer-meal-sites
  verified: {'on': '2026-07-19', method: api}
- id: ut/american-fork/life-stone-counseling-center
  name: Life Stone Counseling Center
  categories:
  - su-treatment
  - mh-treatment
  address:
    street: 150 South 400 East
    city: American Fork
    state: ut
    zip: '84003'
  place: '4901310'
  geo:
    lat: 40.37348
    lng: -111.78837
  phone: 801-984-1717
  website: https://www.lifestonecenter.com
  sources:
  - samhsa/findtreatment
  verified:
    'on': '2026-07-19'
    method: api
- id: ut/american-fork/suncrest-counseling
  name: Suncrest Counseling
  categories:
  - su-treatment
  - mh-treatment
  address:
    street: 1062 East 220 South
    city: American Fork
    state: ut
    zip: '84003'
  place: '4901310'
  geo:
    lat: 40.37203
    lng: -111.76997
  phone: 801-642-2193
  website: https://www.suncrestcounseling.com
  sources:
  - samhsa/findtreatment
  verified:
    'on': '2026-07-19'
    method: api
- id: ut/american-fork/suncrest-counseling-2
  name: Suncrest Counseling
  categories:
  - su-treatment
  address:
    street: '1062 East 220 South '
    city: American Fork
    state: ut
    zip: '84003'
  place: '4901310'
  geo:
    lat: 40.37202
    lng: -111.76996
  phone: 801-642-2193
  website: https://www.suncrestcounseling.com
  sources:
  - samhsa/findtreatment
  verified:
    'on': '2026-07-19'
    method: api
- id: ut/american-fork/utah-family-institute
  name: Utah Family Institute
  categories:
  - su-treatment
  - mh-treatment
  address:
    street: 686 East 110 South
    city: American Fork
    state: ut
    zip: '84003'
  place: '4901310'
  geo:
    lat: 40.37375
    lng: -111.78089
  phone: 801-802-9464 x16
  website: https://www.utahfamilyinstitute.com
  sources:
  - samhsa/findtreatment
  verified:
    'on': '2026-07-19'
    method: api
- id: ut/american-fork/utah-family-therapy-level-up-iop
  name: Utah Family Therapy Level Up IOP
  categories:
  - su-treatment
  - mh-treatment
  address:
    street: 384 East 60 South
    city: American Fork
    state: ut
    zip: '84003'
  place: '4901310'
  geo:
    lat: 40.37547
    lng: -111.78846
  phone: 801-901-0279
  website: https://www.utahfamilytherapy.com
  sources:
  - samhsa/findtreatment
  verified:
    'on': '2026-07-19'
    method: api
- id: ut/american-fork/wasatch-behavioral-health-american-fork-family-c
  name: Wasatch Behavioral Health American Fork Family Clinic
  categories:
  - su-treatment
  - mh-treatment
  address:
    street: 578 East 300 South
    city: American Fork
    state: ut
    zip: '84003'
  place: '4901310'
  geo:
    lat: 40.37056
    lng: -111.78341
  phone: 801-763-5010
  website: https://www.wasatch.org
  sources:
  - samhsa/findtreatment
  verified:
    'on': '2026-07-19'
    method: api
