- id: ut/magna/magna
  name: Magna
  categories:
  - child-care
  address:
    street: 8275 W 3500 S
    city: Magna
    state: ut
    zip: '84044'
  place: '4947290'
  geo:
    lat: 40.69648
    lng: -112.08868
  phone: 801-410-5832
  sources:
  - acf/head-start-locations
  verified:
    'on': '2026-07-19'
    method: api
- id: ut/magna/magna-copper-park
  name: Magna Copper Park
  categories:
  - meal-program
  address:
    street: 8900 W. 2600 S.
    city: Magna
    state: ut
    zip: '84044'
  description: Free summer meals for kids and teens (2026 season) — sponsored by GRANITE SCHOOL DISTRICT.
  place: '4947290'
  geo:
    lat: 40.71301
    lng: -112.10476
  phone: (385) 646-4321
  external_ids:
    usda_master: Cycle 04_UT_SSO_0159
  sources:
  - usda/summer-meal-sites
  verified:
    'on': '2026-07-19'
    method: api
- id: ut/magna/magna-fitness-center
  name: Magna Fitness Center
  categories:
  - meal-program
  address:
    street: 3270 S 8400 W
    city: Magna
    state: ut
    zip: '84044'
  description: Free summer meals for kids and teens (2026 season) — sponsored by UTAH COMMUNITY ACTION.
  place: '4947290'
  geo:
    lat: 40.7002
    lng: -112.09185
  phone: (801) 410-5651
  external_ids:
    usda_master: Cycle 04_UT_SFSP_0037
  sources:
  - usda/summer-meal-sites
  verified:
    'on': '2026-07-19'
    method: api
- id: ut/magna/magna-fitness-center-2
  name: Magna Fitness Center
  categories:
  - meal-program
  address:
    street: 3252 S. 8400 W
    city: Magna
    state: ut
    zip: '84044'
  description: Free summer meals for kids and teens (2026 season) — sponsored by GRANITE SCHOOL DISTRICT.
  place: '4947290'
  geo:
    lat: 40.701
    lng: -112.09184
  phone: (385) 646-4321
  external_ids:
    usda_master: Cycle 04_UT_SSO_0160
  sources:
  - usda/summer-meal-sites
  verified:
    'on': '2026-07-19'
    method: api
- id: ut/magna/magna-regional-park
  name: Magna Regional Park
  categories:
  - meal-program
  address:
    street: 4042 S 7200 W
    city: Magna
    state: ut
    zip: '84044'
  description: Free summer meals for kids and teens (2026 season) — sponsored by UTAH FOOD BANK.
  place: '4947290'
  geo:
    lat: 40.68487
    lng: -112.06934
  phone: (801) 978-2452
  external_ids:
    usda_master: Cycle 04_UT_SFSP_0070
  sources:
  - usda/summer-meal-sites
  verified:
    'on': '2026-07-19'
    method: api
- id: ut/magna/magna-salt-lake-county-library
  name: Magna - Salt Lake County Library
  categories:
  - meal-program
  address:
    street: 2675 South 8950 West
    city: Magna
    state: ut
    zip: '84044'
  description: Free summer meals for kids and teens (2026 season) — sponsored by UTAH FOOD BANK.
  place: '4947290'
  geo:
    lat: 40.7113
    lng: -112.10496
  phone: (801) 944-7547
  external_ids:
    usda_master: Cycle 04_UT_SFSP_0068
  sources:
  - usda/summer-meal-sites
  verified:
    'on': '2026-07-19'
    method: api
