- id: ut/ogden/action-recovery-group
  name: Action Recovery Group
  categories:
  - su-treatment
  address:
    street: 1708 East 5550 South
    city: Ogden
    state: ut
    zip: '84403'
  place: '4955980'
  geo:
    lat: 41.16348
    lng: -111.95067
  phone: 385-264-9695
  website: https://www.actiontreatment.com
  sources:
  - samhsa/findtreatment
  verified:
    'on': '2026-07-19'
    method: api
- id: ut/ogden/aloha-behavioral-consultants-inc
  name: Aloha Behavioral Consultants Inc
  categories:
  - su-treatment
  - mh-treatment
  address:
    street: 811 North Harrisville Road
    city: Ogden
    state: ut
    zip: '84404'
  place: '4955980'
  geo:
    lat: 41.27264
    lng: -111.97985
  phone: 801-399-1818
  website: https://www.alohabehavioral.com
  sources:
  - samhsa/findtreatment
  verified:
    'on': '2026-07-19'
    method: api
- id: ut/ogden/alpha-counseling-and-treatment-inc
  name: Alpha Counseling and Treatment Inc
  categories:
  - su-treatment
  - mh-treatment
  address:
    street: 533 26th Street
    city: Ogden
    state: ut
    zip: '84401'
  place: '4955980'
  geo:
    lat: 41.21836
    lng: -111.96694
  phone: 385-313-7149
  website: https://www.utahsbesttherapy.com
  sources:
  - samhsa/findtreatment
  verified:
    'on': '2026-07-19'
    method: api
- id: ut/ogden/baart-programs-ogden
  name: BAART Programs Ogden
  categories:
  - su-treatment
  address:
    street: 2557 Lincoln Avenue
    city: Ogden
    state: ut
    zip: '84401'
  place: '4955980'
  geo:
    lat: 41.21938
    lng: -111.97652
  phone: 801-622-5272
  website: https://baartprograms.com/baart-ogden/
  sources:
  - samhsa/findtreatment
  verified:
    'on': '2026-07-19'
    method: api
- id: ut/ogden/bonneville-elementary
  name: Bonneville Elementary
  categories:
  - child-care
  address:
    street: 490 Gramercy Ave
    city: Ogden
    state: ut
    zip: '84404'
  place: '4955980'
  geo:
    lat: 41.25538
    lng: -111.956
  phone: 801-399-9281
  sources:
  - acf/head-start-locations
  verified:
    'on': '2026-07-19'
    method: api
- id: ut/ogden/brighton-recovery-center
  name: Brighton Recovery Center
  categories:
  - su-treatment
  - mh-treatment
  address:
    street: 6000 South 1075 East
    city: Ogden
    state: ut
    zip: '84405'
  place: '4955980'
  geo:
    lat: 41.1529
    lng: -111.95517
  phone: 844-479-7035
  website: https://www.brightonrecoverycenter.com
  sources:
  - samhsa/findtreatment
  verified:
    'on': '2026-07-19'
    method: api
- id: ut/ogden/brighton-recovery-center-intensive-outpatient
  name: Brighton Recovery Center Intensive Outpatient
  categories:
  - su-treatment
  - mh-treatment
  address:
    street: 5677 South 1475 East
    city: Ogden
    state: ut
    zip: '84403'
  place: '4955980'
  geo:
    lat: 41.1602
    lng: -111.94289
  phone: 844-479-7035
  website: https://www.brightonrecoverycenter.com
  sources:
  - samhsa/findtreatment
  verified:
    'on': '2026-07-19'
    method: api
- id: ut/ogden/clinical-consultants-llc
  name: Clinical Consultants LLC
  categories:
  - su-treatment
  - mh-treatment
  address:
    street: 2661 Washington Boulevard
    city: Ogden
    state: ut
    zip: '84401'
  place: '4955980'
  geo:
    lat: 41.21721
    lng: -111.97055
  phone: 801-621-8670
  website: https://www.clinicalconsultants.org
  sources:
  - samhsa/findtreatment
  verified:
    'on': '2026-07-19'
    method: api
- id: ut/ogden/connect2kids-dba-connect2success
  name: Connect2Kids DBA Connect2Success
  categories:
  - su-treatment
  - mh-treatment
  address:
    street: 3535 Lincoln Avenue
    city: Ogden
    state: ut
    zip: '84401'
  place: '4955980'
  geo:
    lat: 41.1992
    lng: -111.97716
  phone: 385-389-6774
  website: https://www.c2s.care/
  sources:
  - samhsa/findtreatment
  verified:
    'on': '2026-07-19'
    method: api
- id: ut/ogden/diamond-recovery-outpatient-dba-diamond-tree-rec
  name: Diamond Recovery Outpatient DBA Diamond Tree Recovery
  categories:
  - su-treatment
  - mh-treatment
  address:
    street: 533 26th Street
    city: Ogden
    state: ut
    zip: '84401'
  place: '4955980'
  geo:
    lat: 41.21835
    lng: -111.96695
  phone: 801-573-4188
  website: https://www.diamondrecoverycenter.com
  sources:
  - samhsa/findtreatment
  verified:
    'on': '2026-07-19'
    method: api
- id: ut/ogden/gms-counseling-llc
  name: GMS Counseling LLC
  categories:
  - su-treatment
  - mh-treatment
  address:
    street: 3505 Grant Avenue
    city: Ogden
    state: ut
    zip: '84401'
  place: '4955980'
  geo:
    lat: 41.19954
    lng: -111.97402
  phone: 801-621-1901
  website: https://www.gmscounselingllc.com/
  sources:
  - samhsa/findtreatment
  verified:
    'on': '2026-07-19'
    method: api
- id: ut/ogden/housing-authority-of-the-city-of-ogden
  name: Housing Authority Of The City Of Ogden
  categories:
  - housing-assistance
  address: {street: 1100 Grant Ave, city: Ogden, state: ut, zip: '84404'}
  description: Public housing and Housing Choice Voucher agency
  place: '4955980'
  geo: {lat: 41.24614, lng: -111.97222}
  phone: 801-627-5851
  sources:
  - hud/resource-locator
  verified: {'on': '2026-07-19', method: api}
- id: ut/ogden/infinite-arches-llc
  name: Infinite Arches LLC
  categories:
  - su-treatment
  address:
    street: P.O. Box 41
    city: Ogden
    state: ut
    zip: '84402'
  place: '4955980'
  phone: 801-928-7770
  website: https://www.infin8arches.com
  sources:
  - samhsa/findtreatment
  verified:
    'on': '2026-07-19'
    method: api
- id: ut/ogden/james-madison-elementary
  name: James Madison Elementary
  categories:
  - child-care
  address:
    street: 2563 Monroe Blvd
    city: Ogden
    state: ut
    zip: '84401'
  place: '4955980'
  geo:
    lat: 41.21924
    lng: -111.95988
  phone: 801-399-9281
  sources:
  - acf/head-start-locations
  verified:
    'on': '2026-07-19'
    method: api
- id: ut/ogden/kidz-town-ogden
  name: Kidz Town Ogden
  categories:
  - child-care
  address:
    street: 677 East 12th Street
    city: Ogden
    state: ut
    zip: '84404'
  place: '4955980'
  geo:
    lat: 41.2438
    lng: -111.96214
  phone: 801-399-9281
  sources:
  - acf/head-start-locations
  verified:
    'on': '2026-07-19'
    method: api
- id: ut/ogden/midtown-community-health-center
  name: MIDTOWN COMMUNITY HEALTH CENTER
  categories:
  - community-health-center
  address:
    street: 2240 Adams Ave
    city: Ogden
    state: ut
    zip: '84401'
  place: '4955980'
  geo:
    lat: 41.2258
    lng: -111.96697
  phone: 801-393-5355
  external_ids:
    bphc: BPS-H80-003548
  sources:
  - hrsa/health-center-sites
  verified:
    'on': '2026-07-19'
    method: api
- id: ut/ogden/midtown-community-health-center-at-james-madison
  name: Midtown Community Health Center at James Madison Elementary
  categories:
  - community-health-center
  address:
    street: 2563 Monroe Blvd
    city: Ogden
    state: ut
    zip: '84401'
  place: '4955980'
  geo:
    lat: 41.21993
    lng: -111.96
  phone: 801-334-2213
  external_ids:
    bphc: BPS-H80-007698
  sources:
  - hrsa/health-center-sites
  verified:
    'on': '2026-07-19'
    method: api
- id: ut/ogden/midtown-community-health-center-children-s-clini
  name: Midtown Community Health Center Children's Clinic
  categories:
  - community-health-center
  address:
    street: 5285 S 400 E
    city: Ogden
    state: ut
    zip: '84405'
  place: '4955980'
  geo:
    lat: 41.16798
    lng: -111.97028
  phone: 801-475-7007
  external_ids:
    bphc: BPS-H80-009174
  sources:
  - hrsa/health-center-sites
  verified:
    'on': '2026-07-19'
    method: api
- id: ut/ogden/midtown-community-health-center-hope
  name: Midtown Community Health Center Hope
  categories:
  - community-health-center
  address:
    street: W 3300 S
    city: Ogden
    state: ut
    zip: '84401'
  place: '4955980'
  geo:
    lat: 41.20535
    lng: -112.07946
  phone: 801-393-5355
  external_ids:
    bphc: BPS-H80-015301
  sources:
  - hrsa/health-center-sites
  verified:
    'on': '2026-07-19'
    method: api
- id: ut/ogden/ogden-regional-medical-center-behavioral-health
  name: Ogden Regional Medical Center Behavioral Health Services
  categories:
  - su-treatment
  - mh-treatment
  address:
    street: 5475 South 500 East
    city: Ogden
    state: ut
    zip: '84405'
  place: '4955980'
  geo:
    lat: 41.16457
    lng: -111.97032
  phone: 801-479-2250
  website: https://ogdenregional.com/service/addiction-treatment
  sources:
  - samhsa/findtreatment
  verified:
    'on': '2026-07-19'
    method: api
- id: ut/ogden/ogden-weber-community-action-partnership-inc-gra
  name: Ogden-Weber Community Action Partnership, Inc. - Grantee Agency
  categories:
  - child-care
  address:
    street: 3159 Grant Ave
    city: Ogden
    state: ut
    zip: '84401'
  place: '4955980'
  geo:
    lat: 41.20651
    lng: -111.97364
  phone: 801-399-9281
  sources:
  - acf/head-start-locations
  verified:
    'on': '2026-07-19'
    method: api
- id: ut/ogden/owcap-5-points
  name: OWCAP 5 Points
  categories:
  - child-care
  address:
    street: 142 N Harrisville Rd
    city: Ogden
    state: ut
    zip: '84404'
  place: '4955980'
  geo:
    lat: 41.26194
    lng: -111.97041
  phone: 801-399-9281
  sources:
  - acf/head-start-locations
  verified:
    'on': '2026-07-19'
    method: api
- id: ut/ogden/renaissance-ranch-ogden
  name: Renaissance Ranch Ogden
  categories:
  - su-treatment
  address:
    street: 5677 South 1475 East
    city: Ogden
    state: ut
    zip: '84403'
  place: '4955980'
  geo:
    lat: 41.16019
    lng: -111.9429
  phone: 385-222-3737
  website: https://www.renaissanceranchogden.com
  sources:
  - samhsa/findtreatment
  verified:
    'on': '2026-07-19'
    method: api
- id: ut/ogden/school-of-addiction-recovery-soar
  name: School of Addiction Recovery SOAR
  categories:
  - su-treatment
  address:
    street: 3075 Grant Avenue
    city: Ogden
    state: ut
    zip: '84401'
  place: '4955980'
  geo:
    lat: 41.209
    lng: -111.97395
  phone: 801-943-2655
  website: https://www.schoolofaddiction.org
  sources:
  - samhsa/findtreatment
  verified:
    'on': '2026-07-19'
    method: api
- id: ut/ogden/south-ogden
  name: South Ogden
  categories:
  - child-care
  address:
    street: 3940 Washington Blvd
    city: Ogden
    state: ut
    zip: '84403'
  place: '4955980'
  geo:
    lat: 41.19135
    lng: -111.97065
  phone: 801-399-9281
  sources:
  - acf/head-start-locations
  verified:
    'on': '2026-07-19'
    method: api
- id: ut/ogden/summit-day-programs
  name: Summit Day Programs
  categories:
  - su-treatment
  - mh-treatment
  address:
    street: 4387 Harrison Boulevard
    city: Ogden
    state: ut
    zip: '84403'
  place: '4955980'
  geo:
    lat: 41.18317
    lng: -111.95015
  phone: 801-387-4970
  website: https://intermountainhealthcare.org/locations/summ
  sources:
  - samhsa/findtreatment
  verified:
    'on': '2026-07-19'
    method: api
- id: ut/ogden/sutton-counseling-services
  name: Sutton Counseling Services
  categories:
  - su-treatment
  - mh-treatment
  address:
    street: 5300 South 500 East
    city: Ogden
    state: ut
    zip: '84405'
  place: '4955980'
  geo:
    lat: 41.16791
    lng: -111.96729
  phone: 801-392-0942
  website: https://www.suttoncs.com
  sources:
  - samhsa/findtreatment
  verified:
    'on': '2026-07-19'
    method: api
- id: ut/ogden/tree-of-life-childrens-center
  name: Tree of Life Childrens Center
  categories:
  - su-treatment
  - mh-treatment
  address:
    street: 1812 North 2000 West
    city: Ogden
    state: ut
    zip: '84404'
  place: '4955980'
  geo:
    lat: 41.28999
    lng: -112.02691
  phone: 801-605-3086
  website: https://www.treeoflifechildrenscenter.com
  sources:
  - samhsa/findtreatment
  verified:
    'on': '2026-07-19'
    method: api
- id: ut/ogden/tree-of-life-counseling-center
  name: Tree of Life Counseling Center
  categories:
  - su-treatment
  - mh-treatment
  address:
    street: 2727 North Washington Boulevard
    city: Ogden
    state: ut
    zip: '84414'
  place: '4955980'
  geo:
    lat: 41.30937
    lng: -111.96904
  phone: 801-710-0421
  website: https://www.treeoflifeutah.com/
  sources:
  - samhsa/findtreatment
  verified:
    'on': '2026-07-19'
    method: api
- id: ut/ogden/trish-s-little-free-food-and-hygiene-pantry
  name: Trish's Little Free Food and Hygiene Pantry
  categories:
  - food-pantry
  place: '4955980'
  geo:
    lat: 41.24625
    lng: -111.93411
  external_ids:
    lfp: '3693'
  sources:
  - littlefreepantry/map
  verified:
    'on': '2026-07-19'
    method: scrape
- id: ut/ogden/waterfall-canyon-academy
  name: Waterfall Canyon Academy
  categories:
  - su-treatment
  - mh-treatment
  address:
    street: 3375 Harrison Blvd
    city: Ogden
    state: ut
    zip: '84403'
  place: '4955980'
  geo:
    lat: 41.20207
    lng: -111.94906
  phone: 801-621-3901
  website: https://www.waterfallcanyon.com
  sources:
  - samhsa/findtreatment
  verified:
    'on': '2026-07-19'
    method: api
- id: ut/ogden/weber-housing-authority
  name: Weber Housing Authority
  categories:
  - housing-assistance
  address: {street: 2380 Washington Blvd, city: Ogden, state: ut, zip: '84401'}
  description: Housing Choice Voucher (Section 8) agency
  place: '4955980'
  geo: {lat: 41.22316, lng: -111.97015}
  phone: 801-399-8691
  sources:
  - hud/resource-locator
  verified: {'on': '2026-07-19', method: api}
- id: ut/ogden/weber-human-services
  name: Weber Human Services
  categories:
  - su-treatment
  - mh-treatment
  address:
    street: 237 26th Street
    city: Ogden
    state: ut
    zip: '84401'
  place: '4955980'
  geo:
    lat: 41.21764
    lng: -111.97537
  phone: 801-625-3700
  website: https://www.weberhs.net
  sources:
  - samhsa/findtreatment
  verified:
    'on': '2026-07-19'
    method: api
- id: ut/ogden/weber-human-services-stepping-stone-residential
  name: Weber Human Services Stepping Stone/Residential
  categories:
  - su-treatment
  address:
    city: Ogden
    state: ut
    zip: '84401'
  place: '4955980'
  phone: 801-625-3700
  website: https://www.weberhs.org
  sources:
  - samhsa/findtreatment
  verified:
    'on': '2026-07-19'
    method: api
- id: ut/ogden/weber-recovery-center
  name: Weber Recovery Center
  categories:
  - su-treatment
  address:
    street: 2740 Pennsylvania Avenue
    city: Ogden
    state: ut
    zip: '84401'
  place: '4955980'
  geo:
    lat: 41.21603
    lng: -112.00579
  phone: 801-675-5624
  website: https://www.weberrecovery.com
  sources:
  - samhsa/findtreatment
  verified:
    'on': '2026-07-19'
    method: api
- id: ut/ogden/your-community-connection
  name: Your Community Connection
  categories:
  - child-care
  address:
    street: 2261 Adams Ave
    city: Ogden
    state: ut
    zip: '84401'
  place: '4955980'
  geo:
    lat: 41.22558
    lng: -111.96755
  phone: 801-399-9281
  sources:
  - acf/head-start-locations
  verified:
    'on': '2026-07-19'
    method: api
