- id: ut/orem/abundant-life-institute
  name: Abundant Life Institute
  categories:
  - su-treatment
  - mh-treatment
  address:
    street: 277 East 950 South
    city: Orem
    state: ut
    zip: '84058'
  place: '4957300'
  geo:
    lat: 40.27987
    lng: -111.68916
  phone: 801-427-0301
  website: https://
  sources:
  - samhsa/findtreatment
  verified:
    'on': '2026-07-19'
    method: api
- id: ut/orem/addiction-and-psychological-services
  name: Addiction and Psychological Services
  categories:
  - su-treatment
  - mh-treatment
  address:
    street: 224 North Orem Boulevard
    city: Orem
    state: ut
    zip: '84057'
  place: '4957300'
  geo:
    lat: 40.30126
    lng: -111.69909
  phone: 801-222-0603
  website: https://
  sources:
  - samhsa/findtreatment
  verified:
    'on': '2026-07-19'
    method: api
- id: ut/orem/arise-society
  name: Arise Society
  categories:
  - mh-treatment
  address:
    street: 1223 S 620 W
    city: Orem
    state: ut
    zip: '84058'
  place: '4957300'
  geo:
    lat: 40.27508
    lng: -111.70933
  phone: 801-300-9995
  website: https://www.thearisesociety.com
  sources:
  - samhsa/findtreatment
  verified:
    'on': '2026-07-19'
    method: api
- id: ut/orem/aspen
  name: Aspen
  categories:
  - child-care
  address:
    street: 925 W 2000 N
    city: Orem
    state: ut
    zip: '84057'
  place: '4957300'
  geo:
    lat: 40.33383
    lng: -111.69253
  phone: 801-224-6013
  sources:
  - acf/head-start-locations
  verified:
    'on': '2026-07-19'
    method: api
- id: ut/orem/aspen-grove-behavioral-hospital
  name: Aspen Grove Behavioral Hospital
  categories:
  - su-treatment
  - mh-treatment
  address:
    street: 1350 East 750 North
    city: Orem
    state: ut
    zip: '84097'
  place: '4957300'
  geo:
    lat: 40.31053
    lng: -111.66352
  phone: 801-852-2273
  website: https://www.aspengrovehospital.com/
  sources:
  - samhsa/findtreatment
  verified:
    'on': '2026-07-19'
    method: api
- id: ut/orem/avy-counseling-services-adva-counseling
  name: AVY Counseling Services Adva Counseling
  categories:
  - su-treatment
  - mh-treatment
  address:
    street: 165 North 1330 West
    city: Orem
    state: ut
    zip: '84057'
  place: '4957300'
  geo:
    lat: 40.2999
    lng: -111.72947
  phone: 801-960-3040
  website: https://www.avycs.com
  sources:
  - samhsa/findtreatment
  verified:
    'on': '2026-07-19'
    method: api
- id: ut/orem/center-for-change
  name: Center for Change
  categories:
  - su-treatment
  - mh-treatment
  address:
    street: 1790 North State Street
    city: Orem
    state: ut
    zip: '84057'
  place: '4957300'
  geo:
    lat: 40.3299
    lng: -111.70851
  phone: 888-224-8250
  website: https://centerforchange.com
  sources:
  - samhsa/findtreatment
  verified:
    'on': '2026-07-19'
    method: api
- id: ut/orem/cirque-lodge
  name: Cirque Lodge
  categories:
  - su-treatment
  - mh-treatment
  address:
    street: 777 North Palisades Drive
    city: Orem
    state: ut
    zip: '84097'
  place: '4957300'
  phone: 801-222-9200 x119
  website: https://www.cirquelodge.com
  sources:
  - samhsa/findtreatment
  verified:
    'on': '2026-07-19'
    method: api
- id: ut/orem/cirque-lodge-studio
  name: Cirque Lodge Studio
  categories:
  - su-treatment
  - mh-treatment
  address:
    street: 777 North Palisade Drive
    city: Orem
    state: ut
    zip: '84097'
  place: '4957300'
  geo:
    lat: 40.31039
    lng: -111.66617
  phone: 801-222-9200 x119
  website: https://www.cirquelodge.com
  sources:
  - samhsa/findtreatment
  verified:
    'on': '2026-07-19'
    method: api
- id: ut/orem/connections-counseling-services
  name: Connections Counseling Services
  categories:
  - su-treatment
  - mh-treatment
  address:
    street: 1330 South 740 East
    city: Orem
    state: ut
    zip: '84097'
  place: '4957300'
  geo:
    lat: 40.27268
    lng: -111.6775
  phone: 801-272-3420
  website: https://www.connectionscs.com
  sources:
  - samhsa/findtreatment
  verified:
    'on': '2026-07-19'
    method: api
- id: ut/orem/family-haven
  name: Family Haven
  categories:
  - mh-treatment
  address:
    street: 1255 North 1200 West
    city: Orem
    state: ut
    zip: '84057'
  place: '4957300'
  geo:
    lat: 40.31992
    lng: -111.72508
  phone: 801-229-1181
  website: https://www.family-haven.org
  sources:
  - samhsa/findtreatment
  verified:
    'on': '2026-07-19'
    method: api
- id: ut/orem/institute-for-cognitive-therapy-inc
  name: Institute for Cognitive Therapy Inc
  categories:
  - su-treatment
  - mh-treatment
  address:
    street: 879 South Orem Boulevard
    city: Orem
    state: ut
    zip: '84058'
  place: '4957300'
  geo:
    lat: 40.28117
    lng: -111.68986
  phone: 801-802-8608
  website: https://www.ict-utah.org
  sources:
  - samhsa/findtreatment
  verified:
    'on': '2026-07-19'
    method: api
- id: ut/orem/judicial-supervision-services-llc
  name: Judicial Supervision Services LLC
  categories:
  - su-treatment
  - mh-treatment
  address:
    street: 1411 North State Street
    city: Orem
    state: ut
    zip: '84057'
  place: '4957300'
  geo:
    lat: 40.32316
    lng: -111.70689
  phone: 801-525-3009 x1
  website: https://sites.google.com/judicialsupervision.com/jss/home
  sources:
  - samhsa/findtreatment
  verified:
    'on': '2026-07-19'
    method: api
- id: ut/orem/jwalker-intensive-outpatient
  name: JWalker Intensive Outpatient
  categories:
  - su-treatment
  - mh-treatment
  address:
    street: 503 East 770 North
    city: Orem
    state: ut
    zip: '84097'
  place: '4957300'
  geo:
    lat: 40.31108
    lng: -111.68384
  phone: 801-420-3117
  website: https://www.jwalkerutah.com
  sources:
  - samhsa/findtreatment
  verified:
    'on': '2026-07-19'
    method: api
- id: ut/orem/kids-on-the-move
  name: Kids On The Move
  categories:
  - child-care
  address:
    street: 475 W 260 N
    city: Orem
    state: ut
    zip: '84057'
  place: '4957300'
  geo:
    lat: 40.30151
    lng: -111.70754
  phone: 801-221-9930
  sources:
  - acf/head-start-locations
  verified:
    'on': '2026-07-19'
    method: api
- id: ut/orem/life-launch-centers-atd-treatment-center
  name: Life Launch Centers ATD Treatment Center
  categories:
  - mh-treatment
  address:
    street: 383 North State Street
    city: Orem
    state: ut
    zip: '84057'
  place: '4957300'
  geo:
    lat: 40.30391
    lng: -111.69877
  phone: 801-803-8240
  website: https://www.anxietytraumadepressiontreatment.com
  sources:
  - samhsa/findtreatment
  verified:
    'on': '2026-07-19'
    method: api
- id: ut/orem/nexstep-medical-detox-rightway-recovery
  name: Nexstep Medical Detox Rightway Recovery
  categories:
  - su-treatment
  - mh-treatment
  address:
    street: 1080 East 800 North
    city: Orem
    state: ut
    zip: '84057'
  place: '4957300'
  geo:
    lat: 40.31171
    lng: -111.67012
  phone: 801-607-1189
  website: https://www.nexstepdetox.com
  sources:
  - samhsa/findtreatment
  verified:
    'on': '2026-07-19'
    method: api
- id: ut/orem/orem
  name: Orem
  categories:
  - child-care
  address:
    street: 710 W 255 N
    city: Orem
    state: ut
    zip: '84057'
  place: '4957300'
  geo:
    lat: 40.30195
    lng: -111.71293
  phone: 801-225-9652
  sources:
  - acf/head-start-locations
  verified:
    'on': '2026-07-19'
    method: api
- id: ut/orem/papilion-integrated-recovery-center-recovery-cen
  name: Papilion Integrated Recovery Center Recovery Center (PIRC)
  categories:
  - su-treatment
  address:
    street: 585 West 1600 North
    city: Orem
    state: ut
    zip: '84057'
  place: '4957300'
  geo:
    lat: 40.32612
    lng: -111.71008
  phone: 801-440-5769
  website: https://www.papilionirc.com
  sources:
  - samhsa/findtreatment
  verified:
    'on': '2026-07-19'
    method: api
- id: ut/orem/pomarri-outpatient-services
  name: Pomarri Outpatient Services
  categories:
  - su-treatment
  address:
    street: 1472 East 820 North
    city: Orem
    state: ut
    zip: '84097'
  place: '4957300'
  geo:
    lat: 40.31256
    lng: -111.66071
  phone: 801-226-1227
  website: https://www.pomarri.com
  sources:
  - samhsa/findtreatment
  verified:
    'on': '2026-07-19'
    method: api
- id: ut/orem/silver-creek-clinic
  name: Silver Creek Clinic
  categories:
  - su-treatment
  address:
    street: 1480 East 820 North
    city: Orem
    state: ut
    zip: '84097'
  place: '4957300'
  geo:
    lat: 40.31256
    lng: -111.66072
  phone: 801-919-5079
  website: https://silvercreekpsy.com
  sources:
  - samhsa/findtreatment
  verified:
    'on': '2026-07-19'
    method: api
- id: ut/orem/steps-recovery-center-orem-outpatient-services
  name: Steps Recovery Center Orem Outpatient Services
  categories:
  - su-treatment
  address:
    street: 901 South Orem Boulevard
    city: Orem
    state: ut
    zip: '84058'
  place: '4957300'
  geo:
    lat: 40.28053
    lng: -111.6895
  phone: 801-427-0416
  website: https://www.stepsrc.com
  sources:
  - samhsa/findtreatment
  verified:
    'on': '2026-07-19'
    method: api
- id: ut/orem/timpanogos-child-development-center
  name: Timpanogos Child Development Center
  categories:
  - child-care
  address:
    street: 275 W Center St
    city: Orem
    state: ut
    zip: '84057'
  place: '4957300'
  geo:
    lat: 40.29642
    lng: -111.70296
  phone: 801-375-7981
  sources:
  - acf/head-start-locations
  verified:
    'on': '2026-07-19'
    method: api
- id: ut/orem/true-north-recovery-and-wellness-ctr
  name: True North Recovery and Wellness Ctr
  categories:
  - su-treatment
  address:
    street: 234 North Orem Boulevard
    city: Orem
    state: ut
    zip: '84057'
  place: '4957300'
  geo:
    lat: 40.30168
    lng: -111.69863
  phone: 801-691-0672
  website: https://truenorthutah.com
  sources:
  - samhsa/findtreatment
  verified:
    'on': '2026-07-19'
    method: api
- id: ut/orem/utah-valley-university-community-mental-health-c
  name: Utah Valley University Community Mental Health Clinic
  categories:
  - mh-treatment
  address:
    street: 800 West University Parkway
    city: Orem
    state: ut
    zip: '84058'
  place: '4957300'
  geo:
    lat: 40.27898
    lng: -111.71097
  phone: 801-863-4780
  website: https://www.uvu.edu/community-clinic/
  sources:
  - samhsa/findtreatment
  verified:
    'on': '2026-07-19'
    method: api
- id: ut/orem/wasatch-behavioral-health-aspire-academy
  name: Wasatch Behavioral Health Aspire Academy
  categories:
  - su-treatment
  - mh-treatment
  address:
    street: 371 South Vineyard Road
    city: Orem
    state: ut
    zip: '84058'
  place: '4957300'
  geo:
    lat: 40.29075
    lng: -111.73502
  phone: 801-960-1680
  website: https://www.wasatch.org
  sources:
  - samhsa/findtreatment
  verified:
    'on': '2026-07-19'
    method: api
- id: ut/orem/wasatch-behavioral-health-giant-steps-foothill-e
  name: Wasatch Behavioral Health Giant Steps/Foothill Elem School
  categories:
  - mh-treatment
  address:
    city: Orem
    state: ut
    zip: '84097'
  place: '4957300'
  phone: 801-226-5437
  website: https://www.wasatch.org
  sources:
  - samhsa/findtreatment
  verified:
    'on': '2026-07-19'
    method: api
- id: ut/orem/wasatch-bh-special-servs-district
  name: Wasatch BH Special Servs District
  categories:
  - su-treatment
  address:
    street: 255 South Orem Boulevard
    city: Orem
    state: ut
    zip: '84058'
  place: '4957300'
  geo:
    lat: 40.29253
    lng: -111.69519
  phone: 385-268-5000
  website: https://wasatch.org
  sources:
  - samhsa/findtreatment
  verified:
    'on': '2026-07-19'
    method: api
