- id: nh/derry/center-for-life-management
  name: Center for Life Management
  categories:
  - su-treatment
  - mh-treatment
  address:
    street: 10 Tsienneto Road
    city: Derry
    state: nh
    zip: 03038
  place: '3317860'
  geo:
    lat: 42.89798
    lng: -71.32343
  phone: 603-434-1577
  website: https://www.centerforlifemanagement.org
  sources:
  - samhsa/findtreatment
  verified:
    'on': '2026-07-19'
    method: api
- id: nh/derry/derry-head-start
  name: Derry Head Start
  categories:
  - child-care
  address:
    street: 9 Crystal Ave
    city: Derry
    state: nh
    zip: 03038
  place: '3317860'
  geo:
    lat: 42.88388
    lng: -71.32473
  phone: 603-216-8864
  sources:
  - acf/head-start-locations
  verified:
    'on': '2026-07-19'
    method: api
- id: nh/derry/derry-housing-redevelopment-authority
  name: Derry Housing & Redevelopment Authority
  categories:
  - housing-assistance
  address: {street: 17A Peabody Rd, city: Derry, state: nh, zip: 03038}
  description: Housing Choice Voucher (Section 8) agency
  place: '3317860'
  geo: {lat: 42.89264, lng: -71.32201}
  phone: 603-434-8717
  sources:
  - hud/resource-locator
  verified: {'on': '2026-07-19', method: api}
- id: nh/derry/healthy-together
  name: Healthy Together
  categories:
  - community-health-center
  address:
    street: 10 Tsienneto Rd
    city: Derry
    state: nh
    zip: 03038
  place: '3317860'
  geo:
    lat: 42.898
    lng: -71.32338
  phone: 603-895-3351
  external_ids:
    bphc: BPS-H80-031310
  sources:
  - hrsa/health-center-sites
  verified:
    'on': '2026-07-19'
    method: api
- id: nh/derry/liberty-health-services
  name: Liberty Health Services
  categories:
  - su-treatment
  address:
    street: 29 Ashleigh Drive
    city: Derry
    state: nh
    zip: 03038
  place: '3317860'
  geo:
    lat: 42.90225
    lng: -71.33225
  phone: 603-216-0277 x107
  website: https://www.libertyhealthdetox.com
  sources:
  - samhsa/findtreatment
  verified:
    'on': '2026-07-19'
    method: api
