- id: nh/keene/community-improvement-associates
  name: Community Improvement Associates
  categories:
  - su-treatment
  address:
    street: 160 Emerald Street
    city: Keene
    state: nh
    zip: '03431'
  place: '3339300'
  geo:
    lat: 42.93017
    lng: -72.28456
  phone: 603-352-1016
  website: https://cianh.com/
  sources:
  - samhsa/findtreatment
  verified:
    'on': '2026-07-19'
    method: api
- id: nh/keene/groups-recover-together
  name: Groups Recover Together
  categories:
  - su-treatment
  address:
    street: 12 Kingsbury Street
    city: Keene
    state: nh
    zip: '03431'
  place: '3339300'
  geo:
    lat: 42.93274
    lng: -72.27002
  phone: 603-272-6668
  website: https://www.joingroups.com
  sources:
  - samhsa/findtreatment
  verified:
    'on': '2026-07-19'
    method: api
- id: nh/keene/keene-cboc
  name: Keene CBOC
  categories:
  - su-treatment
  - mh-treatment
  address:
    street: 640 Marlboro Street
    city: Keene
    state: nh
    zip: '03431'
  place: '3339300'
  geo:
    lat: 42.91562
    lng: -72.25001
  phone: 603-358-4900
  website: https://www.va.gov/white-river-junction-health-care/locations/keene-va-clinic/
  sources:
  - samhsa/findtreatment
  verified:
    'on': '2026-07-19'
    method: api
- id: nh/keene/keene-housing
  name: Keene Housing
  categories:
  - housing-assistance
  address: {street: 831 Court St, city: Keene, state: nh, zip: '03431'}
  description: Public housing and Housing Choice Voucher agency
  place: '3339300'
  geo: {lat: 42.96236, lng: -72.30569}
  phone: 603-352-6161
  sources:
  - hud/resource-locator
  verified: {'on': '2026-07-19', method: api}
- id: nh/keene/maps-counseling-services
  name: MAPS Counseling Services
  categories:
  - su-treatment
  - mh-treatment
  address:
    city: Keene
    state: nh
    zip: '03431'
  place: '3339300'
  phone: 603-355-2244
  website: https://www.mapsnh.org
  sources:
  - samhsa/findtreatment
  verified:
    'on': '2026-07-19'
    method: api
- id: nh/keene/scs-head-start-keene-center
  name: SCS Head Start Keene Center
  categories:
  - child-care
  address:
    street: 63 Community Way
    city: Keene
    state: nh
    zip: '03431'
  place: '3339300'
  geo:
    lat: 42.93143
    lng: -72.274
  phone: 603-719-4175
  sources:
  - acf/head-start-locations
  verified:
    'on': '2026-07-19'
    method: api
