- id: co/grand-junction/clean-n-queer
  name: Clean 'N Queer
  program: na
  categories:
  - recovery-meeting
  schedule:
  - {day: sat, time: '18:00', duration_min: 60}
  format: in-person
  types:
  - o
  - d
  - lgbtq
  venue_name: Love Beyond Understanding
  venue: {street: 640 White Ave, city: Grand Junction, state: co}
  place: 0831660
  geo: {lat: 39.06951, lng: -108.56181}
  external_ids: {bmlt: '19:1147'}
  sources:
  - bmlt/aggregator
  verified: {'on': '2026-07-19', method: api}
- id: co/grand-junction/come-as-you-are
  name: Come As You Are
  program: na
  categories:
  - recovery-meeting
  schedule:
  - {day: mon, time: '18:00', duration_min: 60}
  format: in-person
  types:
  - o
  - d
  - wc
  venue_name: Church
  venue: {street: 1425 N. 5th Street, city: Grand Junction, state: co}
  place: 0831660
  geo: {lat: 39.08044, lng: -108.56481}
  external_ids: {bmlt: '19:1145'}
  sources:
  - bmlt/aggregator
  verified: {'on': '2026-07-19', method: api}
- id: co/grand-junction/come-as-you-are-2
  name: Come As You Are
  program: na
  categories:
  - recovery-meeting
  schedule:
  - {day: wed, time: '18:00', duration_min: 60}
  format: in-person
  types:
  - o
  - d
  - wc
  venue_name: Church
  venue: {street: 1425 N. 5th Street, city: Grand Junction, state: co}
  place: 0831660
  geo: {lat: 39.08035, lng: -108.56505}
  external_ids: {bmlt: '19:1146'}
  sources:
  - bmlt/aggregator
  verified: {'on': '2026-07-19', method: api}
- id: co/grand-junction/come-as-you-are-3
  name: Come As You Are
  program: na
  categories:
  - recovery-meeting
  schedule:
  - {day: thu, time: '18:00', duration_min: 60}
  format: in-person
  types:
  - o
  - d
  - wc
  venue_name: Church
  venue: {street: 1425 N. 5th St., city: Grand Junction, state: co, zip: '81501'}
  place: 0831660
  geo: {lat: 39.0803, lng: -108.56517}
  external_ids: {bmlt: '19:84'}
  sources:
  - bmlt/aggregator
  verified: {'on': '2026-07-19', method: api}
- id: co/grand-junction/high-noon
  name: High Noon
  program: na
  categories:
  - recovery-meeting
  schedule:
  - {day: mon, time: '12:00', duration_min: 60}
  format: in-person
  types:
  - o
  venue_name: Alano Club
  venue: {street: 404 Gunnison St, city: Grand Junction, state: co}
  place: 0831660
  geo: {lat: 39.07384, lng: -108.49586}
  external_ids: {bmlt: '19:1183'}
  sources:
  - bmlt/aggregator
  verified: {'on': '2026-07-19', method: api}
- id: co/grand-junction/high-noon-2
  name: High Noon
  program: na
  categories:
  - recovery-meeting
  schedule:
  - {day: sat, time: '12:00', duration_min: 60}
  format: in-person
  types:
  - o
  venue_name: Alano Club
  venue: {street: 404 Gunnison St, city: Grand Junction, state: co}
  place: 0831660
  geo: {lat: 39.07311, lng: -108.49477}
  external_ids: {bmlt: '19:1186'}
  sources:
  - bmlt/aggregator
  verified: {'on': '2026-07-19', method: api}
- id: co/grand-junction/men-s-group
  name: Men's Group
  program: na
  categories:
  - recovery-meeting
  schedule:
  - {day: sun, time: '18:00', duration_min: 60}
  format: in-person
  types:
  - c
  - m
  - wc
  venue_name: Church
  venue: {street: 1326 N. 1st Street, city: Grand Junction, state: co, zip: '81501'}
  place: 0831660
  geo: {lat: 39.07959, lng: -108.5704}
  external_ids: {bmlt: '19:934'}
  sources:
  - bmlt/aggregator
  verified: {'on': '2026-07-19', method: api}
- id: co/grand-junction/never-give-up
  name: Never Give Up
  program: na
  categories:
  - recovery-meeting
  schedule:
  - {day: mon, time: '13:30', duration_min: 60}
  format: in-person
  types:
  - o
  - cs
  - wc
  - bk
  venue_name: New Life Church
  venue: {street: 1350 N. 7th St., city: Grand Junction, state: co, zip: '81501'}
  place: 0831660
  geo: {lat: 39.07984, lng: -108.56062}
  external_ids: {bmlt: '19:366'}
  sources:
  - bmlt/aggregator
  verified: {'on': '2026-07-19', method: api}
- id: co/grand-junction/never-give-up-2
  name: Never Give Up
  program: na
  categories:
  - recovery-meeting
  schedule:
  - {day: tue, time: '13:30', duration_min: 60}
  format: in-person
  types:
  - o
  - wc
  - bk
  venue_name: New Life Church
  venue: {street: 1350 N. 7th St., city: Grand Junction, state: co, zip: '81501'}
  place: 0831660
  geo: {lat: 39.07984, lng: -108.56062}
  external_ids: {bmlt: '19:365'}
  sources:
  - bmlt/aggregator
  verified: {'on': '2026-07-19', method: api}
- id: co/grand-junction/never-give-up-3
  name: Never Give Up
  program: na
  categories:
  - recovery-meeting
  schedule:
  - {day: wed, time: '13:30', duration_min: 60}
  format: in-person
  types:
  - o
  - cs
  - wc
  - bk
  venue_name: New Life Church
  venue: {street: 1350 N. 7th St., city: Grand Junction, state: co, zip: '81501'}
  place: 0831660
  geo: {lat: 39.07984, lng: -108.56062}
  external_ids: {bmlt: '19:76'}
  sources:
  - bmlt/aggregator
  verified: {'on': '2026-07-19', method: api}
- id: co/grand-junction/never-give-up-4
  name: Never Give Up
  program: na
  categories:
  - recovery-meeting
  schedule:
  - {day: thu, time: '13:30', duration_min: 60}
  format: in-person
  types:
  - o
  - cs
  - wc
  - bk
  venue_name: New Life Church
  venue: {street: 1350 N. 7th St., city: Grand Junction, state: co, zip: '81501'}
  place: 0831660
  geo: {lat: 39.07984, lng: -108.56062}
  external_ids: {bmlt: '19:77'}
  sources:
  - bmlt/aggregator
  verified: {'on': '2026-07-19', method: api}
- id: co/grand-junction/never-give-up-5
  name: Never Give Up
  program: na
  categories:
  - recovery-meeting
  schedule:
  - {day: fri, time: '13:30', duration_min: 60}
  format: in-person
  types:
  - o
  - cs
  - wc
  - bk
  venue_name: New Life Church
  venue: {street: 1350 N. 7th St., city: Grand Junction, state: co, zip: '81501'}
  place: 0831660
  geo: {lat: 39.07984, lng: -108.56062}
  external_ids: {bmlt: '19:78'}
  sources:
  - bmlt/aggregator
  verified: {'on': '2026-07-19', method: api}
- id: co/grand-junction/never-give-up-6
  name: Never Give Up
  program: na
  categories:
  - recovery-meeting
  schedule:
  - {day: sat, time: '13:30', duration_min: 60}
  format: in-person
  types:
  - o
  - cs
  - wc
  - bk
  venue_name: New Life Church
  venue: {street: 1350 N. 7th St., city: Grand Junction, state: co, zip: '81501'}
  place: 0831660
  geo: {lat: 39.07984, lng: -108.56062}
  external_ids: {bmlt: '19:79'}
  sources:
  - bmlt/aggregator
  verified: {'on': '2026-07-19', method: api}
- id: co/grand-junction/out-of-the-darkness
  name: Out of the Darkness
  program: na
  categories:
  - recovery-meeting
  schedule:
  - {day: fri, time: '20:00', duration_min: 60}
  format: in-person
  types:
  - o
  - cl
  - d
  venue_name: 'Meeting Hall #8'
  venue: {street: 1938 N. 1st St, city: Grand Junction, state: co, zip: '81501'}
  place: 0831660
  geo: {lat: 39.08547, lng: -108.57048}
  external_ids: {bmlt: '19:85'}
  sources:
  - bmlt/aggregator
  verified: {'on': '2026-07-19', method: api}
- id: co/grand-junction/pathway-to-recovery-h-i
  name: Pathway to Recovery H&I
  program: na
  categories:
  - recovery-meeting
  schedule:
  - {day: fri, time: '18:00', duration_min: 60}
  format: in-person
  types:
  - jt
  - bk
  venue_name: Pathways Family Shelter
  venue: {street: 562 29 Rd, city: Grand Junction, state: co}
  place: 0831660
  geo: {lat: 39.08642, lng: -108.51491}
  external_ids: {bmlt: '19:1161'}
  sources:
  - bmlt/aggregator
  verified: {'on': '2026-07-19', method: api}
- id: co/grand-junction/sisters-in-the-solution
  name: Sisters in the Solution
  program: na
  categories:
  - recovery-meeting
  schedule:
  - {day: tue, time: '19:00', duration_min: 60}
  format: in-person
  types:
  - o
  - w
  venue: {street: 720 Grand Ave, city: Grand Junction, state: co}
  place: 0831660
  geo: {lat: 39.07068, lng: -108.56063}
  external_ids: {bmlt: '19:1185'}
  sources:
  - bmlt/aggregator
  verified: {'on': '2026-07-19', method: api}
- id: co/grand-junction/the-only-requirement
  name: The Only Requirement
  program: na
  categories:
  - recovery-meeting
  schedule:
  - {day: sat, time: '19:00', duration_min: 60}
  format: in-person
  types:
  - o
  - jt
  - bk
  venue_name: Homeward Bound
  venue: {street: 2853 N.Ave, city: Grand Junction, state: co}
  place: 0831660
  geo: {lat: 39.07691, lng: -108.5227}
  external_ids: {bmlt: '19:1162'}
  sources:
  - bmlt/aggregator
  verified: {'on': '2026-07-19', method: api}
- id: co/grand-junction/women-on-fire
  name: Women On Fire
  program: na
  categories:
  - recovery-meeting
  schedule:
  - {day: sun, time: '17:30', duration_min: 60}
  format: in-person
  types:
  - o
  - st
  - w
  - bk
  venue_name: New Life Church
  venue: {street: 1350 N. 7th St., city: Grand Junction, state: co, zip: '81504'}
  place: 0831660
  geo: {lat: 39.07982, lng: -108.56066}
  external_ids: {bmlt: '19:935'}
  sources:
  - bmlt/aggregator
  verified: {'on': '2026-07-19', method: api}
- id: co/grand-junction/women-s-meeting
  name: Women's Meeting
  program: na
  categories:
  - recovery-meeting
  schedule:
  - {day: mon, time: '17:15', duration_min: 60}
  format: in-person
  types:
  - o
  - w
  venue_name: New Life Church
  venue: {street: 1350 N. 7th St., city: Grand Junction, state: co}
  place: 0831660
  geo: {lat: 39.07982, lng: -108.56066}
  external_ids: {bmlt: '19:1160'}
  sources:
  - bmlt/aggregator
  verified: {'on': '2026-07-19', method: api}
