- id: de/ellendale/abundant-life-ministries
  name: Abundant Life Ministries
  org: de/food-bank-of-delaware
  categories:
  - food-pantry
  address: {street: 14411 VFW Road, city: Ellendale, state: de, zip: '19941'}
  place: '1024020'
  phone: 302-258-3854
  sources:
  - foodbank/de-food-bank-of-delaware
  verified: {'on': '2026-07-21', method: scrape}
  geo: {lat: 38.78729, lng: -75.44359}
- id: de/ellendale/ellendale-vacation-bible-school
  name: Ellendale Vacation Bible School
  categories:
  - meal-program
  address: {street: 13724 South Old State Road, city: Ellendale, state: de, zip: '19941'}
  description: Free summer meals for kids and teens (2026 season) — sponsored by Family Outreach Center
    - 0000002283.
  place: '1024020'
  geo: {lat: 38.79369, lng: -75.42963}
  phone: (302) 542-0960
  external_ids: {usda_master: Cycle 01_DE_SFSP_0014}
  sources:
  - usda/summer-meal-sites
  verified: {'on': '2026-07-19', method: api}
- id: de/ellendale/philadelphia-pentecostal-holiness-church
  name: Philadelphia Pentecostal Holiness Church
  org: de/food-bank-of-delaware
  categories:
  - food-pantry
  address: {street: 13724 South Old State Road, city: Ellendale, state: de, zip: '19941'}
  place: '1024020'
  phone: 302-344-8653
  sources:
  - foodbank/de-food-bank-of-delaware
  verified: {'on': '2026-07-21', method: scrape}
  geo: {lat: 38.79377, lng: -75.42968}
- id: de/ellendale/rnc-new-hope-lane
  name: Rnc New Hope Lane
  categories:
  - meal-program
  address: {street: 18503 New Hope Lane, city: Ellendale, state: de, zip: '19941'}
  description: Free summer meals for kids and teens (2026 season) — sponsored by Family Outreach Center
    - 0000002283.
  place: '1024020'
  geo: {lat: 38.78895, lng: -75.42862}
  phone: (302) 542-0960
  external_ids: {usda_master: Cycle 01_DE_SFSP_0045}
  sources:
  - usda/summer-meal-sites
  verified: {'on': '2026-07-19', method: api}
- id: de/ellendale/rnc-new-market-village
  name: Rnc New Market Village
  categories:
  - meal-program
  address: {street: 2 Candy Lane, city: Ellendale, state: de, zip: '19941'}
  description: Free summer meals for kids and teens (2026 season) — sponsored by Family Outreach Center
    - 0000002283.
  place: '1024020'
  geo: {lat: 38.80955, lng: -75.38528}
  phone: (302) 542-0960
  external_ids: {usda_master: Cycle 01_DE_SFSP_0047}
  sources:
  - usda/summer-meal-sites
  verified: {'on': '2026-07-19', method: api}
