- id: de/smyrna/commerce-square
  name: Commerce Square
  categories:
  - meal-program
  address: {street: 101 Talon Ct, city: Smyrna, state: de, zip: '19977'}
  description: Free summer meals for kids and teens (2026 season) — sponsored by Smyrna - 9524000040.
  place: '1067310'
  geo: {lat: 39.30437, lng: -75.59725}
  phone: (302) 653-3134
  external_ids: {usda_master: Cycle 01_DE_SFSP_0010}
  sources:
  - usda/summer-meal-sites
  verified: {'on': '2026-07-19', method: api}
- id: de/smyrna/greater-smyrna-clayton-boys-girls-club
  name: Greater Smyrna Clayton Boys & Girls Club
  categories:
  - family-youth
  description: Boys & Girls Club
  address: {street: 240 E Commerce St, city: Smyrna, state: de, zip: '19977'}
  geo: {lat: 39.3038, lng: -75.60208}
  place: '1067310'
  phone: 302-659-5610
  website: http://www.bgclubs.org
  services:
  - Teen center
  - Summer programs
  - Meals
  external_ids: {bgca_site: '3937', bgca_org: '10014'}
  sources:
  - bgca/find-a-club
  verified: {'on': '2026-07-21', method: api}
- id: de/smyrna/jbm-boys-girls-club
  name: JBM Boys & Girls Club
  categories:
  - family-youth
  description: Boys & Girls Club
  address: {street: 20 W Frazier St, city: Smyrna, state: de, zip: '19977'}
  geo: {lat: 39.2975, lng: -75.60371}
  place: '1067310'
  phone: 862-285-0619
  website: http://www.bgclubs.org
  external_ids: {bgca_site: '10611', bgca_org: '10014'}
  sources:
  - bgca/find-a-club
  verified: {'on': '2026-07-21', method: api}
- id: de/smyrna/jbm-gym
  name: Jbm Gym
  categories:
  - meal-program
  address: {street: 20 West Frazier St., city: Smyrna, state: de, zip: '19977'}
  description: Free summer meals for kids and teens (2026 season) — sponsored by Indian River - 9536000020.
  place: '1067310'
  geo: {lat: 39.298, lng: -75.60471}
  phone: (302) 236-9886
  external_ids: {usda_master: Cycle 11_DE_SFSP_0093}
  sources:
  - usda/summer-meal-sites
  verified: {'on': '2026-07-19', method: api}
- id: de/smyrna/mamie-warren-center-fc
  name: Mamie Warren Center FC
  org: de/food-bank-of-delaware
  categories:
  - food-pantry
  address: {street: 1775 Wheatleys Pond Road, city: Smyrna, state: de, zip: '19977'}
  place: '1067310'
  phone: 302-653-4078
  sources:
  - foodbank/de-food-bank-of-delaware
  verified: {'on': '2026-07-21', method: scrape}
  geo: {lat: 39.24974, lng: -75.64202}
- id: de/smyrna/north-smyrna-elementary-boys-girls-club
  name: North Smyrna Elementary Boys & Girls Club
  categories:
  - family-youth
  description: Boys & Girls Club
  address: {street: 365 N Main St, city: Smyrna, state: de, zip: '19977'}
  geo: {lat: 39.30359, lng: -75.61426}
  place: '1067310'
  phone: 302-893-9320
  website: http://www.bgclubs.org
  external_ids: {bgca_site: '10607', bgca_org: '10014'}
  sources:
  - bgca/find-a-club
  verified: {'on': '2026-07-21', method: api}
- id: de/smyrna/smyrna
  name: Smyrna
  categories:
  - child-care
  address: {street: 4272 Brenford Rd, city: Smyrna, state: de, zip: '19977'}
  description: Head Start early childhood program — 48 funded slots; operated by Children and Families
    First Delaware, Inc..
  place: '1067310'
  geo: {lat: 39.267, lng: -75.59603}
  phone: 302-223-9900
  sources:
  - acf/head-start-locations
  verified: {'on': '2026-07-19', method: api}
- id: de/smyrna/smyrna-elementary
  name: Smyrna Elementary
  categories:
  - meal-program
  address: {street: 121 South School Lane, city: Smyrna, state: de, zip: '19977'}
  description: Free summer meals for kids and teens (2026 season) — sponsored by Smyrna - 9524000040.
  place: '1067310'
  geo: {lat: 39.29622, lng: -75.60778}
  phone: (302) 653-3134
  external_ids: {usda_master: Cycle 01_DE_SFSP_0056}
  sources:
  - usda/summer-meal-sites
  verified: {'on': '2026-07-19', method: api}
- id: de/smyrna/smyrna-elementary-boys-girls-club
  name: Smyrna Elementary Boys & Girls Club
  categories:
  - family-youth
  description: Boys & Girls Club
  address: {street: 121 S School Ln, city: Smyrna, state: de, zip: '19977'}
  geo: {lat: 39.29567, lng: -75.60818}
  place: '1067310'
  phone: 862-285-0650
  website: http://www.bgclubs.org
  external_ids: {bgca_site: '10609', bgca_org: '10014'}
  sources:
  - bgca/find-a-club
  verified: {'on': '2026-07-21', method: api}
- id: de/smyrna/smyrna-high-school
  name: Smyrna High School
  categories:
  - meal-program
  address: {street: 500 Duck Creek Parkway, city: Smyrna, state: de, zip: '19977'}
  description: Free summer meals for kids and teens (2026 season) — sponsored by Smyrna - 9524000040.
  place: '1067310'
  geo: {lat: 39.30102, lng: -75.62825}
  phone: (302) 653-3134
  external_ids: {usda_master: Cycle 01_DE_SFSP_0057}
  sources:
  - usda/summer-meal-sites
  verified: {'on': '2026-07-19', method: api}
- id: de/smyrna/sunnyside-elementary-boys-girls-club
  name: Sunnyside Elementary Boys & Girls Club
  categories:
  - family-youth
  description: Boys & Girls Club
  address: {street: 123 RABBIT CHASE LN, city: Smyrna, state: de, zip: '19977'}
  geo: {lat: 39.27362, lng: -75.61099}
  place: '1067310'
  phone: 302-893-9319
  website: http://www.bgclubs.org
  external_ids: {bgca_site: '9230', bgca_org: '10014'}
  sources:
  - bgca/find-a-club
  verified: {'on': '2026-07-21', method: api}
