- id: de/wilmington/a-leap-of-faith
  name: A Leap Of Faith
  categories:
  - child-care
  address:
    street: 1715 W 4th St
    city: Wilmington
    state: de
    zip: '19805'
  place: '1077580'
  geo:
    lat: 39.74832
    lng: -75.56993
  phone: 302-543-6256
  sources:
  - acf/head-start-locations
  verified:
    'on': '2026-07-19'
    method: api
- id: de/wilmington/absalom-jones
  name: Absalom Jones
  categories:
  - child-care
  address:
    street: 310 Kiamensi Rd
    city: Wilmington
    state: de
    zip: '19804'
  place: '1077580'
  geo:
    lat: 39.72191
    lng: -75.62163
  phone: 302-998-8480
  sources:
  - acf/head-start-locations
  verified:
    'on': '2026-07-19'
    method: api
- id: de/wilmington/brandywine-counseling-and-community-services
  name: Brandywine Counseling and Community Services
  categories:
  - su-treatment
  - mh-treatment
  address:
    street: 2713 Lancaster Avenue
    city: Wilmington
    state: de
    zip: '19805'
  place: '1077580'
  geo:
    lat: 39.7505
    lng: -75.58275
  phone: 302-656-2348
  website: https://www.brandywinecounseling.com
  sources:
  - samhsa/findtreatment
  verified:
    'on': '2026-07-19'
    method: api
- id: de/wilmington/christianacare-wilmington-hospital
  name: ChristianaCare Wilmington Hospital
  categories:
  - su-treatment
  - mh-treatment
  address:
    street: 501 West 14th Street
    city: Wilmington
    state: de
    zip: '19801'
  place: '1077580'
  geo:
    lat: 39.75055
    lng: -75.55053
  phone: 302-320-2926
  website: https://www.christianacare.org
  sources:
  - samhsa/findtreatment
  verified:
    'on': '2026-07-19'
    method: api
- id: de/wilmington/coras-wellness-and-behavioral-health-womens-resi
  name: Coras Wellness and Behavioral Health Womens Residential Treatment Center
  categories:
  - su-treatment
  - mh-treatment
  address:
    street: 1121 Brandywine Street
    city: Wilmington
    state: de
    zip: '19802'
  place: '1077580'
  geo:
    lat: 39.74198
    lng: -75.53455
  phone: 833-886-2277 x1
  website: https://www.coraswellness.org
  sources:
  - samhsa/findtreatment
  verified:
    'on': '2026-07-19'
    method: api
- id: de/wilmington/espoir-recovery-healing-services
  name: Espoir Recovery Healing Services
  categories:
  - su-treatment
  - mh-treatment
  address:
    street: 1016 Delaware Avenue
    city: Wilmington
    state: de
    zip: '19806'
  place: '1077580'
  geo:
    lat: 39.75194
    lng: -75.55626
  phone: 302-468-4530
  website: https://
  sources:
  - samhsa/findtreatment
  verified:
    'on': '2026-07-19'
    method: api
- id: de/wilmington/henrietta-johnson-medical-center
  name: HENRIETTA JOHNSON MEDICAL CENTER
  categories:
  - community-health-center
  address:
    street: 601 New Castle Ave
    city: Wilmington
    state: de
    zip: '19801'
  place: '1077580'
  geo:
    lat: 39.7275
    lng: -75.54377
  phone: 302-655-6187
  website: https://www.hjmc.org
  external_ids:
    bphc: BPS-H80-001099
  sources:
  - hrsa/health-center-sites
  verified:
    'on': '2026-07-19'
    method: api
- id: de/wilmington/hilltop-lutheran-neighborhood-center
  name: Hilltop Lutheran Neighborhood Center
  categories:
  - child-care
  address:
    street: 1018 W 6th St
    city: Wilmington
    state: de
    zip: '19805'
  place: '1077580'
  geo:
    lat: 39.746
    lng: -75.56038
  phone: 302-656-3224
  sources:
  - acf/head-start-locations
  verified:
    'on': '2026-07-19'
    method: api
- id: de/wilmington/jewish-family-services-of-delaware
  name: Jewish Family Services of Delaware
  categories:
  - mh-treatment
  address:
    street: 99 Passmore Road
    city: Wilmington
    state: de
    zip: '19803'
  place: '1077580'
  geo:
    lat: 39.812
    lng: -75.55192
  phone: 302-478-9411
  website: https://www.jfsdelaware.org
  sources:
  - samhsa/findtreatment
  verified:
    'on': '2026-07-19'
    method: api
- id: de/wilmington/kingswood-community-center
  name: Kingswood Community Center
  categories:
  - child-care
  address:
    street: 2300 Bowers St
    city: Wilmington
    state: de
    zip: '19802'
  place: '1077580'
  geo:
    lat: 39.74651
    lng: -75.52762
  phone: 302-764-9022
  sources:
  - acf/head-start-locations
  verified:
    'on': '2026-07-19'
    method: api
- id: de/wilmington/lafiesta-1
  name: LaFiesta 1
  categories:
  - child-care
  address:
    street: 403 N Van Buren St
    city: Wilmington
    state: de
    zip: '19805'
  place: '1077580'
  geo:
    lat: 39.74535
    lng: -75.56217
  phone: 302-735-4096
  sources:
  - acf/head-start-locations
  verified:
    'on': '2026-07-19'
    method: api
- id: de/wilmington/leslie-johnson-center
  name: Leslie Johnson Center
  categories:
  - child-care
  address:
    street: 2401 Northeast Blvd
    city: Wilmington
    state: de
    zip: '19802'
  place: '1077580'
  geo:
    lat: 39.74851
    lng: -75.52905
  phone: 302-762-8038
  sources:
  - acf/head-start-locations
  verified:
    'on': '2026-07-19'
    method: api
- id: de/wilmington/limen-house-sober-living-for-men-2
  name: Limen House Sober Living for Men 2
  categories:
  - su-treatment
  address:
    street: 624 North Broom Street
    city: Wilmington
    state: de
    zip: '19808'
  place: '1077580'
  geo:
    lat: 39.74837
    lng: -75.56405
  phone: 302-655-1153
  website: https://www.limende.org
  sources:
  - samhsa/findtreatment
  verified:
    'on': '2026-07-19'
    method: api
- id: de/wilmington/limen-recovery-wellness-3-1-residential
  name: Limen Recovery/Wellness 3 1 Residential
  categories:
  - su-treatment
  - mh-treatment
  address:
    street: 819 North Washington Street
    city: Wilmington
    state: de
    zip: '19801'
  place: '1077580'
  geo:
    lat: 39.74599
    lng: -75.55297
  phone: 302-655-1153
  website: https://www.limende.org
  sources:
  - samhsa/findtreatment
  verified:
    'on': '2026-07-19'
    method: api
- id: de/wilmington/lotus-recovery-centers-of-prices-corner-llc
  name: Lotus Recovery Centers of Prices Corner LLC
  categories:
  - su-treatment
  - mh-treatment
  address:
    street: 1812 Newport Gap Pike
    city: Wilmington
    state: de
    zip: '19808'
  place: '1077580'
  geo:
    lat: 39.7341
    lng: -75.62893
  phone: 302-500-5891
  website: https://www.lotusrecoverycenters.com
  sources:
  - samhsa/findtreatment
  verified:
    'on': '2026-07-19'
    method: api
- id: de/wilmington/neighborhood-house-early-learning-center
  name: Neighborhood House Early Learning Center
  categories:
  - child-care
  address:
    street: 1218 B St
    street2: Neighborhood House Inc,
    city: Wilmington
    state: de
    zip: '19801'
  place: '1077580'
  geo:
    lat: 39.72878
    lng: -75.54311
  phone: 302-654-1420
  sources:
  - acf/head-start-locations
  verified:
    'on': '2026-07-19'
    method: api
- id: de/wilmington/nemours-childrens-hospital-division-of-behaviora
  name: Nemours Childrens Hospital Division of Behavioral Health
  categories:
  - mh-treatment
  address:
    street: 1801 Rockland Road
    city: Wilmington
    state: de
    zip: '19803'
  place: '1077580'
  geo:
    lat: 39.78155
    lng: -75.55259
  phone: 302-651-4500
  website: https://www.nemours.org/welcome.html
  sources:
  - samhsa/findtreatment
  verified:
    'on': '2026-07-19'
    method: api
- id: de/wilmington/northeast-treatment-center-kirkwood-recovery-cen
  name: Northeast Treatment Center Kirkwood Recovery Center
  categories:
  - su-treatment
  address:
    street: 3315 Kirkwood Highway
    city: Wilmington
    state: de
    zip: '19808'
  place: '1077580'
  geo:
    lat: 39.73706
    lng: -75.62886
  phone: 302-691-0140 x3865
  website: https://www.net-centers.org
  sources:
  - samhsa/findtreatment
  verified:
    'on': '2026-07-19'
    method: api
- id: de/wilmington/pace-inc-dba-sanare-today
  name: Pace Inc DBA Sanare Today
  categories:
  - su-treatment
  - mh-treatment
  address:
    street: 5171 West Woodmill Drive
    city: Wilmington
    state: de
    zip: '19808'
  place: '1077580'
  geo:
    lat: 39.71862
    lng: -75.67029
  phone: 302-999-9812
  website: https://sanaretoday.com
  sources:
  - samhsa/findtreatment
  verified:
    'on': '2026-07-19'
    method: api
- id: de/wilmington/st-michaels-school-and-nursery
  name: St. Michaels School and Nursery
  categories:
  - child-care
  address:
    street: 700 N Walnut St
    city: Wilmington
    state: de
    zip: '19801'
  place: '1077580'
  geo:
    lat: 39.74158
    lng: -75.54655
  phone: 302-656-3389
  sources:
  - acf/head-start-locations
  verified:
    'on': '2026-07-19'
    method: api
- id: de/wilmington/the-compassion-cabinet
  name: The Compassion Cabinet
  categories:
  - food-pantry
  place: '1077580'
  geo:
    lat: 39.74518
    lng: -75.56181
  external_ids:
    lfp: '4340'
  sources:
  - littlefreepantry/map
  verified:
    'on': '2026-07-19'
    method: scrape
- id: de/wilmington/van-buren-street-center
  name: Van Buren Street Center
  categories:
  - child-care
  address:
    street: 1021 W 3rd St
    street2: Fl 2
    city: Wilmington
    state: de
    zip: '19805'
  place: '1077580'
  geo:
    lat: 39.74393
    lng: -75.56131
  phone: 302-691-3584
  sources:
  - acf/head-start-locations
  verified:
    'on': '2026-07-19'
    method: api
- id: de/wilmington/west-3rd-street
  name: West 3rd Street
  categories:
  - child-care
  address:
    street: 1021 W 3rd St
    city: Wilmington
    state: de
    zip: '19805'
  place: '1077580'
  geo:
    lat: 39.74378
    lng: -75.56141
  phone: 302-691-3584
  sources:
  - acf/head-start-locations
  verified:
    'on': '2026-07-19'
    method: api
- id: de/wilmington/westside-family-healthcare
  name: Westside Family Healthcare
  categories:
  - su-treatment
  - mh-treatment
  address:
    street: 1802 West 4th Street
    city: Wilmington
    state: de
    zip: '19805'
  place: '1077580'
  geo:
    lat: 39.74814
    lng: -75.57102
  phone: 302-655-5822
  website: https://www.westsidehealth.org
  sources:
  - samhsa/findtreatment
  verified:
    'on': '2026-07-19'
    method: api
- id: de/wilmington/westside-family-healthcare-2
  name: Westside Family Healthcare
  categories:
  - su-treatment
  - mh-treatment
  address:
    street: 908 B East 16th Street
    city: Wilmington
    state: de
    zip: '19802'
  place: '1077580'
  geo:
    lat: 39.74556
    lng: -75.53361
  phone: 302-575-1414
  website: https://www.westsidehealth.org
  sources:
  - samhsa/findtreatment
  verified:
    'on': '2026-07-19'
    method: api
- id: de/wilmington/westside-family-healthcare-administration-office
  name: Westside Family Healthcare - Administration Office
  categories:
  - community-health-center
  address:
    street: 300 Water St, Suite 200
    city: Wilmington
    state: de
    zip: '19801'
  place: '1077580'
  geo:
    lat: 39.73848
    lng: -75.55595
  phone: 302-656-8292
  website: https://www.westsidehealth.org
  external_ids:
    bphc: BPS-H80-008512
  sources:
  - hrsa/health-center-sites
  verified:
    'on': '2026-07-19'
    method: api
- id: de/wilmington/westside-family-healthcare-eastside-charter-scho
  name: Westside Family Healthcare - EastSide Charter School Based Health Center
  categories:
  - community-health-center
  address:
    street: 3000 N Claymont St
    city: Wilmington
    state: de
    zip: '19802'
  place: '1077580'
  geo:
    lat: 39.75166
    lng: -75.5228
  phone: 302-656-8292
  external_ids:
    bphc: BPS-H80-041360
  sources:
  - hrsa/health-center-sites
  verified:
    'on': '2026-07-19'
    method: api
- id: de/wilmington/westside-family-healthcare-northeast
  name: Westside Family Healthcare - Northeast
  categories:
  - community-health-center
  address:
    street: 908 E 16th St, Suite B
    city: Wilmington
    state: de
    zip: '19802'
  place: '1077580'
  geo:
    lat: 39.74548
    lng: -75.53469
  phone: 302-575-1414
  website: https://WWW.WESTSIDEHEALTH.ORG
  external_ids:
    bphc: BPS-H80-004557
  sources:
  - hrsa/health-center-sites
  verified:
    'on': '2026-07-19'
    method: api
- id: de/wilmington/westside-family-healthcare-wilmington
  name: Westside Family Healthcare - Wilmington
  categories:
  - community-health-center
  address:
    street: 1802 W 4th St
    city: Wilmington
    state: de
    zip: '19805'
  place: '1077580'
  geo:
    lat: 39.74823
    lng: -75.57104
  phone: 302-655-5822
  website: https://WWW.WESTSIDEHEALTH.ORG
  external_ids:
    bphc: BPS-H80-005405
  sources:
  - hrsa/health-center-sites
  verified:
    'on': '2026-07-19'
    method: api
