- id: pa/bethlehem/amber-m-turney
  name: Amber M Turney
  categories:
  - food-pantry
  place: '4206088'
  geo:
    lat: 40.61081
    lng: -75.37205
  external_ids:
    lfp: '5940'
  sources:
  - littlefreepantry/map
  verified:
    'on': '2026-07-19'
    method: scrape
- id: pa/bethlehem/bethlehem-area-sd-lincoln-elementary-school
  name: Bethlehem Area SD - Lincoln Elementary School
  categories:
  - child-care
  address:
    street: 1260 Gresham St
    city: Bethlehem
    state: pa
    zip: '18017'
  place: '4206088'
  geo:
    lat: 40.63801
    lng: -75.35078
  phone: 610-437-6000
  sources:
  - acf/head-start-locations
  verified:
    'on': '2026-07-19'
    method: api
- id: pa/bethlehem/bethlehem-housing-authority
  name: Bethlehem Housing Authority
  categories:
  - housing-assistance
  address:
    street: 645 Main St
    city: Bethlehem
    state: pa
    zip: '18018'
  description: Public housing and Housing Choice Voucher agency
  place: '4206088'
  geo:
    lat: 40.6232
    lng: -75.38214
  phone: 610-865-8357
  sources:
  - hud/resource-locator
  verified:
    'on': '2026-07-19'
    method: api
- id: pa/bethlehem/cleanslate-centers
  name: CleanSlate Centers
  categories:
  - su-treatment
  address:
    street: 940 New Street
    city: Bethlehem
    state: pa
    zip: '18018'
  place: '4206088'
  geo:
    lat: 40.62745
    lng: -75.37778
  phone: 484-893-1482
  website: https://www.cleanslatecenters.com
  sources:
  - samhsa/findtreatment
  verified:
    'on': '2026-07-19'
    method: api
- id: pa/bethlehem/colonial-early-learning-center
  name: Colonial Early Learning Center
  categories:
  - child-care
  address:
    street: 3144 Linden St
    city: Bethlehem
    state: pa
    zip: '18017'
  place: '4206088'
  geo:
    lat: 40.65934
    lng: -75.35242
  phone: 610-437-6000
  sources:
  - acf/head-start-locations
  verified:
    'on': '2026-07-19'
    method: api
- id: pa/bethlehem/community-service-foundation-inc-buxmont-academy
  name: Community Service Foundation Inc Buxmont Academy/Bethlehem
  categories:
  - su-treatment
  address:
    street: 544 Main Street
    city: Bethlehem
    state: pa
    zip: '18018'
  place: '4206088'
  geo:
    lat: 40.62155
    lng: -75.38163
  phone: 610-807-0210
  website: https://www.csfbuxmont.org
  sources:
  - samhsa/findtreatment
  verified:
    'on': '2026-07-19'
    method: api
- id: pa/bethlehem/community-services-group-lehigh-valley-partial-h
  name: Community Services Group Lehigh Valley Partial Hospitilization
  categories:
  - mh-treatment
  address:
    street: 54 South Commerce Way
    city: Bethlehem
    state: pa
    zip: '18017'
  place: '4206088'
  geo:
    lat: 40.67362
    lng: -75.37835
  phone: 610-866-7600 x40022
  website: https://www.csgonline.org
  sources:
  - samhsa/findtreatment
  verified:
    'on': '2026-07-19'
    method: api
- id: pa/bethlehem/concern-bethlehem-office
  name: CONCERN Bethlehem Office
  categories:
  - su-treatment
  - mh-treatment
  address:
    street: 90 South Commerce Way
    city: Bethlehem
    state: pa
    zip: '18017'
  place: '4206088'
  geo:
    lat: 40.67386
    lng: -75.38121
  phone: 610-691-8401
  website: https://www.concern4kids.org
  sources:
  - samhsa/findtreatment
  verified:
    'on': '2026-07-19'
    method: api
- id: pa/bethlehem/holcomb-behavioral-health-systems-net-centers
  name: Holcomb Behavioral Health Systems NeT Centers
  categories:
  - su-treatment
  address:
    street: 44 East Broad Street
    city: Bethlehem
    state: pa
    zip: '18018'
  place: '4206088'
  geo:
    lat: 40.62202
    lng: -75.37724
  phone: 610-477-0385
  website: https://www.chimes.org
  sources:
  - samhsa/findtreatment
  verified:
    'on': '2026-07-19'
    method: api
- id: pa/bethlehem/holy-infancy
  name: Holy Infancy
  categories:
  - child-care
  address:
    street: 551 Thomas St
    city: Bethlehem
    state: pa
    zip: '18015'
  place: '4206088'
  geo:
    lat: 40.60851
    lng: -75.36981
  phone: 610-437-6000
  sources:
  - acf/head-start-locations
  verified:
    'on': '2026-07-19'
    method: api
- id: pa/bethlehem/kidspeace-broadway-campus
  name: KidsPeace Broadway Campus
  categories:
  - mh-treatment
  address:
    street: 1620 Broadway
    city: Bethlehem
    state: pa
    zip: '18015'
  place: '4206088'
  geo:
    lat: 40.59733
    lng: -75.40599
  phone: 610-799-8600
  website: https://www.kidspeace.org
  sources:
  - samhsa/findtreatment
  verified:
    'on': '2026-07-19'
    method: api
- id: pa/bethlehem/lehigh-valley-health-network-alternatives-adult
  name: Lehigh Valley Health Network Alternatives Adult Partial Program
  categories:
  - mh-treatment
  address:
    street: 2545 Schoenersville Road
    city: Bethlehem
    state: pa
    zip: '18017'
  place: '4206088'
  geo:
    lat: 40.64566
    lng: -75.40953
  phone: 484-884-5690
  website: https://www.lvhn.org
  sources:
  - samhsa/findtreatment
  verified:
    'on': '2026-07-19'
    method: api
- id: pa/bethlehem/livengrin-counseling-center-lehigh-valley
  name: Livengrin Counseling Center Lehigh Valley
  categories:
  - su-treatment
  address:
    street: 31 South Commerce Way
    city: Bethlehem
    state: pa
    zip: '18017'
  place: '4206088'
  geo:
    lat: 40.67277
    lng: -75.37577
  phone: 215-638-5200
  website: https://www.livengrin.org
  sources:
  - samhsa/findtreatment
  verified:
    'on': '2026-07-19'
    method: api
- id: pa/bethlehem/mcnamara-park
  name: Mcnamara Park
  categories:
  - meal-program
  address:
    street: East 3Rd Street
    city: Bethlehem
    state: pa
    zip: '18015'
  description: Free summer meals for kids and teens (2026 season) — sponsored by Life4us Inc.
  place: '4206088'
  geo:
    lat: 40.61248
    lng: -75.36156
  external_ids:
    usda_master: Cycle 01_PA_SFSP_0141
  sources:
  - usda/summer-meal-sites
  verified:
    'on': '2026-07-19'
    method: api
- id: pa/bethlehem/mid-atlantic-rehabilitation-services-mars-atp
  name: Mid Atlantic Rehabilitation Services MARS ATP
  categories:
  - su-treatment
  address:
    street: 826 Delaware Avenue
    city: Bethlehem
    state: pa
    zip: '18015'
  place: '4206088'
  geo:
    lat: 40.60697
    lng: -75.39216
  phone: 610-419-3101
  website: https://www.marsatp.com
  sources:
  - samhsa/findtreatment
  verified:
    'on': '2026-07-19'
    method: api
- id: pa/bethlehem/neighborhood-health-centers-of-the-lehigh-valley
  name: Neighborhood Health Centers of the Lehigh Valley- Bethlehem
  categories:
  - community-health-center
  address:
    street: 1210 E 4th St
    city: Bethlehem
    state: pa
    zip: '18015'
  place: '4206088'
  geo:
    lat: 40.61084
    lng: -75.35998
  phone: 484-408-0755
  external_ids:
    bphc: BPS-H80-016941
  sources:
  - hrsa/health-center-sites
  verified:
    'on': '2026-07-19'
    method: api
- id: pa/bethlehem/neighborhood-health-centers-of-the-lehigh-valley-2
  name: Neighborhood Health Centers of the Lehigh Valley- Broad St Dental & Pharmacy
  categories:
  - community-health-center
  address:
    street: 637 E Broad St
    city: Bethlehem
    state: pa
    zip: '18018'
  place: '4206088'
  geo:
    lat: 40.62209
    lng: -75.36336
  phone: 610-841-8400
  website: https://www.nhclv.org
  external_ids:
    bphc: BPS-H80-035492
  sources:
  - hrsa/health-center-sites
  verified:
    'on': '2026-07-19'
    method: api
- id: pa/bethlehem/neighborhood-health-centers-of-the-lehigh-valley-3
  name: Neighborhood Health Centers of the Lehigh Valley- Broad Street
  categories:
  - community-health-center
  address:
    street: 635 E Broad St
    city: Bethlehem
    state: pa
    zip: '18018'
  place: '4206088'
  geo:
    lat: 40.62226
    lng: -75.36284
  phone: 610-841-8400
  website: https://www.nhclv.org
  external_ids:
    bphc: BPS-H80-028337
  sources:
  - hrsa/health-center-sites
  verified:
    'on': '2026-07-19'
    method: api
- id: pa/bethlehem/new-directions-treatment-services
  name: New Directions Treatment Services
  categories:
  - su-treatment
  address:
    street: 2442 Brodhead Road
    city: Bethlehem
    state: pa
    zip: '18020'
  place: '4206088'
  geo:
    lat: 40.6779
    lng: -75.36627
  phone: 610-758-8011 x106
  website: https://www.ndts.org
  sources:
  - samhsa/findtreatment
  verified:
    'on': '2026-07-19'
    method: api
- id: pa/bethlehem/pembroke-park
  name: Pembroke Park
  categories:
  - meal-program
  address:
    street: 1167 Fritz Drive
    city: Bethlehem
    state: pa
    zip: '18017'
  description: Free summer meals for kids and teens (2026 season) — sponsored by Life4us Inc.
  place: '4206088'
  geo:
    lat: 40.62993
    lng: -75.3516
  external_ids:
    usda_master: Cycle 01_PA_SFSP_0176
  sources:
  - usda/summer-meal-sites
  verified:
    'on': '2026-07-19'
    method: api
- id: pa/bethlehem/salisbury-behavioral-health
  name: Salisbury Behavioral Health
  categories:
  - su-treatment
  - mh-treatment
  address:
    street: 236 Brodhead Road
    city: Bethlehem
    state: pa
    zip: '18017'
  place: '4206088'
  geo:
    lat: 40.67525
    lng: -75.38218
  phone: 610-973-0970
  website: https://rhahealthservices.org
  sources:
  - samhsa/findtreatment
  verified:
    'on': '2026-07-19'
    method: api
- id: pa/bethlehem/sand-island-park
  name: Sand Island Park
  categories:
  - meal-program
  address:
    street: 56 River Street
    city: Bethlehem
    state: pa
    zip: '18015'
  description: Free summer meals for kids and teens (2026 season) — sponsored by Life4us Inc.
  place: '4206088'
  geo:
    lat: 40.61601
    lng: -75.38163
  external_ids:
    usda_master: Cycle 01_PA_SFSP_0277
  sources:
  - usda/summer-meal-sites
  verified:
    'on': '2026-07-19'
    method: api
- id: pa/bethlehem/star-community-health-administration
  name: Star Community Health Administration
  categories:
  - community-health-center
  address:
    street: 520 E Broad St, Ste 108
    city: Bethlehem
    state: pa
    zip: '18018'
  place: '4206088'
  geo:
    lat: 40.62206
    lng: -75.36613
  phone: 484-822-7827
  website: https://starcommunityhealth.org
  external_ids:
    bphc: BPS-LAL-030305
  sources:
  - hrsa/health-center-sites
  verified:
    'on': '2026-07-19'
    method: api
- id: pa/bethlehem/star-community-health-administration-2
  name: Star Community Health Administration
  categories:
  - community-health-center
  address:
    street: '520 E Broad St, #100'
    city: Bethlehem
    state: pa
    zip: '18018'
  place: '4206088'
  geo:
    lat: 40.62206
    lng: -75.36613
  phone: 484-822-7827
  website: https://starcommunityhealth.org
  external_ids:
    bphc: BPS-LAL-032722
  sources:
  - hrsa/health-center-sites
  verified:
    'on': '2026-07-19'
    method: api
- id: pa/bethlehem/star-community-health-administration-enabling-so
  name: Star Community Health Administration & Enabling Southside- Bethlehem
  categories:
  - community-health-center
  address:
    street: 511 E 3rd St, Suite 202
    city: Bethlehem
    state: pa
    zip: '18015'
  place: '4206088'
  geo:
    lat: 40.61244
    lng: -75.37153
  phone: 484-503-7827
  external_ids:
    bphc: BPS-LAL-039963
  sources:
  - hrsa/health-center-sites
  verified:
    'on': '2026-07-19'
    method: api
- id: pa/bethlehem/star-community-health-dental-bethlehem
  name: Star Community Health Dental - Bethlehem
  categories:
  - community-health-center
  address:
    street: 511 E 3rd St, Ste 260
    city: Bethlehem
    state: pa
    zip: '18015'
  place: '4206088'
  geo:
    lat: 40.61218
    lng: -75.37169
  phone: 484-526-2460
  website: https://starcommunityhealth.org
  external_ids:
    bphc: BPS-LAL-032873
  sources:
  - hrsa/health-center-sites
  verified:
    'on': '2026-07-19'
    method: api
- id: pa/bethlehem/star-community-health-dental-van-bethlehem
  name: Star Community Health Dental Van-Bethlehem
  categories:
  - community-health-center
  address:
    street: 511 E 3rd St, Ste 260
    city: Bethlehem
    state: pa
    zip: '18015'
  place: '4206088'
  geo:
    lat: 40.61218
    lng: -75.37169
  phone: 484-658-6539
  website: https://starcommunityhealth.org
  external_ids:
    bphc: BPS-LAL-034400
  sources:
  - hrsa/health-center-sites
  verified:
    'on': '2026-07-19'
    method: api
- id: pa/bethlehem/star-community-health-family-medicine-bethlehem
  name: Star Community Health Family Medicine - Bethlehem
  categories:
  - community-health-center
  address:
    street: 2830 Easton Ave
    city: Bethlehem
    state: pa
    zip: '18017'
  place: '4206088'
  geo:
    lat: 40.64636
    lng: -75.34212
  phone: 484-526-3555
  website: https://starcommunityhealth.org
  external_ids:
    bphc: BPS-LAL-030252
  sources:
  - hrsa/health-center-sites
  verified:
    'on': '2026-07-19'
    method: api
- id: pa/bethlehem/star-community-health-kidscare-bethlehem
  name: Star Community Health KidsCare - Bethlehem
  categories:
  - community-health-center
  address:
    street: 511 E 3rd St, Ste 201
    city: Bethlehem
    state: pa
    zip: '18015'
  place: '4206088'
  geo:
    lat: 40.61218
    lng: -75.37169
  phone: 484-526-8100
  website: https://starcommunityhealth.org
  external_ids:
    bphc: BPS-LAL-030250
  sources:
  - hrsa/health-center-sites
  verified:
    'on': '2026-07-19'
    method: api
- id: pa/bethlehem/star-community-health-ob-gyn-bethlehem
  name: Star Community Health OB/GYN - Bethlehem
  categories:
  - community-health-center
  address:
    street: 800 Eaton Ave, Suite 202
    city: Bethlehem
    state: pa
    zip: '18018'
  place: '4206088'
  geo:
    lat: 40.63408
    lng: -75.39313
  phone: 484-526-4761
  website: https://starcommunityhealth.org
  external_ids:
    bphc: BPS-LAL-032618
  sources:
  - hrsa/health-center-sites
  verified:
    'on': '2026-07-19'
    method: api
- id: pa/bethlehem/star-community-health-southside-bethlehem
  name: Star Community Health Southside - Bethlehem
  categories:
  - community-health-center
  address:
    street: '511 E 3rd St, #200'
    city: Bethlehem
    state: pa
    zip: '18015'
  place: '4206088'
  geo:
    lat: 40.61218
    lng: -75.37169
  phone: 484-526-4700
  website: https://Starcommunityhealth.org
  external_ids:
    bphc: BPS-LAL-030246
  sources:
  - hrsa/health-center-sites
  verified:
    'on': '2026-07-19'
    method: api
- id: pa/bethlehem/str-behavioral-health-lehigh-valley
  name: STR Behavioral Health Lehigh Valley
  categories:
  - su-treatment
  - mh-treatment
  address:
    street: 1655 Valley Center Parkway
    city: Bethlehem
    state: pa
    zip: '18017'
  place: '4206088'
  geo:
    lat: 40.65355
    lng: -75.41357
  phone: 484-224-2868
  website: https://www.stepstorecovery.com/locations/steps-to-recover
  sources:
  - samhsa/findtreatment
  verified:
    'on': '2026-07-19'
    method: api
- id: pa/bethlehem/white-deer-run-of-lehigh
  name: White Deer Run of Lehigh
  categories:
  - su-treatment
  - mh-treatment
  address:
    street: 1620 Riverside Drive
    city: Bethlehem
    state: pa
    zip: '18015'
  place: '4206088'
  geo:
    lat: 40.61282
    lng: -75.41334
  phone: 610-814-7750 x226
  website: https://www.whitedeerrun.com/locations/lehigh/
  sources:
  - samhsa/findtreatment
  verified:
    'on': '2026-07-19'
    method: api
