- id: pa/bloomsburg/bloomsburg-children-s-center
  name: Bloomsburg Children's Center
  categories:
  - child-care
  address:
    street: 215 E 5th St
    city: Bloomsburg
    state: pa
    zip: '17815'
  place: '4207128'
  geo:
    lat: 41.00157
    lng: -76.45083
  phone: 570-784-8618
  sources:
  - acf/head-start-locations
  verified:
    'on': '2026-07-19'
    method: api
- id: pa/bloomsburg/columbia-county-housing-authority
  name: Columbia County Housing Authority
  categories:
  - housing-assistance
  address:
    street: 160 W 6th St Ste 101
    city: Bloomsburg
    state: pa
    zip: '17815'
  description: Public housing and Housing Choice Voucher agency
  place: '4207128'
  geo:
    lat: 40.99746
    lng: -76.45531
  phone: 570-394-4633
  sources:
  - hud/resource-locator
  verified:
    'on': '2026-07-19'
    method: api
- id: pa/bloomsburg/crossroads-counseling-bloomsburg-office
  name: Crossroads Counseling Bloomsburg Office
  categories:
  - su-treatment
  - mh-treatment
  address:
    street: 140 Market Street
    city: Bloomsburg
    state: pa
    zip: '17815'
  place: '4207128'
  geo:
    lat: 41.00312
    lng: -76.45873
  phone: 570-389-1249
  website: https://www.crossroadscounselinginc.com
  sources:
  - samhsa/findtreatment
  verified:
    'on': '2026-07-19'
    method: api
- id: pa/bloomsburg/genesis-house-inc
  name: Genesis House Inc
  categories:
  - su-treatment
  address:
    street: 823 Central Road
    city: Bloomsburg
    state: pa
    zip: '17815'
  place: '4207128'
  geo:
    lat: 41.02333
    lng: -76.42177
  phone: 570-322-0520
  website: https://genesishouseoutpatient.com
  sources:
  - samhsa/findtreatment
  verified:
    'on': '2026-07-19'
    method: api
- id: pa/bloomsburg/memorial-el-sch
  name: Memorial El Sch
  categories:
  - meal-program
  address: {street: 500 Market Street, city: Bloomsburg, state: pa, zip: '17815'}
  description: Free summer meals for kids and teens (2026 season) — sponsored by BLOOMSBURG AREA SCHOOL
    DISTRICT.
  place: '4207128'
  geo: {lat: 40.99876, lng: -76.45506}
  phone: (570) 784-5000
  external_ids: {usda_master: Cycle 01_PA_SSO_0142}
  sources:
  - usda/summer-meal-sites
  verified: {'on': '2026-07-19', method: api}
- id: pa/bloomsburg/norris-e-rock-memorial-swimming-pool
  name: Norris E Rock Memorial Swimming Pool
  categories:
  - meal-program
  address: {street: 1360 Catherine Street, city: Bloomsburg, state: pa, zip: '17815'}
  description: Free summer meals for kids and teens (2026 season) — sponsored by BLOOMSBURG AREA SCHOOL
    DISTRICT.
  place: '4207128'
  geo: {lat: 40.99317, lng: -76.44455}
  phone: (570) 784-5000
  external_ids: {usda_master: Cycle 01_PA_SSO_0164}
  sources:
  - usda/summer-meal-sites
  verified: {'on': '2026-07-19', method: api}
- id: pa/bloomsburg/town-park-village
  name: Town Park Village
  categories:
  - child-care
  address:
    street: 1310 Ferry Rd
    city: Bloomsburg
    state: pa
    zip: '17815'
  place: '4207128'
  geo:
    lat: 40.99529
    lng: -76.44202
  phone: 570-784-0390
  sources:
  - acf/head-start-locations
  verified:
    'on': '2026-07-19'
    method: api
