- id: pa/bristol/bristol-borough
  name: Bristol Borough
  categories:
  - child-care
  address:
    street: 1776 Farragut Ave
    city: Bristol
    state: pa
    zip: '19007'
  place: '4208760'
  geo:
    lat: 40.10666
    lng: -74.84244
  phone: 215-348-2940
  sources:
  - acf/head-start-locations
  verified:
    'on': '2026-07-19'
    method: api
- id: pa/bristol/bristol-township-summer-camp-bath-road
  name: Bristol Township Summer Camp - Bath Road
  categories:
  - meal-program
  address: {street: 2104 Bath Road, city: Bristol, state: pa, zip: '19007'}
  description: Free summer meals for kids and teens (2026 season) — sponsored by Archdiocese of Philadelphia.
  place: '4208760'
  geo: {lat: 40.12053, lng: -74.86582}
  phone: (215) 895-3470
  external_ids: {usda_master: Cycle 03_PA_SSO_0040}
  sources:
  - usda/summer-meal-sites
  verified: {'on': '2026-07-19', method: api}
- id: pa/bristol/family-unity-center
  name: Family Unity Center
  categories:
  - meal-program
  address: {street: 1230 Plymouth Avenue, city: Bristol, state: pa, zip: '19007'}
  description: Free summer meals for kids and teens (2026 season) — sponsored by Archdiocese of Philadelphia.
  place: '4208760'
  geo: {lat: 40.11837, lng: -74.85047}
  phone: (215) 895-3470
  external_ids: {usda_master: Cycle 04_PA_SSO_0180}
  sources:
  - usda/summer-meal-sites
  verified: {'on': '2026-07-19', method: api}
- id: pa/bristol/gaudenzia-inc-lower-bucks
  name: Gaudenzia Inc Lower Bucks
  categories:
  - su-treatment
  address:
    street: 410 Bath Road
    city: Bristol
    state: pa
    zip: '19007'
  place: '4208760'
  geo:
    lat: 40.10403
    lng: -74.86823
  phone: 267-478-5660 x2769
  website: https://gaudenzia.org
  sources:
  - samhsa/findtreatment
  verified:
    'on': '2026-07-19'
    method: api
- id: pa/bristol/lower-county-early-learning-center
  name: Lower County Early Learning Center
  categories:
  - child-care
  address:
    street: 501 Bath Rd
    city: Bristol
    state: pa
    zip: '19007'
  place: '4208760'
  geo:
    lat: 40.10562
    lng: -74.8659
  phone: 215-348-2940
  sources:
  - acf/head-start-locations
  verified:
    'on': '2026-07-19'
    method: api
- id: pa/bristol/new-creations-of-life-bucks-county-housing-autho
  name: New Creations Of Life @ Bucks County Housing Authority
  categories:
  - meal-program
  address: {street: 5401 Beaver Dam Road, city: Bristol, state: pa, zip: '19007'}
  description: Free summer meals for kids and teens (2026 season) — sponsored by Archdiocese of Philadelphia.
  place: '4208760'
  geo: {lat: 40.11671, lng: -74.85385}
  phone: (215) 895-3470
  external_ids: {usda_master: Cycle 09_PA_SSO_0062}
  sources:
  - usda/summer-meal-sites
  verified: {'on': '2026-07-19', method: api}
- id: pa/bristol/pan-american-behavioral-health-clinic
  name: Pan American Behavioral Health Clinic
  categories:
  - mh-treatment
  address:
    street: 1 North Wilson Avenue
    city: Bristol
    state: pa
    zip: '19007'
  place: '4208760'
  geo:
    lat: 40.1142
    lng: -74.8397
  phone: 215-788-6080
  website: https://www.panamericanh.com
  sources:
  - samhsa/findtreatment
  verified:
    'on': '2026-07-19'
    method: api
- id: pa/bristol/synder-girotti-school
  name: Synder-Girotti School
  categories:
  - meal-program
  address: {street: 450 Beaver St, city: Bristol, state: pa, zip: '19007'}
  description: Free summer meals for kids and teens (2026 season) — sponsored by Archdiocese of Philadelphia.
  place: '4208760'
  geo: {lat: 40.09884, lng: -74.85611}
  phone: (215) 895-3470
  external_ids: {usda_master: Cycle 05_PA_SSO_0341}
  sources:
  - usda/summer-meal-sites
  verified: {'on': '2026-07-19', method: api}
