- id: pa/greenville/alpine-springs-rehab-recov-llc
  name: Alpine Springs Rehab/Recov LLC
  categories:
  - su-treatment
  address:
    street: 109 Woodfield Drive
    city: Greenville
    state: pa
    zip: '16125'
  place: '4231328'
  geo:
    lat: 41.41306
    lng: -80.36393
  phone: 814-818-0002
  website: https://alpinespringsrehab.com
  sources:
  - samhsa/findtreatment
  verified:
    'on': '2026-07-19'
    method: api
- id: pa/greenville/baughman-center
  name: Baughman Center
  categories:
  - child-care
  address:
    street: 71 Columbia Ave
    city: Greenville
    state: pa
    zip: '16125'
  place: '4231328'
  geo:
    lat: 41.40472
    lng: -80.37816
  phone: 724-346-4482
  sources:
  - acf/head-start-locations
  verified:
    'on': '2026-07-19'
    method: api
- id: pa/greenville/community-counseling-ctr-of-mercer
  name: Community Counseling Ctr of Mercer
  categories:
  - su-treatment
  - mh-treatment
  address:
    street: 77 North Main Street
    city: Greenville
    state: pa
    zip: '16125'
  place: '4231328'
  geo:
    lat: 41.41051
    lng: -80.37385
  phone: 724-588-6490
  website: https://www.cccmer.org
  sources:
  - samhsa/findtreatment
  verified:
    'on': '2026-07-19'
    method: api
- id: pa/greenville/greenville-community-health-center
  name: Greenville Community Health Center
  categories:
  - community-health-center
  address:
    street: 348 Main St
    city: Greenville
    state: pa
    zip: '16125'
  place: '4231328'
  geo:
    lat: 41.40888
    lng: -80.37851
  phone: 724-588-5250
  website: https://www.primary-health.net
  external_ids:
    bphc: BPS-H80-009029
  sources:
  - hrsa/health-center-sites
  verified:
    'on': '2026-07-19'
    method: api
- id: pa/greenville/greenville-elementary-school
  name: Greenville Elementary School
  categories:
  - meal-program
  address:
    street: 60 Fredonia
    city: Greenville
    state: pa
    zip: '16125'
  description: Free summer meals for kids and teens (2026 season) — sponsored by West Middlesex Area School
    District.
  place: '4231328'
  geo:
    lat: 41.39306
    lng: -80.36479
  external_ids:
    usda_master: Cycle 01_PA_SFSP_0100
  sources:
  - usda/summer-meal-sites
  verified:
    'on': '2026-07-19'
    method: api
- id: pa/greenville/reynolds
  name: Reynolds
  categories:
  - child-care
  address:
    street: 1609 Brentwood Dr
    city: Greenville
    state: pa
    zip: '16125'
  place: '4231328'
  geo:
    lat: 41.33745
    lng: -80.39575
  phone: 724-346-4482
  sources:
  - acf/head-start-locations
  verified:
    'on': '2026-07-19'
    method: api
- id: pa/greenville/rnc-reynolds-elementary-school
  name: Rnc - Reynolds Elementary School
  categories:
  - meal-program
  address:
    street: 1609 Brentwood Dr
    city: Greenville
    state: pa
    zip: '16125'
  description: Free summer meals for kids and teens (2026 season) — sponsored by Reynolds School District.
  place: '4231328'
  geo:
    lat: 41.33726
    lng: -80.39539
  external_ids:
    usda_master: Cycle 04_PA_SFSP_0478
  sources:
  - usda/summer-meal-sites
  verified:
    'on': '2026-07-19'
    method: api
