- id: pa/hawley/hpl-little-free-pantry
  name: HPL Little Free Pantry
  categories:
  - food-pantry
  place: '4233200'
  geo:
    lat: 41.47789
    lng: -75.18372
  external_ids:
    lfp: '4365'
  sources:
  - littlefreepantry/map
  verified:
    'on': '2026-07-19'
    method: scrape
- id: pa/hawley/pike-county-dental-center
  name: Pike County Dental Center
  categories:
  - community-health-center
  address:
    street: 750 Route 739
    city: Hawley
    state: pa
    zip: '18428'
  place: '4233200'
  geo:
    lat: 41.34339
    lng: -75.0347
  phone: 570-775-7100
  website: https://wmh.org
  external_ids:
    bphc: BPS-H80-011348
  sources:
  - hrsa/health-center-sites
  verified:
    'on': '2026-07-19'
    method: api
- id: pa/hawley/pike-family-health-center
  name: PIKE FAMILY HEALTH CENTER
  categories:
  - community-health-center
  address:
    street: 750 Route 739
    city: Hawley
    state: pa
    zip: '18428'
  place: '4233200'
  geo:
    lat: 41.34339
    lng: -75.0347
  phone: 570-775-7100
  website: https://WMH.org/WMCHC
  external_ids:
    bphc: BPS-H80-002359
  sources:
  - hrsa/health-center-sites
  verified:
    'on': '2026-07-19'
    method: api
- id: pa/hawley/rnc-wallenpaupack-area-high-school
  name: Rnc - Wallenpaupack Area High School
  categories:
  - meal-program
  address: {street: 2552 Route 6, city: Hawley, state: pa, zip: '18428'}
  description: Free summer meals for kids and teens (2026 season) — sponsored by Wallenpaupack Area School
    District.
  place: '4233200'
  geo: {lat: 41.45528, lng: -75.18111}
  phone: (570) 226-4557
  external_ids: {usda_master: Cycle 01_PA_SSO_0234}
  sources:
  - usda/summer-meal-sites
  verified: {'on': '2026-07-19', method: api}
- id: pa/hawley/the-wright-center-for-community-health-hawley-pr
  name: The Wright Center for Community Health Hawley Practice
  categories:
  - community-health-center
  address:
    street: 103 Spruce St
    city: Hawley
    state: pa
    zip: '18428'
  place: '4233200'
  geo:
    lat: 41.48208
    lng: -75.18237
  phone: 570-576-8081
  external_ids:
    bphc: BPS-LAL-031328
  sources:
  - hrsa/health-center-sites
  verified:
    'on': '2026-07-19'
    method: api
- id: pa/hawley/wallenpaupack-north-and-ehs-wayne-hawley
  name: Wallenpaupack North and EHS Wayne & Hawley
  categories:
  - child-care
  address:
    street: 500 Academy St
    street2: Bldg A
    city: Hawley
    state: pa
    zip: '18428'
  place: '4233200'
  geo:
    lat: 41.47527
    lng: -75.17602
  phone: 570-251-3171
  sources:
  - acf/head-start-locations
  verified:
    'on': '2026-07-19'
    method: api
