- id: pa/langhorne/banyan-philadelphia
  name: Banyan Philadelphia
  categories:
  - su-treatment
  - mh-treatment
  address:
    street: 100 North Buckstown Drive
    city: Langhorne
    state: pa
    zip: '19047'
  place: '4241392'
  geo:
    lat: 40.18767
    lng: -74.8766
  phone: 855-930-5632
  website: https://www.banyanphiladelphia.com
  sources:
  - samhsa/findtreatment
  verified:
    'on': '2026-07-19'
    method: api
- id: pa/langhorne/family-service-assoc-of-bucks-county
  name: Family Service Assoc of Bucks County
  categories:
  - su-treatment
  - mh-treatment
  address:
    street: 4 Cornerstone Drive
    city: Langhorne
    state: pa
    zip: '19047'
  place: '4241392'
  geo:
    lat: 40.1888
    lng: -74.88493
  phone: 215-757-6916 x104
  website: https://www.fsabc.org
  sources:
  - samhsa/findtreatment
  verified:
    'on': '2026-07-19'
    method: api
- id: pa/langhorne/forge-health-of-langhorne
  name: Forge Health of Langhorne
  categories:
  - su-treatment
  - mh-treatment
  address:
    street: 920 Town Center Drive
    city: Langhorne
    state: pa
    zip: '19047'
  place: '4241392'
  geo:
    lat: 40.18831
    lng: -74.87833
  phone: 215-780-7600
  website: https://forgehealth.com/location-offices/langhorne/
  sources:
  - samhsa/findtreatment
  verified:
    'on': '2026-07-19'
    method: api
- id: pa/langhorne/langhorne
  name: Langhorne
  categories:
  - su-treatment
  address:
    street: 2291 Cabot Boulevard West
    city: Langhorne
    state: pa
    zip: '19047'
  place: '4241392'
  geo:
    lat: 40.19151
    lng: -74.8683
  phone: 215-642-3230
  website: https://www.aldie.org
  sources:
  - samhsa/findtreatment
  verified:
    'on': '2026-07-19'
    method: api
- id: pa/langhorne/penndel-mental-health-center
  name: Penndel Mental Health Center
  categories:
  - su-treatment
  - mh-treatment
  address:
    street: 919 Durham Road
    city: Langhorne
    state: pa
    zip: '19047'
  place: '4241392'
  geo:
    lat: 40.15548
    lng: -74.89739
  phone: 215-752-1541
  website: https://www.penndelmhc.org
  sources:
  - samhsa/findtreatment
  verified:
    'on': '2026-07-19'
    method: api
- id: pa/langhorne/penndel-mental-health-center-2
  name: Penndel Mental Health Center
  categories:
  - su-treatment
  - mh-treatment
  address:
    street: 1517 Durham Road
    city: Langhorne
    state: pa
    zip: '19047'
  place: '4241392'
  geo:
    lat: 40.14762
    lng: -74.8927
  phone: 215-752-1541 x1743
  website: https://www.penndelmhc.org
  sources:
  - samhsa/findtreatment
  verified:
    'on': '2026-07-19'
    method: api
- id: pa/langhorne/silver-linings-recovery-center
  name: Silver Linings Recovery Center
  categories:
  - su-treatment
  address:
    street: 1262 Wood Lane
    city: Langhorne
    state: pa
    zip: '19047'
  place: '4241392'
  geo:
    lat: 40.19262
    lng: -74.89604
  phone: 267-358-5150
  website: https://www.silverliningsrecoverycenter.com
  sources:
  - samhsa/findtreatment
  verified:
    'on': '2026-07-19'
    method: api
