- id: pa/lewistown/clear-concepts-counseling
  name: Clear Concepts Counseling
  categories:
  - su-treatment
  address:
    street: 24 North Main Street
    city: Lewistown
    state: pa
    zip: '17044'
  place: '4243000'
  geo:
    lat: 40.59826
    lng: -77.57559
  phone: 717-242-3070
  website: https://www.clearconceptscounseling.com
  sources:
  - samhsa/findtreatment
  verified:
    'on': '2026-07-19'
    method: api
- id: pa/lewistown/lewistown-children-s-center-lcco
  name: Lewistown Children's Center (LCCO)
  categories:
  - child-care
  address:
    street: 10 Bollinger Rd
    city: Lewistown
    state: pa
    zip: '17044'
  place: '4243000'
  geo:
    lat: 40.60077
    lng: -77.55881
  phone: 717-242-3032
  sources:
  - acf/head-start-locations
  verified:
    'on': '2026-07-19'
    method: api
- id: pa/lewistown/lewistown-community-health-center
  name: Lewistown Community Health Center
  categories:
  - community-health-center
  address:
    street: 106 Derry Heights Blvd
    city: Lewistown
    state: pa
    zip: '17044'
  place: '4243000'
  geo:
    lat: 40.64227
    lng: -77.57633
  phone: 717-447-0340
  external_ids:
    bphc: BPS-H80-019150
  sources:
  - hrsa/health-center-sites
  verified:
    'on': '2026-07-19'
    method: api
- id: pa/lewistown/the-housing-auth-of-the-county-of-mifflin
  name: The Housing Auth Of The County Of Mifflin
  categories:
  - housing-assistance
  address: {street: 141 S Pine Rd, city: Lewistown, state: pa, zip: '17044'}
  description: Public housing and Housing Choice Voucher agency
  place: '4243000'
  geo: {lat: 40.60268, lng: -77.56581}
  phone: 717-248-2624
  sources:
  - hud/resource-locator
  verified: {'on': '2026-07-19', method: api}
- id: pa/lewistown/troop-124-eagle-scout-blessing-box-3
  name: Troop 124 Eagle Scout Blessing Box 3
  categories:
  - food-pantry
  place: '4243000'
  geo:
    lat: 40.59953
    lng: -77.57473
  external_ids:
    lfp: '5154'
  sources:
  - littlefreepantry/map
  verified:
    'on': '2026-07-19'
    method: scrape
