- id: pa/nanticoke/little-free-pantry-nanticoke
  name: Little Free Pantry Nanticoke
  categories:
  - food-pantry
  place: '4252584'
  geo:
    lat: 41.18702
    lng: -75.98342
  external_ids:
    lfp: '2334'
  sources:
  - littlefreepantry/map
  verified:
    'on': '2026-07-19'
    method: scrape
- id: pa/nanticoke/nanticoke-lccc-center
  name: Nanticoke LCCC Center
  categories:
  - child-care
  address:
    street: 521 Trailblazer Dr
    street2: Bldg 11
    city: Nanticoke
    state: pa
    zip: '18634'
  place: '4252584'
  geo:
    lat: 41.20536
    lng: -76.00492
  phone: 570-740-0267
  sources:
  - acf/head-start-locations
  verified:
    'on': '2026-07-19'
    method: api
- id: pa/nanticoke/northeast-counseling-services
  name: Northeast Counseling Services
  categories:
  - su-treatment
  - mh-treatment
  address:
    street: 109 West Green Street
    city: Nanticoke
    state: pa
    zip: '18634'
  place: '4252584'
  geo:
    lat: 41.20063
    lng: -76.00548
  phone: 570-735-7590
  website: https://www.northeastcounseling.org
  sources:
  - samhsa/findtreatment
  verified:
    'on': '2026-07-19'
    method: api
- id: pa/nanticoke/northeast-counseling-services-2
  name: Northeast Counseling Services
  categories:
  - su-treatment
  - mh-treatment
  address:
    street: 24-26 East Broad Street
    city: Nanticoke
    state: pa
    zip: '18634'
  place: '4252584'
  geo:
    lat: 41.20292
    lng: -76.00289
  phone: 570-735-7590
  website: https://www.northeastcounseling.org
  sources:
  - samhsa/findtreatment
  verified:
    'on': '2026-07-19'
    method: api
- id: pa/nanticoke/northeast-counseling-services-3
  name: Northeast Counseling Services
  categories:
  - su-treatment
  - mh-treatment
  address:
    street: 121 South Prospect Street
    city: Nanticoke
    state: pa
    zip: '18634'
  place: '4252584'
  geo:
    lat: 41.20338
    lng: -76.00225
  phone: 570-735-7590
  website: https://www.northeastcounseling.org
  sources:
  - samhsa/findtreatment
  verified:
    'on': '2026-07-19'
    method: api
- id: pa/nanticoke/the-housing-auth-of-the-city-of-nanticoke
  name: The Housing Auth Of The City Of Nanticoke
  categories:
  - housing-assistance
  address: {street: 1 E Green St, city: Nanticoke, state: pa, zip: '18634'}
  description: Public housing and Housing Choice Voucher agency
  place: '4252584'
  geo: {lat: 41.20158, lng: -76.00285}
  phone: 570-735-1110
  sources:
  - hud/resource-locator
  verified: {'on': '2026-07-19', method: api}
