- id: pa/norristown/aclamo-norristown
  name: Aclamo - Norristown
  categories:
  - meal-program
  address: {street: 801 W Marshall St., city: Norristown, state: pa, zip: '19401'}
  description: Free summer meals for kids and teens (2026 season) — sponsored by Archdiocese of Philadelphia.
  place: '4254656'
  geo: {lat: 40.1217, lng: -75.35175}
  phone: (215) 895-3470
  external_ids: {usda_master: Cycle 06_PA_SSO_0004}
  sources:
  - usda/summer-meal-sites
  verified: {'on': '2026-07-19', method: api}
- id: pa/norristown/central-behavioral-health
  name: Central Behavioral Health
  categories:
  - su-treatment
  - mh-treatment
  address:
    street: 1100 Powell Street
    city: Norristown
    state: pa
    zip: '19401'
  place: '4254656'
  geo:
    lat: 40.12249
    lng: -75.3378
  phone: 610-277-4600
  website: https://www.centralbh.org
  sources:
  - samhsa/findtreatment
  verified:
    'on': '2026-07-19'
    method: api
- id: pa/norristown/central-behavioral-health-outpatient-services
  name: Central Behavioral Health Outpatient Services
  categories:
  - su-treatment
  - mh-treatment
  address:
    street: 1201 Dekalb Street
    city: Norristown
    state: pa
    zip: '19401'
  place: '4254656'
  geo:
    lat: 40.1219
    lng: -75.33614
  phone: 610-279-9270
  website: https://www.centralbh.org
  sources:
  - samhsa/findtreatment
  verified:
    'on': '2026-07-19'
    method: api
- id: pa/norristown/chop-norristown
  name: Chop - Norristown
  categories:
  - meal-program
  address: {street: 1437 Dekalb St Suite 100, city: Norristown, state: pa, zip: '19401'}
  description: Free summer meals for kids and teens (2026 season) — sponsored by Archdiocese of Philadelphia.
  place: '4254656'
  geo: {lat: 40.12389, lng: -75.33274}
  phone: (215) 895-3470
  external_ids: {usda_master: Cycle 03_PA_SSO_0086}
  sources:
  - usda/summer-meal-sites
  verified: {'on': '2026-07-19', method: api}
- id: pa/norristown/collegeville-psychological-center
  name: Collegeville Psychological Center
  categories:
  - su-treatment
  - mh-treatment
  address:
    street: 3301 Ridge Pike
    city: Norristown
    state: pa
    zip: '19403'
  place: '4254656'
  geo:
    lat: 40.15945
    lng: -75.40714
  phone: 610-489-3333
  website: https://www.ppcmh.com
  sources:
  - samhsa/findtreatment
  verified:
    'on': '2026-07-19'
    method: api
- id: pa/norristown/crayon-kids
  name: Crayon Kids
  categories:
  - child-care
  address:
    street: 800 W Marshall St
    city: Norristown
    state: pa
    zip: '19401'
  place: '4254656'
  geo:
    lat: 40.12165
    lng: -75.35224
  sources:
  - acf/head-start-locations
  verified:
    'on': '2026-07-19'
    method: api
- id: pa/norristown/crayon-kids-ccp
  name: Crayon Kids (CCP)
  categories:
  - child-care
  address:
    street: 800 W Marshall St
    city: Norristown
    state: pa
    zip: '19401'
  place: '4254656'
  geo:
    lat: 40.12165
    lng: -75.35224
  phone: 610-275-3181
  sources:
  - acf/head-start-locations
  verified:
    'on': '2026-07-19'
    method: api
- id: pa/norristown/crayon-kids-early-head-start-ccp
  name: Crayon Kids Early Head Start CCP
  categories:
  - child-care
  address:
    street: 800 W Marshall St
    city: Norristown
    state: pa
    zip: '19401'
  place: '4254656'
  geo:
    lat: 40.12165
    lng: -75.35224
  sources:
  - acf/head-start-locations
  verified:
    'on': '2026-07-19'
    method: api
- id: pa/norristown/eagleville-hospital
  name: Eagleville Hospital
  categories:
  - su-treatment
  address:
    street: 100 Eagleville Road
    city: Norristown
    state: pa
    zip: '19403'
  place: '4254656'
  geo:
    lat: 40.15269
    lng: -75.41703
  phone: 800-255-2019
  website: https://www.eagleville.org
  sources:
  - samhsa/findtreatment
  verified:
    'on': '2026-07-19'
    method: api
- id: pa/norristown/gaudenzia-inc-montgomery-county-outpatient
  name: Gaudenzia Inc Montgomery County Outpatient
  categories:
  - su-treatment
  - mh-treatment
  address:
    street: 166 West Main Street
    city: Norristown
    state: pa
    zip: '19401'
  place: '4254656'
  geo:
    lat: 40.11543
    lng: -75.34746
  phone: 717-850-8418 x2363
  website: https://www.gaudenzia.org
  sources:
  - samhsa/findtreatment
  verified:
    'on': '2026-07-19'
    method: api
- id: pa/norristown/george-washington-carver-community-center
  name: George Washington Carver Community Center
  categories:
  - meal-program
  address: {street: 249 Jacoby St., city: Norristown, state: pa, zip: '19401'}
  description: Free summer meals for kids and teens (2026 season) — sponsored by Montgomery County Intermediate
    Unit 23.
  place: '4254656'
  geo: {lat: 40.11823, lng: -75.33598}
  external_ids: {usda_master: Cycle 03_PA_SFSP_0159}
  sources:
  - usda/summer-meal-sites
  verified: {'on': '2026-07-19', method: api}
- id: pa/norristown/mciu-head-start-early-learning-academy
  name: MCIU Head Start - Early Learning Academy
  categories:
  - child-care
  address:
    street: 1605 W Main St
    city: Norristown
    state: pa
    zip: '19403'
  place: '4254656'
  geo:
    lat: 40.12713
    lng: -75.36681
  phone: 484-868-9800
  sources:
  - acf/head-start-locations
  verified:
    'on': '2026-07-19'
    method: api
- id: pa/norristown/mciu-head-start-hancock-elementary
  name: MCIU Head Start- Hancock Elementary
  categories:
  - child-care
  address:
    street: 1520 Arch St
    city: Norristown
    state: pa
    zip: '19401'
  place: '4254656'
  geo:
    lat: 40.12235
    lng: -75.32855
  phone: 484-868-9800
  sources:
  - acf/head-start-locations
  verified:
    'on': '2026-07-19'
    method: api
- id: pa/norristown/montgomery-county-housing-authority
  name: Montgomery County Housing Authority
  categories:
  - housing-assistance
  address:
    street: 104 W Main St Ste 1
    city: Norristown
    state: pa
    zip: '19401'
  description: Public housing and Housing Choice Voucher agency
  place: '4254656'
  geo:
    lat: 40.11489
    lng: -75.34593
  phone: 610-275-5720
  sources:
  - hud/resource-locator
  verified:
    'on': '2026-07-19'
    method: api
- id: pa/norristown/montgomery-county-oic
  name: Montgomery County Oic
  categories:
  - meal-program
  address: {street: 1101 Arch Street, city: Norristown, state: pa, zip: '19401'}
  description: Free summer meals for kids and teens (2026 season) — sponsored by Archdiocese of Philadelphia.
  place: '4254656'
  geo: {lat: 40.1198, lng: -75.33466}
  phone: (215) 895-3470
  external_ids: {usda_master: Cycle 03_PA_SSO_0248}
  sources:
  - usda/summer-meal-sites
  verified: {'on': '2026-07-19', method: api}
- id: pa/norristown/montgomery-county-recovery-center-resources-for
  name: Montgomery County Recovery Center Resources for Human Development
  categories:
  - su-treatment
  address:
    street: 316 Dekalb Street
    city: Norristown
    state: pa
    zip: '19401'
  place: '4254656'
  geo:
    lat: 40.1139
    lng: -75.34187
  phone: 610-272-3710 x201
  website: https://rhd.org
  sources:
  - samhsa/findtreatment
  verified:
    'on': '2026-07-19'
    method: api
- id: pa/norristown/norristown-ehs-hb-pn
  name: Norristown EHS (HB,PN)
  categories:
  - child-care
  address:
    street: 401 Dekalb St
    street2: Fl 3
    city: Norristown
    state: pa
    zip: '19401'
  place: '4254656'
  geo:
    lat: 40.11485
    lng: -75.34236
  phone: 610-277-1505
  sources:
  - acf/head-start-locations
  verified:
    'on': '2026-07-19'
    method: api
- id: pa/norristown/norristown-regional-health-center
  name: Norristown Regional Health Center
  categories:
  - community-health-center
  address:
    street: 1401 Dekalb Pike
    city: Norristown
    state: pa
    zip: '19401'
  place: '4254656'
  geo:
    lat: 40.12324
    lng: -75.33371
  phone: 610-278-7787
  website: https://dvch.org
  external_ids:
    bphc: BPS-H80-008684
  sources:
  - hrsa/health-center-sites
  verified:
    'on': '2026-07-19'
    method: api
- id: pa/norristown/resources-for-human-development-family-house-nor
  name: Resources For Human Development Family House Norristown
  categories:
  - su-treatment
  - mh-treatment
  address:
    street: 901 Dekalb Street
    city: Norristown
    state: pa
    zip: '19401'
  place: '4254656'
  geo:
    lat: 40.11951
    lng: -75.33908
  phone: 215-878-8616
  website: https://www.rhd.org
  sources:
  - samhsa/findtreatment
  verified:
    'on': '2026-07-19'
    method: api
- id: pa/norristown/st-augustine-of-hippo
  name: St. Augustine Of Hippo
  categories:
  - meal-program
  address: {street: 1206 Green St, city: Norristown, state: pa, zip: '19401'}
  description: Free summer meals for kids and teens (2026 season) — sponsored by Archdiocese of Philadelphia.
  place: '4254656'
  geo: {lat: 40.12113, lng: -75.33493}
  phone: (215) 895-3470
  external_ids: {usda_master: Cycle 09_PA_SSO_0093}
  sources:
  - usda/summer-meal-sites
  verified: {'on': '2026-07-19', method: api}
- id: pa/norristown/suburban-behavioral-health-campus-roxborough-mem
  name: Suburban Behavioral Health Campus Roxborough Memorial Hospital
  categories:
  - mh-treatment
  address:
    street: 2701 Dekalb Pike
    city: Norristown
    state: pa
    zip: '19401'
  place: '4254656'
  geo:
    lat: 40.1402
    lng: -75.31571
  phone: 610-270-8300
  website: https://suburbanbhc.org/
  sources:
  - samhsa/findtreatment
  verified:
    'on': '2026-07-19'
    method: api
