- id: pa/sharon-hill/academy-park-high-school
  name: Academy Park High School
  categories:
  - meal-program
  address: {street: 300 Calcon Hook Road, city: Sharon Hill, state: pa, zip: '19079'}
  description: Free summer meals for kids and teens (2026 season) — sponsored by Archdiocese of Philadelphia.
  place: '4269752'
  geo: {lat: 39.90842, lng: -75.26688}
  phone: (215) 895-3470
  external_ids: {usda_master: Cycle 05_PA_SSO_0006}
  sources:
  - usda/summer-meal-sites
  verified: {'on': '2026-07-19', method: api}
- id: pa/sharon-hill/fairmount-primary-care-center-at-sharon-hill-del
  name: Fairmount Primary Care Center at Sharon Hill-Delaware County
  categories:
  - community-health-center
  cost: sliding-scale
  address: {street: 800 Chester Pike, city: Sharon Hill, state: pa, zip: '19079'}
  place: '4269752'
  geo: {lat: 39.91187, lng: -75.26986}
  phone: 215-235-9600
  external_ids: {bphc: BPS-H80-018770}
  sources:
  - hrsa/health-center-sites
  verified: {'on': '2026-07-19', method: api}
- id: pa/sharon-hill/mount-zion-cme-church
  name: Mount Zion CME Church
  org: pa/philabundance
  categories:
  - food-pantry
  address: {street: 701 Felton Ave, city: Sharon Hill, state: pa, zip: '19079'}
  place: '4269752'
  geo: {lat: 39.90041, lng: -75.27007}
  phone: 610-620-8133
  external_ids: {pa-philabundance: '28005'}
  sources:
  - foodbank/pa-philabundance
  verified: {'on': '2026-07-21', method: api}
- id: pa/sharon-hill/neighbor-to-neighbor-community-development
  name: Neighbor to Neighbor Community Development
  org: pa/philabundance
  categories:
  - food-pantry
  address: {street: 814 Clifton Ave, city: Sharon Hill, state: pa, zip: '19079'}
  place: '4269752'
  geo: {lat: 39.89991, lng: -75.26917}
  phone: 610-461-8140
  external_ids: {pa-philabundance: '28011'}
  sources:
  - foodbank/pa-philabundance
  verified: {'on': '2026-07-21', method: api}
- id: pa/sharon-hill/vision-academy-cs-of-excellence
  name: Vision Academy Cs Of Excellence
  categories:
  - meal-program
  address: {street: 1016 School Street, city: Sharon Hill, state: pa, zip: '19079'}
  description: Free summer meals for kids and teens (2026 season) — sponsored by Archdiocese of Philadelphia.
  place: '4269752'
  geo: {lat: 39.90664, lng: -75.27054}
  phone: (215) 895-3470
  external_ids: {usda_master: Cycle 05_PA_SSO_0360}
  sources:
  - usda/summer-meal-sites
  verified: {'on': '2026-07-19', method: api}
