- id: pa/williamsport/cleanslate-centers
  name: CleanSlate Centers
  categories:
  - su-treatment
  address:
    street: 131 West Edwin Street
    city: Williamsport
    state: pa
    zip: '17701'
  place: '4285312'
  geo:
    lat: 41.2417
    lng: -77.00447
  phone: 570-505-8331
  website: https://www.cleanslatecenters.com/williamsport-pa
  sources:
  - samhsa/findtreatment
  verified:
    'on': '2026-07-19'
    method: api
- id: pa/williamsport/community-services-group
  name: Community Services Group
  categories:
  - mh-treatment
  address:
    street: 1000 Commerce Park Drive
    city: Williamsport
    state: pa
    zip: '17701'
  place: '4285312'
  geo:
    lat: 41.24605
    lng: -76.98528
  phone: 877-907-7970
  website: https://www.csgonline.org
  sources:
  - samhsa/findtreatment
  verified:
    'on': '2026-07-19'
    method: api
- id: pa/williamsport/crossroads-counseling-inc-williamsport-office
  name: Crossroads Counseling Inc Williamsport Office
  categories:
  - su-treatment
  - mh-treatment
  address:
    street: 501 East 3rd Street
    city: Williamsport
    state: pa
    zip: '17701'
  place: '4285312'
  geo:
    lat: 41.24477
    lng: -76.99396
  phone: 570-323-7535
  website: https://www.crossroadscounselinginc.com
  sources:
  - samhsa/findtreatment
  verified:
    'on': '2026-07-19'
    method: api
- id: pa/williamsport/diakon-family-life-services
  name: Diakon Family Life Services
  categories:
  - su-treatment
  - mh-treatment
  address:
    street: 435 West 4th Street
    city: Williamsport
    state: pa
    zip: '17701'
  place: '4285312'
  geo:
    lat: 41.2398
    lng: -77.00994
  phone: 877-342-5667
  website: https://www.diakon.org
  sources:
  - samhsa/findtreatment
  verified:
    'on': '2026-07-19'
    method: api
- id: pa/williamsport/divine-providence-campus-upmc-williamsport-hospi
  name: Divine Providence Campus UPMC Williamsport Hospital
  categories:
  - mh-treatment
  address:
    street: 1100 Grampian Boulevard
    city: Williamsport
    state: pa
    zip: '17701'
  place: '4285312'
  geo:
    lat: 41.26028
    lng: -76.98471
  phone: 570-321-1000
  website: https://www.upmc.edu
  sources:
  - samhsa/findtreatment
  verified:
    'on': '2026-07-19'
    method: api
- id: pa/williamsport/firetree-place
  name: Firetree Place
  categories:
  - child-care
  address:
    street: 600 Campbell St
    city: Williamsport
    state: pa
    zip: '17701'
  place: '4285312'
  geo:
    lat: 41.24211
    lng: -77.01681
  phone: 570-601-9623
  sources:
  - acf/head-start-locations
  verified:
    'on': '2026-07-19'
    method: api
- id: pa/williamsport/four-mile-drive
  name: Four Mile Drive
  categories:
  - child-care
  address:
    street: 1685 Four Mile Dr
    street2: Ste 3
    city: Williamsport
    state: pa
    zip: '17701'
  place: '4285312'
  geo:
    lat: 41.26316
    lng: -76.97056
  phone: 570-601-9601
  sources:
  - acf/head-start-locations
  verified:
    'on': '2026-07-19'
    method: api
- id: pa/williamsport/genesis-house-inc
  name: Genesis House Inc
  categories:
  - su-treatment
  address:
    street: 800 West 4th Street
    city: Williamsport
    state: pa
    zip: '17701'
  place: '4285312'
  geo:
    lat: 41.24072
    lng: -77.01801
  phone: 570-322-0520
  website: https://www.genesishouseoutpatient.com
  sources:
  - samhsa/findtreatment
  verified:
    'on': '2026-07-19'
    method: api
- id: pa/williamsport/hope-s-children-s-campus
  name: Hope's Children's Campus
  categories:
  - child-care
  address:
    street: 625 W Edwin St
    city: Williamsport
    state: pa
    zip: '17701'
  place: '4285312'
  geo:
    lat: 41.24028
    lng: -77.01297
  phone: 570-601-9640
  sources:
  - acf/head-start-locations
  verified:
    'on': '2026-07-19'
    method: api
- id: pa/williamsport/housing-authority-of-the-county-of-lycoming
  name: Housing Authority Of The County Of Lycoming
  categories:
  - housing-assistance
  address: {street: 1941 Lincoln Dr, city: Williamsport, state: pa, zip: '17701'}
  description: Public housing and Housing Choice Voucher agency
  place: '4285312'
  geo: {lat: 41.25661, lng: -76.9629}
  phone: 570-323-3755
  sources:
  - hud/resource-locator
  verified: {'on': '2026-07-19', method: api}
- id: pa/williamsport/river-valley-health-express-and-specialty-care
  name: River Valley Health - Express and Specialty Care
  categories:
  - community-health-center
  address:
    street: 431 Hepburn St
    city: Williamsport
    state: pa
    zip: '17701'
  place: '4285312'
  geo:
    lat: 41.24141
    lng: -77.00696
  phone: 570-567-5400
  website: https://www.rivervalleyhealthpa.org
  external_ids:
    bphc: BPS-H80-027526
  sources:
  - hrsa/health-center-sites
  verified:
    'on': '2026-07-19'
    method: api
- id: pa/williamsport/river-valley-health-mobile-dental-unit
  name: River Valley Health - Mobile Dental Unit
  categories:
  - community-health-center
  address:
    street: 2950 Lycoming Creek Rd
    city: Williamsport
    state: pa
    zip: '17701'
  place: '4285312'
  geo:
    lat: 41.28423
    lng: -77.05382
  phone: 570-567-5400
  website: https://www.rivervalleyhealthpa.org
  external_ids:
    bphc: BPS-H80-036360
  sources:
  - hrsa/health-center-sites
  verified:
    'on': '2026-07-19'
    method: api
- id: pa/williamsport/river-valley-health-williamsport-medical-and-den
  name: River Valley Health - Williamsport Medical and Dental
  categories:
  - community-health-center
  address:
    street: 471 Hepburn St
    city: Williamsport
    state: pa
    zip: '17701'
  place: '4285312'
  geo:
    lat: 41.24237
    lng: -77.0079
  phone: 570-567-5400
  website: https://www.rivervalleyhealthpa.org
  external_ids:
    bphc: BPS-H80-011727
  sources:
  - hrsa/health-center-sites
  verified:
    'on': '2026-07-19'
    method: api
- id: pa/williamsport/round-hills-campus
  name: Round Hills Campus
  categories:
  - child-care
  address:
    street: 136 Grimesville Rd
    city: Williamsport
    state: pa
    zip: '17701'
  place: '4285312'
  geo:
    lat: 41.25286
    lng: -77.07124
  phone: 570-601-3616
  sources:
  - acf/head-start-locations
  verified:
    'on': '2026-07-19'
    method: api
