- id: hi/waimanalo/blanche-pope-elementary-school
  name: Blanche Pope Elementary School
  categories:
  - meal-program
  address: {street: 41-133 Huli St., city: Waimanalo, state: hi, zip: '96795'}
  description: Free summer meals for kids and teens (2026 season) — sponsored by School Food Service Branch.
  place: '1578050'
  geo: {lat: 21.32788, lng: -157.69386}
  phone: (808) 259-0450
  external_ids: {usda_master: Cycle 02_HI_SSO_0193}
  sources:
  - usda/summer-meal-sites
  verified: {'on': '2026-07-19', method: api}
- id: hi/waimanalo/mobile-health-hale-ola-alima
  name: Mobile Health - Hale Ola 'Alima
  categories:
  - community-health-center
  cost: sliding-scale
  address:
    street: 41-1347 Kalanianaole Hwy
    city: Waimanalo
    state: hi
    zip: '96795'
  place: '1578050'
  geo:
    lat: 21.34772
    lng: -157.71611
  phone: 808-259-7948
  external_ids:
    bphc: BPS-H80-030865
  sources:
  - hrsa/health-center-sites
  verified:
    'on': '2026-07-19'
    method: api
- id: hi/waimanalo/waimanalo-district-park
  name: Waimanalo District Park
  categories:
  - meal-program
  address: {street: 41-415 Hihimanu St, city: Waimanalo, state: hi, zip: '96795'}
  description: Free summer meals for kids and teens (2026 season) — sponsored by City & County of Honolulu
    Dept of Parks & Rec.
  place: '1578050'
  geo: {lat: 21.34134, lng: -157.71558}
  external_ids: {usda_master: Cycle 02_HI_SFSP_0034}
  sources:
  - usda/summer-meal-sites
  verified: {'on': '2026-07-19', method: api}
- id: hi/waimanalo/waimanalo-el
  name: Waimanalo El.
  categories:
  - child-care
  address:
    street: 41-1350 Kalanianaole Hwy
    city: Waimanalo
    state: hi
    zip: '96795'
  place: '1578050'
  geo:
    lat: 21.33354
    lng: -157.69807
  phone: 808-259-7574
  sources:
  - acf/head-start-locations
  verified:
    'on': '2026-07-19'
    method: api
- id: hi/waimanalo/waimanalo-elementary-and-intermediate-school-hal
  name: Waimanalo Elementary and Intermediate School - Hale Ola 'Aha
  categories:
  - community-health-center
  cost: sliding-scale
  address:
    street: 41-1330 Kalanianaole Hwy
    city: Waimanalo
    state: hi
    zip: '96795'
  place: '1578050'
  geo:
    lat: 21.34567
    lng: -157.71517
  phone: 808-954-7128
  external_ids:
    bphc: BPS-H80-039503
  sources:
  - hrsa/health-center-sites
  verified:
    'on': '2026-07-19'
    method: api
- id: hi/waimanalo/waimanalo-elementary-school
  name: Waimanalo Elementary School
  categories:
  - meal-program
  address: {street: 41-1330 Kalanianaole Highway, city: Waimanalo, state: hi, zip: '96795'}
  description: Free summer meals for kids and teens (2026 season) — sponsored by Lanakila Pacific.
  place: '1578050'
  geo: {lat: 21.3469, lng: -157.71499}
  external_ids: {usda_master: Cycle 02_HI_SFSP_0102}
  sources:
  - usda/summer-meal-sites
  verified: {'on': '2026-07-19', method: api}
- id: hi/waimanalo/waimanalo-health-center-hale-ola-akahi
  name: Waimanalo Health Center - Hale Ola 'Akahi
  categories:
  - community-health-center
  cost: sliding-scale
  address:
    street: 41-1347 Kalanianaole Hwy
    city: Waimanalo
    state: hi
    zip: '96795'
  place: '1578050'
  geo:
    lat: 21.34772
    lng: -157.71611
  phone: 808-259-7948
  website: https://www.waimanalohealth.org
  external_ids:
    bphc: BPS-H80-000438
  sources:
  - hrsa/health-center-sites
  verified:
    'on': '2026-07-19'
    method: api
- id: hi/waimanalo/waimanalo-health-center-hale-ola-alua
  name: Waimanalo Health Center - Hale Ola `Alua
  categories:
  - community-health-center
  cost: sliding-scale
  address:
    street: 41-1295 Kalanianaole Hwy
    city: Waimanalo
    state: hi
    zip: '96795'
  place: '1578050'
  geo:
    lat: 21.34708
    lng: -157.71431
  phone: 808-259-7948
  external_ids:
    bphc: BPS-H80-027251
  sources:
  - hrsa/health-center-sites
  verified:
    'on': '2026-07-19'
    method: api
