- id: mo/ferguson/building-the-road-dba-eight-dimension-wellness-c
  name: Building The Road-Dba Eight Dimension Wellness Center
  categories:
  - meal-program
  address: {street: 258 S Florissant, city: Ferguson, state: mo, zip: '63135'}
  description: Free summer meals for kids and teens (2026 season) — sponsored by Building on Direction.
  place: '2923986'
  geo: {lat: 38.74014, lng: -90.30325}
  phone: (314) 201-5473
  external_ids: {usda_master: Cycle 04_MO_SFSP_0112}
  sources:
  - usda/summer-meal-sites
  verified: {'on': '2026-07-19', method: api}
- id: mo/ferguson/emerson-ymca
  name: Emerson Ymca
  categories:
  - meal-program
  address: {street: 3390 Pershall Rd., city: Ferguson, state: mo, zip: '63135'}
  description: Free summer meals for kids and teens (2026 season) — sponsored by Operation Food Search,
    Inc..
  place: '2923986'
  geo: {lat: 38.77036, lng: -90.28206}
  phone: (314) 521-1822
  external_ids: {usda_master: Cycle 04_MO_SFSP_0493}
  sources:
  - usda/summer-meal-sites
  verified: {'on': '2026-07-19', method: api}
- id: mo/ferguson/first-baptist-toiletry-pantry
  name: First Baptist toiletry pantry
  categories:
  - food-pantry
  place: '2923986'
  geo: {lat: 38.75012, lng: -90.30879}
  website: https://mapping.littlefreepantry.org/pantry/2544
  external_ids: {lfp: '2544'}
  sources:
  - littlefreepantry/map
  verified: {'on': '2026-07-19', method: scrape}
- id: mo/ferguson/pianos-for-people-ferguson-studio
  name: Pianos For People Ferguson Studio
  categories:
  - meal-program
  address: {street: 333 N Florissant Rd, city: Ferguson, state: mo, zip: '63135'}
  description: Free summer meals for kids and teens (2026 season) — sponsored by Operation Food Search,
    Inc..
  place: '2923986'
  geo: {lat: 38.75029, lng: -90.30828}
  phone: (314) 374-9990
  external_ids: {usda_master: Cycle 04_MO_SFSP_0499}
  sources:
  - usda/summer-meal-sites
  verified: {'on': '2026-07-19', method: api}
- id: mo/ferguson/st-stephens-little-free-pantry
  name: St. Stephen’s Little Free Pantry
  categories:
  - food-pantry
  place: '2923986'
  geo: {lat: 38.74662, lng: -90.30101}
  website: https://mapping.littlefreepantry.org/pantry/2543
  external_ids: {lfp: '2543'}
  sources:
  - littlefreepantry/map
  verified: {'on': '2026-07-19', method: scrape}
- id: mo/ferguson/unleashing-potential-at-immanuel-ucc
  name: Unleashing Potential At Immanuel Ucc
  categories:
  - meal-program
  address: {street: 221 Church St., city: Ferguson, state: mo, zip: '63135'}
  description: Free summer meals for kids and teens (2026 season) — sponsored by Operation Food Search,
    Inc..
  place: '2923986'
  geo: {lat: 38.74518, lng: -90.30249}
  phone: (314) 269-7502
  external_ids: {usda_master: Cycle 04_MO_SFSP_0516}
  sources:
  - usda/summer-meal-sites
  verified: {'on': '2026-07-19', method: api}
