- id: mo/hannibal/brightli-preferred-family-healthcare-clarity
  name: Brightli Preferred Family Healthcare Clarity
  categories:
  - su-treatment
  - mh-treatment
  address:
    street: 235 Progress Road
    city: Hannibal
    state: mo
    zip: '63401'
  place: '2930214'
  geo:
    lat: 39.73114
    lng: -91.40121
  phone: 573-603-1460
  website: https://www.pfh.org
  sources:
  - samhsa/findtreatment
  verified:
    'on': '2026-07-19'
    method: api
- id: mo/hannibal/burrell-inc-centerstone-of-missouri
  name: Burrell Inc Centerstone of Missouri
  categories:
  - su-treatment
  - mh-treatment
  address:
    street: 4355 Paris Gravel Road
    city: Hannibal
    state: mo
    zip: '63401'
  place: '2930214'
  geo:
    lat: 39.68491
    lng: -91.40975
  phone: 660-665-1962
  website: https://www.pfh.org
  sources:
  - samhsa/findtreatment
  verified:
    'on': '2026-07-19'
    method: api
- id: mo/hannibal/clarity-healthcare
  name: Clarity Healthcare
  categories:
  - community-health-center
  address:
    street: 4600 McMasters Ave
    city: Hannibal
    state: mo
    zip: '63401'
  place: '2930214'
  geo:
    lat: 39.72245
    lng: -91.39137
  phone: 573-603-1460
  external_ids:
    bphc: BPS-H80-020917
  sources:
  - hrsa/health-center-sites
  verified:
    'on': '2026-07-19'
    method: api
- id: mo/hannibal/clarity-healthcare-2
  name: Clarity Healthcare
  categories:
  - community-health-center
  address:
    street: 235 Progress Rd
    city: Hannibal
    state: mo
    zip: '63401'
  place: '2930214'
  geo:
    lat: 39.73114
    lng: -91.40121
  phone: 573-603-1460
  external_ids:
    bphc: BPS-H80-040552
  sources:
  - hrsa/health-center-sites
  verified:
    'on': '2026-07-19'
    method: api
- id: mo/hannibal/clarity-healthcare-3
  name: Clarity Healthcare
  categories:
  - community-health-center
  address:
    street: 141 Communication Dr
    city: Hannibal
    state: mo
    zip: '63401'
  place: '2930214'
  geo:
    lat: 39.70147
    lng: -91.39187
  phone: 573-603-1460
  external_ids:
    bphc: BPS-H80-013908
  sources:
  - hrsa/health-center-sites
  verified:
    'on': '2026-07-19'
    method: api
- id: mo/hannibal/clarity-healthcare-mobile-dental
  name: Clarity Healthcare Mobile Dental
  categories:
  - community-health-center
  address:
    street: 141 Communication Dr
    city: Hannibal
    state: mo
    zip: '63401'
  place: '2930214'
  geo:
    lat: 39.70147
    lng: -91.39187
  phone: 573-603-1460
  external_ids:
    bphc: BPS-H80-027425
  sources:
  - hrsa/health-center-sites
  verified:
    'on': '2026-07-19'
    method: api
- id: mo/hannibal/clarity-healthcare-mobile-medical-bh-mo
  name: Clarity Healthcare Mobile Medical/BH MO
  categories:
  - community-health-center
  address:
    street: 141 Communication Dr
    city: Hannibal
    state: mo
    zip: '63401'
  place: '2930214'
  geo:
    lat: 39.70147
    lng: -91.39187
  phone: 573-603-1460
  external_ids:
    bphc: BPS-H80-034157
  sources:
  - hrsa/health-center-sites
  verified:
    'on': '2026-07-19'
    method: api
- id: mo/hannibal/clinic
  name: Clinic
  categories:
  - child-care
  address:
    street: 661 Clinic Rd
    city: Hannibal
    state: mo
    zip: '63401'
  place: '2930214'
  geo:
    lat: 39.69937
    lng: -91.3915
  phone: 573-221-1540
  sources:
  - acf/head-start-locations
  verified:
    'on': '2026-07-19'
    method: api
- id: mo/hannibal/early-childhood-center
  name: Early Childhood Center
  categories:
  - meal-program
  address: {street: 544 N. Veterans Road, city: Hannibal, state: mo, zip: '63401'}
  description: 'Free summer meals for kids and teens (2026 season) — sponsored by Hannibal School District
    #60.'
  place: '2930214'
  geo: {lat: 39.72267, lng: -91.4192}
  phone: (573) 221-3054
  external_ids: {usda_master: Cycle 04_MO_SFSP_0257}
  sources:
  - usda/summer-meal-sites
  verified: {'on': '2026-07-19', method: api}
- id: mo/hannibal/ehs-johnson
  name: EHS Johnson
  categories:
  - child-care
  address:
    street: 2161 Johnson St
    city: Hannibal
    state: mo
    zip: '63401'
  place: '2930214'
  geo:
    lat: 39.68938
    lng: -91.37886
  phone: 573-406-5574
  sources:
  - acf/head-start-locations
  verified:
    'on': '2026-07-19'
    method: api
- id: mo/hannibal/hannibal
  name: Hannibal
  categories:
  - child-care
  address:
    street: 2181 Johnson St
    city: Hannibal
    state: mo
    zip: '63401'
  place: '2930214'
  geo:
    lat: 39.68947
    lng: -91.38057
  phone: 573-231-0754
  sources:
  - acf/head-start-locations
  verified:
    'on': '2026-07-19'
    method: api
- id: mo/hannibal/hannibal-clinic-outpatient-behavioral-health
  name: Hannibal Clinic Outpatient Behavioral Health
  categories:
  - su-treatment
  - mh-treatment
  address:
    street: 100 Medical Drive
    city: Hannibal
    state: mo
    zip: '63401'
  place: '2930214'
  geo:
    lat: 39.71134
    lng: -91.44694
  phone: 573-221-5250
  website: https://www.blessinghealthsystem.org
  sources:
  - samhsa/findtreatment
  verified:
    'on': '2026-07-19'
    method: api
- id: mo/hannibal/hannibal-middle-school
  name: Hannibal Middle School
  categories:
  - meal-program
  address: {street: 4700 Mcmasters, city: Hannibal, state: mo, zip: '63401'}
  description: 'Free summer meals for kids and teens (2026 season) — sponsored by Hannibal School District
    #60.'
  place: '2930214'
  geo: {lat: 39.72463, lng: -91.39179}
  phone: (573) 221-5840
  external_ids: {usda_master: Cycle 04_MO_SFSP_0258}
  sources:
  - usda/summer-meal-sites
  verified: {'on': '2026-07-19', method: api}
- id: mo/hannibal/hannibal-ymca-site
  name: Hannibal Ymca Site
  categories:
  - meal-program
  address: {street: 2335 Palmyra Rd, city: Hannibal, state: mo, zip: '63401'}
  description: Free summer meals for kids and teens (2026 season) — sponsored by Young Mens Christian
    Association of Hannibal.
  place: '2930214'
  geo: {lat: 39.7239, lng: -91.38515}
  phone: (573) 221-0586
  external_ids: {usda_master: Cycle 04_MO_SFSP_0833}
  sources:
  - usda/summer-meal-sites
  verified: {'on': '2026-07-19', method: api}
- id: mo/hannibal/housing-authority-of-the-city-of-hannibal
  name: Housing Authority Of The City Of Hannibal
  categories:
  - housing-assistance
  address:
    street: 3614 Navajo St
    city: Hannibal
    state: mo
    zip: '63401'
  description: Public housing and Housing Choice Voucher agency
  place: '2930214'
  geo:
    lat: 39.71518
    lng: -91.39658
  phone: 573-221-7575
  sources:
  - hud/resource-locator
  verified:
    'on': '2026-07-19'
    method: api
- id: mo/hannibal/mark-twain-behavioral-health
  name: Mark Twain Behavioral Health
  categories:
  - su-treatment
  - mh-treatment
  address:
    street: 154 Forrest Drive
    city: Hannibal
    state: mo
    zip: '63401'
  place: '2930214'
  geo:
    lat: 39.70599
    lng: -91.44596
  phone: 573-221-2120
  website: https://www.mtbh.org
  sources:
  - samhsa/findtreatment
  verified:
    'on': '2026-07-19'
    method: api
- id: mo/hannibal/mark-twain-behavioral-health-2
  name: Mark Twain Behavioral Health
  categories:
  - su-treatment
  address:
    street: 146 Communications Drive
    city: Hannibal
    state: mo
    zip: '63401'
  place: '2930214'
  geo:
    lat: 39.70275
    lng: -91.39162
  phone: 573-248-1196
  website: https://www.mtbh.org
  sources:
  - samhsa/findtreatment
  verified:
    'on': '2026-07-19'
    method: api
- id: mo/hannibal/veterans
  name: Veterans
  categories:
  - meal-program
  address: {street: 790 Veterans Rd, city: Hannibal, state: mo, zip: '63401'}
  description: 'Free summer meals for kids and teens (2026 season) — sponsored by Hannibal School District
    #60.'
  place: '2930214'
  geo: {lat: 39.72745, lng: -91.41932}
  phone: (573) 221-0649
  external_ids: {usda_master: Cycle 04_MO_SFSP_0259}
  sources:
  - usda/summer-meal-sites
  verified: {'on': '2026-07-19', method: api}
