- id: mo/hillsboro/compass-health
  name: Compass Health
  categories:
  - su-treatment
  - mh-treatment
  address:
    street: 4 Hickory Ridge Road
    city: Hillsboro
    state: mo
    zip: '63050'
  place: '2932248'
  geo:
    lat: 38.22087
    lng: -90.57348
  phone: 636-797-5633
  website: https://www.compasshealthnetwork.org
  sources:
  - samhsa/findtreatment
  verified:
    'on': '2026-07-19'
    method: api
- id: mo/hillsboro/compass-health-hillsboro
  name: Compass Health - Hillsboro
  categories:
  - community-health-center
  address:
    street: 4 Hickory Ridge Rd
    city: Hillsboro
    state: mo
    zip: '63050'
  place: '2932248'
  geo:
    lat: 38.22082
    lng: -90.57368
  phone: 636-931-2700
  external_ids:
    bphc: BPS-H80-037116
  sources:
  - hrsa/health-center-sites
  verified:
    'on': '2026-07-19'
    method: api
- id: mo/hillsboro/compass-health-inc
  name: Compass Health, Inc.
  categories:
  - community-health-center
  address:
    street: 351 Main St
    city: Hillsboro
    state: mo
    zip: '63050'
  place: '2932248'
  geo:
    lat: 38.23222
    lng: -90.56424
  phone: 844-853-8937
  external_ids:
    bphc: BPS-H80-037697
  sources:
  - hrsa/health-center-sites
  verified:
    'on': '2026-07-19'
    method: api
- id: mo/hillsboro/compass-health-inc-jeffco-mobile-van
  name: Compass Health, Inc. Jeffco Mobile Van
  categories:
  - community-health-center
  address:
    street: 4 Hickory Ridge Rd
    city: Hillsboro
    state: mo
    zip: '63050'
  place: '2932248'
  geo:
    lat: 38.22082
    lng: -90.57368
  phone: 844-853-8937
  external_ids:
    bphc: BPS-H80-037588
  sources:
  - hrsa/health-center-sites
  verified:
    'on': '2026-07-19'
    method: api
- id: mo/hillsboro/franklin-county-public-housing-agency
  name: Franklin County Public Housing Agency
  categories:
  - housing-assistance
  address:
    street: 2 Merchants Dr
    city: Hillsboro
    state: mo
    zip: '63050'
  description: Housing Choice Voucher (Section 8) agency
  place: '2932248'
  geo:
    lat: 38.22667
    lng: -90.56155
  phone: 636-789-2686
  sources:
  - hud/resource-locator
  verified:
    'on': '2026-07-19'
    method: api
- id: mo/hillsboro/visions-academy
  name: Visions Academy
  categories:
  - child-care
  address:
    street: 4770 State Road B
    city: Hillsboro
    state: mo
    zip: '63050'
  place: '2932248'
  geo:
    lat: 38.22477
    lng: -90.57749
  phone: 636-797-8144
  sources:
  - acf/head-start-locations
  verified:
    'on': '2026-07-19'
    method: api
