- id: mo/independence/brightli-burrell-behavioral-health
  name: Brightli Burrell Behavioral Health
  categories:
  - su-treatment
  - mh-treatment
  address:
    street: 17611 East Highway 24
    city: Independence
    state: mo
    zip: '64056'
  place: '2935000'
  geo:
    lat: 39.13726
    lng: -94.18614
  phone: 816-836-6350
  website: https://www.burrellcenter.com
  sources:
  - samhsa/findtreatment
  verified:
    'on': '2026-07-19'
    method: api
- id: mo/independence/brightli-comprehensive-mental-health-services
  name: Brightli Comprehensive Mental Health Services
  categories:
  - su-treatment
  - mh-treatment
  address:
    street: 17844 East 23rd Street
    city: Independence
    state: mo
    zip: '64057'
  place: '2935000'
  geo:
    lat: 39.07921
    lng: -94.37125
  phone: 816-254-3652
  website: https://www.burrellcenter.com
  sources:
  - samhsa/findtreatment
  verified:
    'on': '2026-07-19'
    method: api
- id: mo/independence/centerstone-comprehensive-mental-health-resid
  name: Centerstone Comprehensive Mental Health/Resid
  categories:
  - su-treatment
  - mh-treatment
  address:
    street: 4231 South Hocker Drive
    city: Independence
    state: mo
    zip: '64055'
  place: '2935000'
  geo:
    lat: 39.0431
    lng: -94.40798
  phone: 816-379-4265
  website: https://www.thecmhs.com
  sources:
  - samhsa/findtreatment
  verified:
    'on': '2026-07-19'
    method: api
- id: mo/independence/embark-behavioral-health-independence-str
  name: Embark Behavioral Health Independence STR
  categories:
  - su-treatment
  - mh-treatment
  address:
    street: 3205 North Twyman Road
    city: Independence
    state: mo
    zip: '64058'
  place: '2935000'
  geo:
    lat: 39.15528
    lng: -94.30248
  phone: 816-643-3058
  website: https://www.embarkbh.com/location/embark-behavioral-health
  sources:
  - samhsa/findtreatment
  verified:
    'on': '2026-07-19'
    method: api
- id: mo/independence/hanthorn
  name: Hanthorn
  categories:
  - child-care
  address:
    street: 1511 S Kings Hwy
    city: Independence
    state: mo
    zip: '64055'
  place: '2935000'
  geo:
    lat: 39.07215
    lng: -94.39682
  phone: 816-521-5485
  sources:
  - acf/head-start-locations
  verified:
    'on': '2026-07-19'
    method: api
- id: mo/independence/hcc-network-independence
  name: HCC Network - Independence
  categories:
  - community-health-center
  address:
    street: 17611 E US Highway 24
    city: Independence
    state: mo
    zip: '64056'
  place: '2935000'
  geo:
    lat: 39.12022
    lng: -94.36885
  phone: 877-344-3572
  website: https://hccnetwork.org/
  external_ids:
    bphc: BPS-H80-033948
  sources:
  - hrsa/health-center-sites
  verified:
    'on': '2026-07-19'
    method: api
- id: mo/independence/housing-authority-of-the-city-of-independence
  name: Housing Authority Of The City Of Independence
  categories:
  - housing-assistance
  address: {street: 4215 S Hocker Dr, city: Independence, state: mo, zip: '64055'}
  description: Public housing and Housing Choice Voucher agency
  place: '2935000'
  geo: {lat: 39.04423, lng: -94.41021}
  phone: 816-836-9200
  sources:
  - hud/resource-locator
  verified: {'on': '2026-07-19', method: api}
- id: mo/independence/korte
  name: Korte
  categories:
  - child-care
  address:
    street: 2437 S Hardy Ave
    city: Independence
    state: mo
    zip: '64052'
  place: '2935000'
  geo:
    lat: 39.07805
    lng: -94.4556
  phone: 816-521-5432
  sources:
  - acf/head-start-locations
  verified:
    'on': '2026-07-19'
    method: api
- id: mo/independence/midwest-adp
  name: Midwest ADP
  categories:
  - su-treatment
  address:
    street: 3923 South Lynn Court
    city: Independence
    state: mo
    zip: '64055'
  place: '2935000'
  geo:
    lat: 39.04928
    lng: -94.41637
  phone: 816-836-2220
  website: https://www.midwestadp.net
  sources:
  - samhsa/findtreatment
  verified:
    'on': '2026-07-19'
    method: api
- id: mo/independence/midwest-adp-kansas-city-site
  name: Midwest ADP Kansas City Site
  categories:
  - su-treatment
  address:
    street: 3923 South Lynn Court
    city: Independence
    state: mo
    zip: '64055'
  place: '2935000'
  phone: 816-836-2220
  website: https://www.midwestadp.net
  sources:
  - samhsa/findtreatment
  verified:
    'on': '2026-07-19'
    method: api
- id: mo/independence/midwest-adp-raymore-site-cip-outpatient
  name: Midwest ADP Raymore Site CIP/Outpatient
  categories:
  - su-treatment
  address:
    street: 3923 South Lynn Court
    city: Independence
    state: mo
    zip: '64055'
  place: '2935000'
  phone: 816-331-3090
  website: https://www.midwestadp.net
  sources:
  - samhsa/findtreatment
  verified:
    'on': '2026-07-19'
    method: api
- id: mo/independence/mill-creek
  name: Mill Creek
  categories:
  - child-care
  address:
    street: 2601 N Liberty St
    city: Independence
    state: mo
    zip: '64050'
  place: '2935000'
  geo:
    lat: 39.12456
    lng: -94.41606
  phone: 816-521-5422
  sources:
  - acf/head-start-locations
  verified:
    'on': '2026-07-19'
    method: api
- id: mo/independence/sunshine-center
  name: Sunshine Center
  categories:
  - child-care
  address:
    street: 18400 E Salisbury Rd
    city: Independence
    state: mo
    zip: '64056'
  place: '2935000'
  geo:
    lat: 39.10793
    lng: -94.36262
  phone: 816-521-5452
  sources:
  - acf/head-start-locations
  verified:
    'on': '2026-07-19'
    method: api
- id: mo/independence/swope-health-independence
  name: Swope Health Independence
  categories:
  - community-health-center
  address:
    street: 11320 E Truman Rd
    city: Independence
    state: mo
    zip: '64050'
  place: '2935000'
  geo:
    lat: 39.09533
    lng: -94.44334
  phone: 816-599-5200
  website: https://www.swopehealth.org
  external_ids:
    bphc: BPS-H80-011376
  sources:
  - hrsa/health-center-sites
  verified:
    'on': '2026-07-19'
    method: api
- id: mo/independence/truman-high-school
  name: Truman High School
  categories:
  - child-care
  address:
    street: 3301 S Noland Rd
    city: Independence
    state: mo
    zip: '64055'
  place: '2935000'
  geo:
    lat: 39.06007
    lng: -94.41242
  phone: 816-521-5350
  sources:
  - acf/head-start-locations
  verified:
    'on': '2026-07-19'
    method: api
- id: mo/independence/walnut-gardens-little-free-pantry
  name: Walnut Gardens Little Free Pantry
  categories:
  - food-pantry
  place: '2935000'
  geo:
    lat: 39.06171
    lng: -94.35463
  external_ids:
    lfp: '2331'
  sources:
  - littlefreepantry/map
  verified:
    'on': '2026-07-19'
    method: scrape
- id: mo/independence/william-southern
  name: William Southern
  categories:
  - child-care
  address:
    street: 4300 S Phelps Rd
    city: Independence
    state: mo
    zip: '64055'
  place: '2935000'
  geo:
    lat: 39.04143
    lng: -94.40282
  phone: 816-521-5477
  sources:
  - acf/head-start-locations
  verified:
    'on': '2026-07-19'
    method: api
