- id: mo/liberty/burrell-inc-centerstone-of-missouri
  name: Burrell Inc Centerstone of Missouri
  categories:
  - su-treatment
  address:
    street: 7 Westowne Street
    city: Liberty
    state: mo
    zip: '64068'
  place: '2942032'
  geo:
    lat: 39.2462
    lng: -94.43912
  phone: 816-407-1754
  website: https://www.pfh.org
  services:
  - Outpatient
  - Intensive outpatient treatment
  - Outpatient methadone/buprenorphine or naltrexone treatment
  - Regular outpatient treatment
  - Adolescents
  - Adult women
  - Adult men
  - Clients who have experienced trauma
  cost: sliding-scale
  sources:
  - samhsa/findtreatment
  verified:
    'on': '2026-07-19'
    method: api
- id: mo/liberty/clay-meadows-neighborhood-pantry
  name: Clay Meadows Neighborhood Pantry
  categories:
  - food-pantry
  place: '2942032'
  geo:
    lat: 39.23464
    lng: -94.40378
  external_ids:
    lfp: '3803'
  sources:
  - littlefreepantry/map
  verified:
    'on': '2026-07-19'
    method: scrape
- id: mo/liberty/community-little-free-pantry
  name: Community Little Free Pantry
  categories:
  - food-pantry
  place: '2942032'
  geo:
    lat: 39.24816
    lng: -94.42127
  external_ids:
    lfp: '736'
  sources:
  - littlefreepantry/map
  verified:
    'on': '2026-07-19'
    method: scrape
- id: mo/liberty/first-presbyterian-church
  name: First Presbyterian Church
  categories:
  - food-pantry
  place: '2942032'
  geo:
    lat: 39.24804
    lng: -94.4206
  external_ids:
    lfp: '4139'
  sources:
  - littlefreepantry/map
  verified:
    'on': '2026-07-19'
    method: scrape
- id: mo/liberty/first-presbyterian-church-of-liberty
  name: First Presbyterian Church of Liberty
  categories:
  - food-pantry
  place: '2942032'
  geo:
    lat: 39.24779
    lng: -94.42058
  external_ids:
    lfp: '2380'
  sources:
  - littlefreepantry/map
  verified:
    'on': '2026-07-19'
    method: scrape
- id: mo/liberty/heartland-center-for-behavioral-change-liberty-o
  name: Heartland Center for Behavioral Change Liberty Outpatient Clinic
  categories:
  - su-treatment
  - mh-treatment
  address:
    street: 1205 West College Street
    city: Liberty
    state: mo
    zip: '64068'
  place: '2942032'
  geo:
    lat: 39.24737
    lng: -94.4432
  phone: 816-214-9110
  website: https://Heartlandcbc.org
  services:
  - Outpatient
  - Intensive outpatient treatment
  - Outpatient methadone/buprenorphine or naltrexone treatment
  - Regular outpatient treatment
  - Criminal justice (other than DUI/DWI)/Forensic clients
  - Clients with co-occurring mental and substance use disorders
  cost: sliding-scale
  sources:
  - samhsa/findtreatment
  verified:
    'on': '2026-07-19'
    method: api
- id: mo/liberty/liberty-housing-authority
  name: Liberty Housing Authority
  categories:
  - housing-assistance
  address:
    street: 8 Westowne St Ste 800
    city: Liberty
    state: mo
    zip: '64068'
  description: Housing Choice Voucher (Section 8) agency
  place: '2942032'
  geo:
    lat: 39.24638
    lng: -94.43916
  phone: 816-792-1113
  sources:
  - hud/resource-locator
  verified:
    'on': '2026-07-19'
    method: api
- id: mo/liberty/little-free-library-and-pantry-liberty-mo
  name: Little Free Library and Pantry Liberty,  MO
  categories:
  - food-pantry
  place: '2942032'
  geo:
    lat: 39.24705
    lng: -94.41722
  external_ids:
    lfp: '17'
  sources:
  - littlefreepantry/map
  verified:
    'on': '2026-07-19'
    method: scrape
- id: mo/liberty/little-free-pantry
  name: little FREE pantry
  categories:
  - food-pantry
  place: '2942032'
  geo:
    lat: 39.23475
    lng: -94.43076
  external_ids:
    lfp: '227'
  sources:
  - littlefreepantry/map
  verified:
    'on': '2026-07-19'
    method: scrape
- id: mo/liberty/mill-street-pantry
  name: Mill Street Pantry
  categories:
  - food-pantry
  place: '2942032'
  geo:
    lat: 39.24453
    lng: -94.41246
  external_ids:
    lfp: '3805'
  sources:
  - littlefreepantry/map
  verified:
    'on': '2026-07-19'
    method: scrape
- id: mo/liberty/onechurch-little-free-pantry
  name: OneChurch Little Free Pantry
  categories:
  - food-pantry
  place: '2942032'
  geo:
    lat: 39.23476
    lng: -94.43074
  external_ids:
    lfp: '5741'
  sources:
  - littlefreepantry/map
  verified:
    'on': '2026-07-19'
    method: scrape
- id: mo/liberty/samuel-u-rodgers-health-center-clay-county-famil
  name: Samuel U. Rodgers Health Center Clay County Family Medicine & Dental
  categories:
  - community-health-center
  cost: sliding-scale
  address: {street: 800 Haines, city: Liberty, state: mo, zip: '64068'}
  place: '2942032'
  geo: {lat: 39.25709, lng: -94.4515}
  phone: 816-595-4200
  website: https://www.rodgershealth.org
  external_ids: {bphc: BPS-H80-008122}
  sources:
  - hrsa/health-center-sites
  verified: {'on': '2026-07-19', method: api}
