- id: mo/memphis/housing-authority-of-the-city-of-memphis
  name: Housing Authority Of The City Of Memphis
  categories:
  - housing-assistance
  address:
    street: 31 Cornelius Ave
    city: Memphis
    state: mo
    zip: '63555'
  description: Public housing (Low-Rent) agency
  place: '2947270'
  geo:
    lat: 40.46626
    lng: -92.17865
  phone: 660-465-2261
  sources:
  - hud/resource-locator
  verified:
    'on': '2026-07-19'
    method: api
- id: mo/memphis/memphis-community-health-center
  name: Memphis Community Health Center
  categories:
  - community-health-center
  address:
    street: 118 E Grand Ave
    city: Memphis
    state: mo
    zip: '63555'
  place: '2947270'
  geo:
    lat: 40.45145
    lng: -92.16842
  phone: 660-627-5757
  external_ids:
    bphc: BPS-H80-036365
  sources:
  - hrsa/health-center-sites
  verified:
    'on': '2026-07-19'
    method: api
- id: mo/memphis/memphis-head-start-center
  name: Memphis Head Start Center
  categories:
  - child-care
  address:
    street: 238 N Johnson St
    city: Memphis
    state: mo
    zip: '63555'
  place: '2947270'
  geo:
    lat: 40.4605
    lng: -92.16755
  phone: 660-465-2514
  sources:
  - acf/head-start-locations
  verified:
    'on': '2026-07-19'
    method: api
- id: mo/memphis/scotland-co-elementary-school
  name: Scotland Co. Elementary School
  categories:
  - meal-program
  address:
    street: 606 West Lovers Lane
    city: Memphis
    state: mo
    zip: '63555'
  description: Free summer meals for kids and teens (2026 season) — sponsored by Scotland County R-I.
  place: '2947270'
  geo:
    lat: 40.47146
    lng: -92.17792
  phone: (660) 465-8531
  external_ids:
    usda_master: Cycle 04_MO_SFSP_0725
  sources:
  - usda/summer-meal-sites
  verified:
    'on': '2026-07-19'
    method: api
- id: mo/memphis/scotland-county-public-housing-agency
  name: Scotland County Public Housing Agency
  categories:
  - housing-assistance
  address:
    street: 121 S Cecil St
    city: Memphis
    state: mo
    zip: '63555'
  description: Housing Choice Voucher (Section 8) agency
  place: '2947270'
  geo:
    lat: 40.45841
    lng: -92.17361
  phone: 660-465-7281
  sources:
  - hud/resource-locator
  verified:
    'on': '2026-07-19'
    method: api
