- id: mo/noel/noel-early-head-start
  name: Noel Early Head Start
  categories:
  - child-care
  address:
    street: 628 Johnson Dr
    city: Noel
    state: mo
    zip: '64854'
  place: '2952742'
  geo:
    lat: 36.53705
    lng: -94.48532
  phone: 417-627-2020
  sources:
  - acf/head-start-locations
  verified:
    'on': '2026-07-19'
    method: api
- id: mo/noel/noel-elementary-and-middle-school
  name: Noel Elementary and Middle school
  categories:
  - community-health-center
  cost: sliding-scale
  address:
    street: 318 Sulphur St
    city: Noel
    state: mo
    zip: '64854'
  place: '2952742'
  geo:
    lat: 36.53957
    lng: -94.48468
  phone: 417-782-6200
  external_ids:
    bphc: BPS-H80-033625
  sources:
  - hrsa/health-center-sites
  verified:
    'on': '2026-07-19'
    method: api
- id: mo/noel/noel-elementary-jr-high-school
  name: Noel Elementary/Jr. High School
  categories:
  - meal-program
  address: {street: 318 Sulphur Street, city: Noel, state: mo, zip: '64854'}
  description: Free summer meals for kids and teens (2026 season) — sponsored by McDonald County R-I School.
  place: '2952742'
  geo: {lat: 36.53887, lng: -94.48566}
  phone: (417) 475-3202
  external_ids: {usda_master: Cycle 02_MO_SFSP_0116}
  sources:
  - usda/summer-meal-sites
  verified: {'on': '2026-07-19', method: api}
- id: mo/noel/noel-elementary-jr-high-school-weekend-non-congr
  name: Noel Elementary/Jr. High School - Weekend Non-Congregate
  categories:
  - meal-program
  address: {street: 318 Sulphur Street, city: Noel, state: mo, zip: '64854'}
  description: Free summer meals for kids and teens (2026 season) — sponsored by McDonald County R-I School.
  place: '2952742'
  geo: {lat: 36.53887, lng: -94.48566}
  phone: (417) 845-3111
  external_ids: {usda_master: Cycle 04_MO_SFSP_0416}
  sources:
  - usda/summer-meal-sites
  verified: {'on': '2026-07-19', method: api}
- id: mo/noel/noel-housing-authority
  name: Noel Housing Authority
  categories:
  - housing-assistance
  address:
    street: 624 Johnson Dr
    city: Noel
    state: mo
    zip: '64854'
  description: Public housing (Low-Rent) agency
  place: '2952742'
  geo:
    lat: 36.53711
    lng: -94.48524
  phone: 417-475-3195
  sources:
  - hud/resource-locator
  verified:
    'on': '2026-07-19'
    method: api
- id: mo/noel/noel-primary-school
  name: Noel Primary School
  categories:
  - community-health-center
  cost: sliding-scale
  address:
    street: 14762 W State Highway 90
    city: Noel
    state: mo
    zip: '64854'
  place: '2952742'
  geo:
    lat: 36.5455
    lng: -94.52329
  phone: 417-782-6200
  website: https://www.accessfamilycare.org
  external_ids:
    bphc: BPS-H80-033624
  sources:
  - hrsa/health-center-sites
  verified:
    'on': '2026-07-19'
    method: api
- id: mo/noel/noel-primary-school-2
  name: Noel Primary School
  categories:
  - meal-program
  address: {street: 14762 W. State Hwy 90, city: Noel, state: mo, zip: '64854'}
  description: Free summer meals for kids and teens (2026 season) — sponsored by McDonald County R-I School.
  place: '2952742'
  geo: {lat: 36.54549, lng: -94.52352}
  phone: (417) 475-3900
  external_ids: {usda_master: Cycle 02_MO_SFSP_0117}
  sources:
  - usda/summer-meal-sites
  verified: {'on': '2026-07-19', method: api}
- id: mo/noel/noel-xd-head-start-early-head-start
  name: Noel XD Head Start/Early Head Start
  categories:
  - child-care
  address:
    street: 628 Johnson Dr
    city: Noel
    state: mo
    zip: '64854'
  place: '2952742'
  geo:
    lat: 36.53805
    lng: -94.48586
  phone: 417-627-2020
  sources:
  - acf/head-start-locations
  verified:
    'on': '2026-07-19'
    method: api
