- id: mo/osage-beach/center-for-behavioral-health
  name: Center for Behavioral Health
  categories:
  - su-treatment
  - mh-treatment
  address:
    street: 840 Passover Road
    city: Osage Beach
    state: mo
    zip: '65065'
  place: '2955244'
  geo:
    lat: 38.13441
    lng: -92.62879
  phone: 573-302-0319
  website: https://www.osagebeachccd.com
  sources:
  - samhsa/findtreatment
  verified:
    'on': '2026-07-19'
    method: api
- id: mo/osage-beach/central-ozarks-medical-center
  name: Central Ozarks Medical Center
  categories:
  - community-health-center
  address:
    street: 3870 Columbia Ave
    city: Osage Beach
    state: mo
    zip: '65065'
  place: '2955244'
  geo:
    lat: 38.16038
    lng: -92.60125
  phone: 573-302-7490
  website: https://www.centralozarksmedicalcenter.com
  external_ids:
    bphc: BPS-H80-008346
  sources:
  - hrsa/health-center-sites
  verified:
    'on': '2026-07-19'
    method: api
- id: mo/osage-beach/comc-hy-vee-clinic
  name: COMC Hy-Vee Clinic
  categories:
  - community-health-center
  address:
    street: 931 Highway D
    city: Osage Beach
    state: mo
    zip: '65065'
  place: '2955244'
  geo:
    lat: 38.16238
    lng: -92.60477
  phone: 877-406-2662
  external_ids:
    bphc: BPS-H80-040242
  sources:
  - hrsa/health-center-sites
  verified:
    'on': '2026-07-19'
    method: api
- id: mo/osage-beach/compass-health
  name: Compass Health
  categories:
  - su-treatment
  - mh-treatment
  address:
    street: 980 Parkside Villiage
    city: Osage Beach
    state: mo
    zip: '65065'
  place: '2955244'
  geo:
    lat: 38.12024
    lng: -92.67692
  phone: 573-302-7368
  website: https://www.compasshealthnetwork.org
  sources:
  - samhsa/findtreatment
  verified:
    'on': '2026-07-19'
    method: api
- id: mo/osage-beach/osage-middle-school
  name: Osage Middle School
  categories:
  - meal-program
  address:
    street: 635 Highway 42
    city: Osage Beach
    state: mo
    zip: '65065'
  description: Free summer meals for kids and teens (2026 season) — sponsored by School of the Osage.
  place: '2955244'
  geo:
    lat: 38.1462
    lng: -92.59272
  phone: (573) 365-5341
  external_ids:
    usda_master: Cycle 02_MO_SFSP_0240
  sources:
  - usda/summer-meal-sites
  verified:
    'on': '2026-07-19'
    method: api
- id: mo/osage-beach/upper-elementary
  name: Upper Elementary
  categories:
  - meal-program
  address:
    street: 626 Hwy 42
    city: Osage Beach
    state: mo
    zip: '65065'
  description: Free summer meals for kids and teens (2026 season) — sponsored by School of the Osage.
  place: '2955244'
  geo:
    lat: 38.14496
    lng: -92.59165
  phone: (573) 552-8870
  external_ids:
    usda_master: Cycle 02_MO_SFSP_0241
  sources:
  - usda/summer-meal-sites
  verified:
    'on': '2026-07-19'
    method: api
