- id: mo/potosi/great-mines-health-center
  name: Great Mines Health Center
  categories:
  - community-health-center
  address:
    street: 1 Southtowne Dr
    city: Potosi
    state: mo
    zip: '63664'
  place: '2959330'
  geo:
    lat: 37.91999
    lng: -90.77432
  phone: 573-438-9355
  website: https://GMHCenter.org
  external_ids:
    bphc: BPS-H80-008879
  sources:
  - hrsa/health-center-sites
  verified:
    'on': '2026-07-19'
    method: api
- id: mo/potosi/great-mines-health-center-mobile-clinic
  name: Great Mines Health Center Mobile Clinic
  categories:
  - community-health-center
  address:
    street: 1 Southtowne Dr
    city: Potosi
    state: mo
    zip: '63664'
  place: '2959330'
  geo:
    lat: 37.91999
    lng: -90.77432
  phone: 573-438-9355
  external_ids:
    bphc: BPS-H80-030522
  sources:
  - hrsa/health-center-sites
  verified:
    'on': '2026-07-19'
    method: api
- id: mo/potosi/great-mines-health-center-mobile-clinic-2
  name: Great Mines Health Center Mobile Clinic 2
  categories:
  - community-health-center
  address:
    street: 1 Southtowne Dr
    city: Potosi
    state: mo
    zip: '63664'
  place: '2959330'
  geo:
    lat: 37.91999
    lng: -90.77432
  phone: 573-438-8380
  external_ids:
    bphc: BPS-H80-032936
  sources:
  - hrsa/health-center-sites
  verified:
    'on': '2026-07-19'
    method: api
- id: mo/potosi/housing-authority-of-the-city-of-potosi
  name: Housing Authority Of The City Of Potosi
  categories:
  - housing-assistance
  address: {street: 103 W Citadel Dr, city: Potosi, state: mo, zip: '63664'}
  description: Public housing (Low-Rent) agency
  place: '2959330'
  geo: {lat: 37.93415, lng: -90.78942}
  phone: 573-438-2362
  sources:
  - hud/resource-locator
  verified: {'on': '2026-07-19', method: api}
- id: mo/potosi/john-a-evans-middle-school
  name: John A. Evans Middle School
  categories:
  - community-health-center
  address:
    street: 303 S Lead St
    city: Potosi
    state: mo
    zip: '63664'
  place: '2959330'
  geo:
    lat: 37.93737
    lng: -90.79377
  phone: 573-438-9355
  external_ids:
    bphc: BPS-H80-040926
  sources:
  - hrsa/health-center-sites
  verified:
    'on': '2026-07-19'
    method: api
- id: mo/potosi/potosi-elementary-school
  name: Potosi Elementary School
  categories:
  - community-health-center
  address:
    street: 205 State Highway P
    city: Potosi
    state: mo
    zip: '63664'
  place: '2959330'
  geo:
    lat: 37.92537
    lng: -90.77822
  phone: 573-438-9355
  external_ids:
    bphc: BPS-H80-040913
  sources:
  - hrsa/health-center-sites
  verified:
    'on': '2026-07-19'
    method: api
- id: mo/potosi/potosi-high-school
  name: Potosi High School
  categories:
  - community-health-center
  address:
    street: 1 Trojan Dr
    city: Potosi
    state: mo
    zip: '63664'
  place: '2959330'
  geo:
    lat: 37.93523
    lng: -90.79049
  phone: 573-438-9355
  external_ids:
    bphc: BPS-H80-040927
  sources:
  - hrsa/health-center-sites
  verified:
    'on': '2026-07-19'
    method: api
- id: mo/potosi/trojan-intermediate-school
  name: Trojan Intermediate School
  categories:
  - community-health-center
  address:
    street: 367 Intermediate Dr
    city: Potosi
    state: mo
    zip: '63664'
  place: '2959330'
  geo:
    lat: 37.93602
    lng: -90.793
  phone: 573-438-9355
  external_ids:
    bphc: BPS-H80-040928
  sources:
  - hrsa/health-center-sites
  verified:
    'on': '2026-07-19'
    method: api
