- id: mo/potosi/alternative-boys-home-ranch-building
  name: Alternative Boys Home Ranch Building
  categories:
  - meal-program
  address: {street: 1 Trojan Drive, city: Potosi, state: mo, zip: '63664'}
  description: Free summer meals for kids and teens (2026 season) — sponsored by Potosi R-3 School District.
  place: '2959330'
  geo: {lat: 37.93587, lng: -90.79176}
  phone: (573) 438-2156
  external_ids: {usda_master: Cycle 02_MO_SFSP_0172}
  sources:
  - usda/summer-meal-sites
  verified: {'on': '2026-07-19', method: api}
- id: mo/potosi/citadel-state-school
  name: Citadel State School
  categories:
  - meal-program
  address: {street: 400 S Mine, city: Potosi, state: mo, zip: '63664'}
  description: Free summer meals for kids and teens (2026 season) — sponsored by Potosi R-3 School District.
  place: '2959330'
  geo: {lat: 37.93408, lng: -90.79159}
  phone: (573) 438-2472
  external_ids: {usda_master: Cycle 02_MO_SFSP_0173}
  sources:
  - usda/summer-meal-sites
  verified: {'on': '2026-07-19', method: api}
- id: mo/potosi/great-mines-health-center
  name: Great Mines Health Center
  categories:
  - community-health-center
  cost: sliding-scale
  address:
    street: 1 Southtowne Dr
    city: Potosi
    state: mo
    zip: '63664'
  place: '2959330'
  geo:
    lat: 37.91999
    lng: -90.77432
  phone: 573-438-9355
  website: https://GMHCenter.org
  external_ids:
    bphc: BPS-H80-008879
  sources:
  - hrsa/health-center-sites
  verified:
    'on': '2026-07-19'
    method: api
- id: mo/potosi/great-mines-health-center-mobile-clinic
  name: Great Mines Health Center Mobile Clinic
  categories:
  - community-health-center
  cost: sliding-scale
  address:
    street: 1 Southtowne Dr
    city: Potosi
    state: mo
    zip: '63664'
  place: '2959330'
  geo:
    lat: 37.91999
    lng: -90.77432
  phone: 573-438-9355
  external_ids:
    bphc: BPS-H80-030522
  sources:
  - hrsa/health-center-sites
  verified:
    'on': '2026-07-19'
    method: api
- id: mo/potosi/great-mines-health-center-mobile-clinic-2
  name: Great Mines Health Center Mobile Clinic 2
  categories:
  - community-health-center
  cost: sliding-scale
  address:
    street: 1 Southtowne Dr
    city: Potosi
    state: mo
    zip: '63664'
  place: '2959330'
  geo:
    lat: 37.91999
    lng: -90.77432
  phone: 573-438-8380
  external_ids:
    bphc: BPS-H80-032936
  sources:
  - hrsa/health-center-sites
  verified:
    'on': '2026-07-19'
    method: api
- id: mo/potosi/housing-authority-of-the-city-of-potosi
  name: Housing Authority Of The City Of Potosi
  categories:
  - housing-assistance
  address:
    street: 103 W Citadel Dr
    city: Potosi
    state: mo
    zip: '63664'
  description: Public housing (Low-Rent) agency
  place: '2959330'
  geo:
    lat: 37.93415
    lng: -90.78942
  phone: 573-438-2362
  sources:
  - hud/resource-locator
  verified:
    'on': '2026-07-19'
    method: api
- id: mo/potosi/john-a-evans-middle-school
  name: John A. Evans Middle School
  categories:
  - community-health-center
  cost: sliding-scale
  address:
    street: 303 S Lead St
    city: Potosi
    state: mo
    zip: '63664'
  place: '2959330'
  geo:
    lat: 37.93737
    lng: -90.79377
  phone: 573-438-9355
  external_ids:
    bphc: BPS-H80-040926
  sources:
  - hrsa/health-center-sites
  verified:
    'on': '2026-07-19'
    method: api
- id: mo/potosi/john-evans-middle-school
  name: John Evans Middle School
  categories:
  - meal-program
  address: {street: 303 S Lead Street, city: Potosi, state: mo, zip: '63664'}
  description: Free summer meals for kids and teens (2026 season) — sponsored by Potosi R-3 School District.
  place: '2959330'
  geo: {lat: 37.93701, lng: -90.79358}
  phone: (573) 438-2101
  external_ids: {usda_master: Cycle 02_MO_SFSP_0174}
  sources:
  - usda/summer-meal-sites
  verified: {'on': '2026-07-19', method: api}
- id: mo/potosi/potosi-elementary
  name: Potosi Elementary
  categories:
  - meal-program
  address: {street: 205 State Highway P, city: Potosi, state: mo, zip: '63664'}
  description: Free summer meals for kids and teens (2026 season) — sponsored by Potosi R-3 School District.
  place: '2959330'
  geo: {lat: 37.92537, lng: -90.77822}
  phone: (573) 438-2223
  external_ids: {usda_master: Cycle 02_MO_SFSP_0175}
  sources:
  - usda/summer-meal-sites
  verified: {'on': '2026-07-19', method: api}
- id: mo/potosi/potosi-elementary-school
  name: Potosi Elementary School
  categories:
  - community-health-center
  cost: sliding-scale
  address:
    street: 205 State Highway P
    city: Potosi
    state: mo
    zip: '63664'
  place: '2959330'
  geo:
    lat: 37.92537
    lng: -90.77822
  phone: 573-438-9355
  external_ids:
    bphc: BPS-H80-040913
  sources:
  - hrsa/health-center-sites
  verified:
    'on': '2026-07-19'
    method: api
- id: mo/potosi/potosi-high-school
  name: Potosi High School
  categories:
  - community-health-center
  cost: sliding-scale
  address:
    street: 1 Trojan Dr
    city: Potosi
    state: mo
    zip: '63664'
  place: '2959330'
  geo:
    lat: 37.93523
    lng: -90.79049
  phone: 573-438-9355
  external_ids:
    bphc: BPS-H80-040927
  sources:
  - hrsa/health-center-sites
  verified:
    'on': '2026-07-19'
    method: api
- id: mo/potosi/potosi-high-school-2
  name: Potosi High School
  categories:
  - meal-program
  address: {street: 1 Trojan Drive, city: Potosi, state: mo, zip: '63664'}
  description: Free summer meals for kids and teens (2026 season) — sponsored by Potosi R-3 School District.
  place: '2959330'
  geo: {lat: 37.93587, lng: -90.79176}
  phone: (573) 438-2156
  external_ids: {usda_master: Cycle 02_MO_SFSP_0176}
  sources:
  - usda/summer-meal-sites
  verified: {'on': '2026-07-19', method: api}
- id: mo/potosi/trojan-intermediate-school
  name: Trojan Intermediate School
  categories:
  - community-health-center
  cost: sliding-scale
  address:
    street: 367 Intermediate Dr
    city: Potosi
    state: mo
    zip: '63664'
  place: '2959330'
  geo:
    lat: 37.93602
    lng: -90.793
  phone: 573-438-9355
  external_ids:
    bphc: BPS-H80-040928
  sources:
  - hrsa/health-center-sites
  verified:
    'on': '2026-07-19'
    method: api
- id: mo/potosi/trojan-intermediate-school-2
  name: Trojan Intermediate School
  categories:
  - meal-program
  address: {street: 367 Intermediate Drive, city: Potosi, state: mo, zip: '63664'}
  description: Free summer meals for kids and teens (2026 season) — sponsored by Potosi R-3 School District.
  place: '2959330'
  geo: {lat: 37.9363, lng: -90.79391}
  phone: (573) 436-8108
  external_ids: {usda_master: Cycle 02_MO_SFSP_0177}
  sources:
  - usda/summer-meal-sites
  verified: {'on': '2026-07-19', method: api}
