- id: mo/raytown/blue-ridge-elementary
  name: Blue Ridge Elementary
  categories:
  - meal-program
  address:
    street: 6410 Blue Ridge Blvd
    city: Raytown
    state: mo
    zip: '64133'
  description: Free summer meals for kids and teens (2026 season) — sponsored by Raytown C-2 School District.
  place: '2960788'
  geo:
    lat: 39.00731
    lng: -94.47675
  phone: (816) 268-4055
  external_ids:
    usda_master: Cycle 04_MO_SFSP_0593
  sources:
  - usda/summer-meal-sites
  verified:
    'on': '2026-07-19'
    method: api
- id: mo/raytown/brooking-heights-baptist
  name: Brooking Heights Baptist
  org: mo/harvesters-the-community-food-network
  categories:
  - food-pantry
  address:
    street: 9500 E 53rd Street
    city: Raytown
    state: mo
    zip: '64133'
  place: '2960788'
  phone: 816-356-3007
  sources:
  - foodbank/mo-harvesters-the-community-food-network
  verified:
    'on': '2026-07-21'
    method: scrape
  geo: {lat: 39.02702, lng: -94.46833}
- id: mo/raytown/good-shepherd-community-of-christ
  name: Good Shepherd Community of Christ
  categories:
  - food-pantry
  place: '2960788'
  geo:
    lat: 39.04222
    lng: -94.43644
  website: https://mapping.littlefreepantry.org/pantry/3142
  external_ids:
    lfp: '3142'
  sources:
  - littlefreepantry/map
  verified:
    'on': '2026-07-19'
    method: scrape
- id: mo/raytown/hope-network-of-raytown
  name: Hope Network of Raytown
  org: mo/harvesters-the-community-food-network
  categories:
  - food-pantry
  address:
    street: 10500 East 350 Highway
    city: Raytown
    state: mo
    zip: '64138'
  place: '2960788'
  phone: 816-778-1105
  sources:
  - foodbank/mo-harvesters-the-community-food-network
  verified:
    'on': '2026-07-21'
    method: scrape
  geo: {lat: 38.98542, lng: -94.45892}
- id: mo/raytown/hope-network-raytown
  name: Hope Network Raytown
  org: mo/harvesters-the-community-food-network
  categories:
  - food-pantry
  address:
    street: 10500 Missouri 350
    city: Raytown
    state: mo
    zip: '64138'
  place: '2960788'
  phone: 816-778-1105
  sources:
  - foodbank/mo-harvesters-the-community-food-network
  verified:
    'on': '2026-07-21'
    method: scrape
  geo: {lat: 38.98542, lng: -94.45892}
- id: mo/raytown/icna-relief
  name: ICNA Relief
  org: mo/harvesters-the-community-food-network
  categories:
  - food-pantry
  address:
    street: 5310 Blue Ridge Cuttoff
    city: Raytown
    state: mo
    zip: '64133'
  place: '2960788'
  phone: 785-969-1587
  sources:
  - foodbank/mo-harvesters-the-community-food-network
  verified:
    'on': '2026-07-21'
    method: scrape
  geo: {lat: 39.02494, lng: -94.44396}
- id: mo/raytown/raytown-emergency-assistance
  name: Raytown Emergency Assistance
  org: mo/harvesters-the-community-food-network
  categories:
  - food-pantry
  address:
    street: 9300 E 75th Street
    city: Raytown
    state: mo
    zip: '64138'
  place: '2960788'
  phone: 816-356-0054
  sources:
  - foodbank/mo-harvesters-the-community-food-network
  verified:
    'on': '2026-07-21'
    method: scrape
  geo: {lat: 38.98754, lng: -94.47339}
- id: mo/raytown/raytown-mobile-distribution
  name: Raytown Mobile Distribution
  org: mo/harvesters-the-community-food-network
  categories:
  - food-pantry
  address:
    street: 10750 E 350 Highway
    city: Raytown
    state: mo
    zip: '64138'
  place: '2960788'
  phone: 816-772-3398
  sources:
  - foodbank/mo-harvesters-the-community-food-network
  verified:
    'on': '2026-07-21'
    method: scrape
  geo: {lat: 38.98542, lng: -94.45892}
- id: mo/raytown/raytown-south-high
  name: Raytown South High
  categories:
  - meal-program
  address:
    street: 8211 Sterling Ave
    city: Raytown
    state: mo
    zip: '64138'
  description: Free summer meals for kids and teens (2026 season) — sponsored by Raytown C-2 School District.
  place: '2960788'
  geo:
    lat: 38.9718
    lng: -94.45044
  phone: (816) 268-7076
  external_ids:
    usda_master: Cycle 04_MO_SFSP_0598
  sources:
  - usda/summer-meal-sites
  verified:
    'on': '2026-07-19'
    method: api
- id: mo/raytown/southwood-elementary
  name: Southwood Elementary
  categories:
  - meal-program
  address:
    street: 8015 Raytown Road
    city: Raytown
    state: mo
    zip: '64138'
  description: Free summer meals for kids and teens (2026 season) — sponsored by Raytown C-2 School District.
  place: '2960788'
  geo:
    lat: 38.97671
    lng: -94.46482
  phone: (816) 268-7076
  external_ids:
    usda_master: Cycle 04_MO_SFSP_0599
  sources:
  - usda/summer-meal-sites
  verified:
    'on': '2026-07-19'
    method: api
- id: mo/raytown/spring-valley
  name: Spring Valley
  categories:
  - meal-program
  address:
    street: 8838 E. 83 Rd St.
    city: Raytown
    state: mo
    zip: '64138'
  description: Free summer meals for kids and teens (2026 season) — sponsored by Raytown C-2 School District.
  place: '2960788'
  geo:
    lat: 38.97316
    lng: -94.48029
  phone: (816) 268-7076
  external_ids:
    usda_master: Cycle 04_MO_SFSP_0600
  sources:
  - usda/summer-meal-sites
  verified:
    'on': '2026-07-19'
    method: api
- id: mo/raytown/three-trails-preschool
  name: Three Trails Preschool
  categories:
  - child-care
  address:
    street: 8812 E Gregory Blvd
    city: Raytown
    state: mo
    zip: '64133'
  description: Head Start early childhood program — 83 funded slots; operated by Mid America Regional
    Council.
  place: '2960788'
  geo:
    lat: 38.99633
    lng: -94.48204
  phone: 816-268-2145
  sources:
  - acf/head-start-locations
  verified:
    'on': '2026-07-19'
    method: api
- id: mo/raytown/woods-chapel-umc-raytown-chapel-kitchen
  name: Woods Chapel UMC- Raytown Chapel Kitchen
  org: mo/harvesters-the-community-food-network
  categories:
  - meal-program
  address:
    street: 5413 Blue Ridge Cutoff
    city: Raytown
    state: mo
    zip: '64133'
  place: '2960788'
  phone: 816-898-9520
  sources:
  - foodbank/mo-harvesters-the-community-food-network
  verified:
    'on': '2026-07-21'
    method: scrape
  geo: {lat: 39.02568, lng: -94.48123}
- id: mo/raytown/woods-chapel-umc-raytown-chapel-pantry
  name: Woods Chapel UMC - Raytown Chapel Pantry
  org: mo/harvesters-the-community-food-network
  categories:
  - food-pantry
  address:
    street: 5413 Blue Ridge Cutoff
    city: Raytown
    state: mo
    zip: '64133'
  place: '2960788'
  phone: 816-560-4814
  sources:
  - foodbank/mo-harvesters-the-community-food-network
  verified:
    'on': '2026-07-21'
    method: scrape
  geo: {lat: 39.02568, lng: -94.48123}
