- id: mo/raytown/blue-ridge-elementary
  name: Blue Ridge Elementary
  categories:
  - meal-program
  address: {street: 6410 Blue Ridge Blvd, city: Raytown, state: mo, zip: '64133'}
  description: Free summer meals for kids and teens (2026 season) — sponsored by Raytown C-2 School District.
  place: '2960788'
  geo: {lat: 39.00731, lng: -94.47675}
  phone: (816) 268-4055
  external_ids: {usda_master: Cycle 04_MO_SFSP_0593}
  sources:
  - usda/summer-meal-sites
  verified: {'on': '2026-07-19', method: api}
- id: mo/raytown/good-shepherd-community-of-christ
  name: Good Shepherd Community of Christ
  categories:
  - food-pantry
  place: '2960788'
  geo:
    lat: 39.04222
    lng: -94.43644
  external_ids:
    lfp: '3142'
  sources:
  - littlefreepantry/map
  verified:
    'on': '2026-07-19'
    method: scrape
- id: mo/raytown/raytown-south-high
  name: Raytown South High
  categories:
  - meal-program
  address: {street: 8211 Sterling Ave, city: Raytown, state: mo, zip: '64138'}
  description: Free summer meals for kids and teens (2026 season) — sponsored by Raytown C-2 School District.
  place: '2960788'
  geo: {lat: 38.9718, lng: -94.45044}
  phone: (816) 268-7076
  external_ids: {usda_master: Cycle 04_MO_SFSP_0598}
  sources:
  - usda/summer-meal-sites
  verified: {'on': '2026-07-19', method: api}
- id: mo/raytown/southwood-elementary
  name: Southwood Elementary
  categories:
  - meal-program
  address: {street: 8015 Raytown Road, city: Raytown, state: mo, zip: '64138'}
  description: Free summer meals for kids and teens (2026 season) — sponsored by Raytown C-2 School District.
  place: '2960788'
  geo: {lat: 38.97671, lng: -94.46482}
  phone: (816) 268-7076
  external_ids: {usda_master: Cycle 04_MO_SFSP_0599}
  sources:
  - usda/summer-meal-sites
  verified: {'on': '2026-07-19', method: api}
- id: mo/raytown/spring-valley
  name: Spring Valley
  categories:
  - meal-program
  address: {street: 8838 E. 83 Rd St., city: Raytown, state: mo, zip: '64138'}
  description: Free summer meals for kids and teens (2026 season) — sponsored by Raytown C-2 School District.
  place: '2960788'
  geo: {lat: 38.97316, lng: -94.48029}
  phone: (816) 268-7076
  external_ids: {usda_master: Cycle 04_MO_SFSP_0600}
  sources:
  - usda/summer-meal-sites
  verified: {'on': '2026-07-19', method: api}
- id: mo/raytown/three-trails-preschool
  name: Three Trails Preschool
  categories:
  - child-care
  address:
    street: 8812 E Gregory Blvd
    city: Raytown
    state: mo
    zip: '64133'
  place: '2960788'
  geo:
    lat: 38.99633
    lng: -94.48204
  phone: 816-268-2145
  sources:
  - acf/head-start-locations
  verified:
    'on': '2026-07-19'
    method: api
