- id: mo/st-louis/academy-school
  name: Academy School
  categories:
  - child-care
  address:
    street: 5183 Raymond Ave
    city: Saint Louis
    state: mo
    zip: '63113'
  place: '2965000'
  geo:
    lat: 38.65783
    lng: -90.26925
  phone: 636-329-4472
  sources:
  - acf/head-start-locations
  verified:
    'on': '2026-07-19'
    method: api
- id: mo/st-louis/adapt-of-missouri-inc
  name: Adapt of Missouri Inc
  categories:
  - su-treatment
  - mh-treatment
  address:
    street: 2301 Hampton Avenue
    city: Saint Louis
    state: mo
    zip: '63139'
  place: '2965000'
  geo:
    lat: 38.61506
    lng: -90.2878
  phone: 888-657-3201
  website: https://www.compasshealthnetwork.org
  sources:
  - samhsa/findtreatment
  verified:
    'on': '2026-07-19'
    method: api
- id: mo/st-louis/adult-services
  name: Adult Services
  categories:
  - community-health-center
  address:
    street: 5669 Delmar Blvd
    city: Saint Louis
    state: mo
    zip: '63112'
  place: '2965000'
  geo:
    lat: 38.65406
    lng: -90.28471
  phone: 314-367-7848
  website: https://www.phcenters.org
  external_ids:
    bphc: BPS-H80-039665
  sources:
  - hrsa/health-center-sites
  verified:
    'on': '2026-07-19'
    method: api
- id: mo/st-louis/affinia-healthcare-1717-biddle
  name: Affinia Healthcare 1717 Biddle
  categories:
  - community-health-center
  address:
    street: 1717 Biddle St
    city: Saint Louis
    state: mo
    zip: '63106'
  place: '2965000'
  geo:
    lat: 38.63936
    lng: -90.20172
  phone: 314-814-8585
  website: https://www.affiniahealthcare.org
  external_ids:
    bphc: BPS-H80-001984
  sources:
  - hrsa/health-center-sites
  verified:
    'on': '2026-07-19'
    method: api
- id: mo/st-louis/affinia-healthcare-2220-lemp
  name: Affinia Healthcare 2220 Lemp
  categories:
  - community-health-center
  address:
    street: 2220 Lemp Ave
    city: Saint Louis
    state: mo
    zip: '63104'
  place: '2965000'
  geo:
    lat: 38.60684
    lng: -90.21419
  phone: 314-814-8680
  website: https://www.affiniahealthcare.org
  external_ids:
    bphc: BPS-H80-001312
  sources:
  - hrsa/health-center-sites
  verified:
    'on': '2026-07-19'
    method: api
- id: mo/st-louis/affinia-healthcare-3930-s-broadway
  name: Affinia Healthcare 3930 S. Broadway
  categories:
  - community-health-center
  address:
    street: 3930 S Broadway
    city: Saint Louis
    state: mo
    zip: '63118'
  place: '2965000'
  geo:
    lat: 38.5829
    lng: -90.22704
  phone: 314-898-1700
  website: https://www.affiniahealthcare.org
  external_ids:
    bphc: BPS-H80-009606
  sources:
  - hrsa/health-center-sites
  verified:
    'on': '2026-07-19'
    method: api
- id: mo/st-louis/affinia-healthcare-4414-n-florissant
  name: Affinia Healthcare 4414 N. Florissant
  categories:
  - community-health-center
  address:
    street: 4414 N Florissant Ave
    city: Saint Louis
    state: mo
    zip: '63107'
  place: '2965000'
  geo:
    lat: 38.66841
    lng: -90.20972
  phone: 314-898-1717
  website: https://www.affiniahealthcare.org
  external_ids:
    bphc: BPS-H80-009436
  sources:
  - hrsa/health-center-sites
  verified:
    'on': '2026-07-19'
    method: api
- id: mo/st-louis/affinia-healthcare-at-the-st-louis-dental-center
  name: Affinia Healthcare at The St. Louis Dental Center
  categories:
  - community-health-center
  address:
    street: 1500 Park Ave
    city: Saint Louis
    state: mo
    zip: '63104'
  place: '2965000'
  geo:
    lat: 38.61557
    lng: -90.20895
  phone: 314-898-1700
  website: https://www.affiniahealthcare.org
  external_ids:
    bphc: BPS-H80-015275
  sources:
  - hrsa/health-center-sites
  verified:
    'on': '2026-07-19'
    method: api
- id: mo/st-louis/affinia-healthcare-ferguson
  name: Affinia Healthcare Ferguson
  categories:
  - community-health-center
  address:
    street: 3396 Pershall Rd
    city: Saint Louis
    state: mo
    zip: '63135'
  place: '2965000'
  geo:
    lat: 38.76899
    lng: -90.28333
  phone: 314-898-1700
  external_ids:
    bphc: BPS-H80-033817
  sources:
  - hrsa/health-center-sites
  verified:
    'on': '2026-07-19'
    method: api
- id: mo/st-louis/affinia-healthcare-program-management-office
  name: Affinia Healthcare Program Management Office
  categories:
  - community-health-center
  address:
    street: 2524 Hadley St
    city: Saint Louis
    state: mo
    zip: '63106'
  place: '2965000'
  geo:
    lat: 38.64941
    lng: -90.19392
  phone: 314-889-8170
  website: https://www.affiniahealthcare.org
  external_ids:
    bphc: BPS-H80-003725
  sources:
  - hrsa/health-center-sites
  verified:
    'on': '2026-07-19'
    method: api
- id: mo/st-louis/assessment-and-counseling-solutions
  name: Assessment and Counseling Solutions
  categories:
  - su-treatment
  address:
    street: 11648 Gravois Road
    city: Saint Louis
    state: mo
    zip: '63126'
  place: '2965000'
  geo:
    lat: 38.53442
    lng: -90.38192
  phone: 314-849-2800
  website: https://stlacs.com
  sources:
  - samhsa/findtreatment
  verified:
    'on': '2026-07-19'
    method: api
- id: mo/st-louis/assisted-recovery-centers-of-america
  name: Assisted Recovery Centers of America
  categories:
  - su-treatment
  - mh-treatment
  address:
    street: 10208 West Florissant Avenue
    city: Saint Louis
    state: mo
    zip: '63136'
  place: '2965000'
  geo:
    lat: 38.75443
    lng: -90.27777
  phone: 314-645-6840
  website: https://www.arcamidwest.com
  sources:
  - samhsa/findtreatment
  verified:
    'on': '2026-07-19'
    method: api
- id: mo/st-louis/assisted-recovery-centers-of-america-2
  name: Assisted Recovery Centers of America
  categories:
  - su-treatment
  - mh-treatment
  address:
    street: 1430 Olive Street
    city: Saint Louis
    state: mo
    zip: '63103'
  place: '2965000'
  geo:
    lat: 38.6301
    lng: -90.2013
  phone: 314-624-1008
  website: https://www.arcamidwest.com
  sources:
  - samhsa/findtreatment
  verified:
    'on': '2026-07-19'
    method: api
- id: mo/st-louis/aviary-recovery-center-outpatient-program
  name: Aviary Recovery Center Outpatient Program
  categories:
  - su-treatment
  address:
    street: 333 South Kirkwood Road
    city: Saint Louis
    state: mo
    zip: '63122'
  place: '2965000'
  phone: 636-660-0977
  website: https://www.aviaryrecoverycenter.com
  sources:
  - samhsa/findtreatment
  verified:
    'on': '2026-07-19'
    method: api
- id: mo/st-louis/beginning-futures-learning-center
  name: Beginning Futures Learning Center
  categories:
  - child-care
  address:
    street: 4981 Thrush Ave
    city: Saint Louis
    state: mo
    zip: '63120'
  place: '2965000'
  geo:
    lat: 38.69603
    lng: -90.25345
  phone: 314-381-8400
  sources:
  - acf/head-start-locations
  verified:
    'on': '2026-07-19'
    method: api
- id: mo/st-louis/bessie-t-draper-early-childhood-center
  name: BESSIE T. DRAPER EARLY CHILDHOOD CENTER
  categories:
  - child-care
  address:
    street: 4642 W Florissant Ave
    city: Saint Louis
    state: mo
    zip: '63115'
  place: '2965000'
  geo:
    lat: 38.68443
    lng: -90.23038
  phone: 314-427-4940
  sources:
  - acf/head-start-locations
  verified:
    'on': '2026-07-19'
    method: api
- id: mo/st-louis/betty-j-robinson-head-start-early-head-start-cen
  name: BETTY J. ROBINSON HEAD START/EARLY HEAD START CENTER
  categories:
  - child-care
  address:
    street: 4146 Garfield Ave
    city: Saint Louis
    state: mo
    zip: '63113'
  place: '2965000'
  geo:
    lat: 38.65579
    lng: -90.2365
  phone: 314-535-9501
  sources:
  - acf/head-start-locations
  verified:
    'on': '2026-07-19'
    method: api
- id: mo/st-louis/betty-jean-kerr-people-s-health-centers
  name: Betty Jean Kerr People's Health Centers
  categories:
  - community-health-center
  address:
    street: 5701 Delmar Blvd
    city: Saint Louis
    state: mo
    zip: '63112'
  place: '2965000'
  geo:
    lat: 38.65441
    lng: -90.28548
  phone: 314-367-7848
  website: https://WWW.PHCENTERS.ORG
  external_ids:
    bphc: BPS-H80-003063
  sources:
  - hrsa/health-center-sites
  verified:
    'on': '2026-07-19'
    method: api
- id: mo/st-louis/betty-jean-kerr-people-s-health-centers-mobile-v
  name: Betty Jean Kerr People's Health Centers Mobile Van
  categories:
  - community-health-center
  address:
    street: 5701 Delmar Blvd
    city: Saint Louis
    state: mo
    zip: '63112'
  place: '2965000'
  geo:
    lat: 38.65441
    lng: -90.28548
  phone: 314-367-7848
  website: https://WWW.PHCENTERS.ORG
  external_ids:
    bphc: BPS-H80-003379
  sources:
  - hrsa/health-center-sites
  verified:
    'on': '2026-07-19'
    method: api
- id: mo/st-louis/betty-jean-kerr-peoples-health-centers
  name: Betty Jean Kerr Peoples Health Centers
  categories:
  - mh-treatment
  address:
    street: 5669 Delmar Boulevard
    city: Saint Louis
    state: mo
    zip: '63108'
  place: '2965000'
  geo:
    lat: 38.65436
    lng: -90.28468
  phone: 314-531-1770 x4028
  website: https://phcenters.org
  sources:
  - samhsa/findtreatment
  verified:
    'on': '2026-07-19'
    method: api
- id: mo/st-louis/betty-jean-kerr-peoples-health-centers-2
  name: Betty Jean Kerr Peoples Health Centers
  categories:
  - mh-treatment
  address:
    street: 5647 Delmar Boulevard
    city: Saint Louis
    state: mo
    zip: '63112'
  place: '2965000'
  geo:
    lat: 38.65424
    lng: -90.28399
  phone: 314-531-1770 x4049
  website: https://www.phcenters.org
  sources:
  - samhsa/findtreatment
  verified:
    'on': '2026-07-19'
    method: api
- id: mo/st-louis/betty-jean-kerr-peoples-health-centers-3
  name: Betty Jean Kerr Peoples Health Centers
  categories:
  - mh-treatment
  address:
    street: 4236 Lindell Boulevard
    city: Saint Louis
    state: mo
    zip: '63108'
  place: '2965000'
  geo:
    lat: 38.6403
    lng: -90.24972
  phone: 314-531-1770 x4010
  website: https://www.phcenters.org
  sources:
  - samhsa/findtreatment
  verified:
    'on': '2026-07-19'
    method: api
- id: mo/st-louis/betty-jean-kerr-peoples-health-centers-4
  name: Betty Jean Kerr Peoples Health Centers
  categories:
  - su-treatment
  - mh-treatment
  address:
    street: 5669 Delmore Boulevard
    city: Saint Louis
    state: mo
    zip: '63106'
  place: '2965000'
  geo:
    lat: 38.64493
    lng: -90.20805
  phone: 314-531-1770 x2025
  website: https://www.phcenters.org
  sources:
  - samhsa/findtreatment
  verified:
    'on': '2026-07-19'
    method: api
- id: mo/st-louis/birch-tree-recovery
  name: Birch Tree Recovery
  categories:
  - su-treatment
  - mh-treatment
  address:
    street: 10324 Ladue Road
    city: Saint Louis
    state: mo
    zip: '63141'
  place: '2965000'
  geo:
    lat: 38.65467
    lng: -90.40642
  phone: 314-949-2080
  website: https://www.birchtreerecovery.com
  sources:
  - samhsa/findtreatment
  verified:
    'on': '2026-07-19'
    method: api
- id: mo/st-louis/bjc-behavioral-health-central-site
  name: BJC Behavioral Health Central Site
  categories:
  - su-treatment
  - mh-treatment
  address:
    street: 3309 South Kings Highway Boulevard
    city: Saint Louis
    state: mo
    zip: '63139'
  place: '2965000'
  geo:
    lat: 38.59913
    lng: -90.27086
  phone: 314-206-3700
  website: https://www.bjcbehavioralhealth.org/
  sources:
  - samhsa/findtreatment
  verified:
    'on': '2026-07-19'
    method: api
- id: mo/st-louis/bjc-behavioral-health-south-site
  name: BJC Behavioral Health South Site
  categories:
  - su-treatment
  - mh-treatment
  address:
    street: 11102 Lindbergh Business Court
    city: Saint Louis
    state: mo
    zip: '63123'
  place: '2965000'
  geo:
    lat: 38.51855
    lng: -90.33518
  phone: 314-206-3400
  website: https://www.bjcbehavioralhealth.org
  sources:
  - samhsa/findtreatment
  verified:
    'on': '2026-07-19'
    method: api
- id: mo/st-louis/broadway-center
  name: Broadway Center
  categories:
  - child-care
  address:
    street: 4040 S Broadway
    city: Saint Louis
    state: mo
    zip: '63118'
  place: '2965000'
  geo:
    lat: 38.58125
    lng: -90.22749
  phone: 314-753-4696
  sources:
  - acf/head-start-locations
  verified:
    'on': '2026-07-19'
    method: api
- id: mo/st-louis/burrell-inc-centerstone-of-missouri
  name: Burrell Inc Centerstone of Missouri
  categories:
  - su-treatment
  address:
    street: 10024 Office Center Avenue
    city: Saint Louis
    state: mo
    zip: '63128'
  place: '2965000'
  geo:
    lat: 38.52223
    lng: -90.36369
  phone: 314-729-7050
  website: https://www.pfh.org
  sources:
  - samhsa/findtreatment
  verified:
    'on': '2026-07-19'
    method: api
- id: mo/st-louis/burrell-inc-centerstone-of-missouri-2
  name: Burrell Inc Centerstone of Missouri
  categories:
  - su-treatment
  address:
    street: 7020 Chippewa Street
    city: Saint Louis
    state: mo
    zip: '63119'
  place: '2965000'
  geo:
    lat: 38.58509
    lng: -90.31517
  phone: 314-835-0226
  website: https://www.pfh.org
  sources:
  - samhsa/findtreatment
  verified:
    'on': '2026-07-19'
    method: api
- id: mo/st-louis/burrell-inc-centerstone-of-missouri-3
  name: Burrell Inc Centerstone of Missouri
  categories:
  - su-treatment
  address:
    street: 4928 Delmar Boulevard
    city: Saint Louis
    state: mo
    zip: '63108'
  place: '2965000'
  geo:
    lat: 38.65131
    lng: -90.26164
  phone: 314-899-0846
  website: https://www.pfh.org
  sources:
  - samhsa/findtreatment
  verified:
    'on': '2026-07-19'
    method: api
- id: mo/st-louis/burrell-inc-centerstone-of-missouri-4
  name: Burrell Inc Centerstone of Missouri
  categories:
  - su-treatment
  address:
    street: 4066 Dunnica Avenue
    city: Saint Louis
    state: mo
    zip: '63116'
  place: '2965000'
  geo:
    lat: 38.58844
    lng: -90.25649
  phone: 636-224-1700
  website: https://www.pfh.org
  sources:
  - samhsa/findtreatment
  verified:
    'on': '2026-07-19'
    method: api
- id: mo/st-louis/burrell-inc-centerstone-of-missouri-5
  name: Burrell Inc Centerstone of Missouri
  categories:
  - su-treatment
  - mh-treatment
  address:
    street: 1001 Lynch Street
    city: Saint Louis
    state: mo
    zip: '63118'
  place: '2965000'
  geo:
    lat: 38.59999
    lng: -90.21123
  phone: 314-615-2119
  website: https://www.placesforpeople.org
  sources:
  - samhsa/findtreatment
  verified:
    'on': '2026-07-19'
    method: api
- id: mo/st-louis/carondelet
  name: CARONDELET
  categories:
  - community-health-center
  address:
    street: 401 Holly Hills Ave
    city: Saint Louis
    state: mo
    zip: '63111'
  place: '2965000'
  geo:
    lat: 38.55842
    lng: -90.25092
  phone: 314-481-1615
  website: https://www.familycarehealthcenter.org
  external_ids:
    bphc: BPS-H80-002870
  sources:
  - hrsa/health-center-sites
  verified:
    'on': '2026-07-19'
    method: api
- id: mo/st-louis/cathy-s-cupboard
  name: Cathy's Cupboard
  categories:
  - food-pantry
  place: '2965000'
  geo:
    lat: 38.60977
    lng: -90.22426
  external_ids:
    lfp: '2107'
  sources:
  - littlefreepantry/map
  verified:
    'on': '2026-07-19'
    method: scrape
- id: mo/st-louis/clarity-healthcare
  name: Clarity Healthcare
  categories:
  - community-health-center
  address:
    street: 4066 Dunnica Ave
    city: Saint Louis
    state: mo
    zip: '63116'
  place: '2965000'
  geo:
    lat: 38.58834
    lng: -90.25685
  phone: 636-224-1200
  external_ids:
    bphc: BPS-H80-030729
  sources:
  - hrsa/health-center-sites
  verified:
    'on': '2026-07-19'
    method: api
- id: mo/st-louis/clarity-healthcare-2
  name: Clarity Healthcare
  categories:
  - community-health-center
  address:
    street: 6155 S Grand Blvd
    city: Saint Louis
    state: mo
    zip: '63111'
  place: '2965000'
  geo:
    lat: 38.56435
    lng: -90.25951
  phone: 314-928-8901
  website: https://www.clarity-healthcare.org
  external_ids:
    bphc: BPS-H80-040365
  sources:
  - hrsa/health-center-sites
  verified:
    'on': '2026-07-19'
    method: api
- id: mo/st-louis/confluence-prep-academy
  name: Confluence Prep Academy
  categories:
  - community-health-center
  address:
    street: 310 N 15th St
    city: Saint Louis
    state: mo
    zip: '63103'
  place: '2965000'
  geo:
    lat: 38.63099
    lng: -90.2015
  phone: 314-588-1088
  website: https://www.phcenters.org
  external_ids:
    bphc: BPS-H80-013510
  sources:
  - hrsa/health-center-sites
  verified:
    'on': '2026-07-19'
    method: api
- id: mo/st-louis/core-collective-at-saint-vincent
  name: Core Collective at Saint Vincent
  categories:
  - mh-treatment
  address:
    street: 7401 Florissant Road
    city: Saint Louis
    state: mo
    zip: '63121'
  place: '2965000'
  geo:
    lat: 38.70526
    lng: -90.29614
  phone: 314-261-6011
  website: https://www.theccstl.org
  sources:
  - samhsa/findtreatment
  verified:
    'on': '2026-07-19'
    method: api
- id: mo/st-louis/eastern-mo-alt-sentencing-servs-inc-emass-overla
  name: Eastern MO Alt Sentencing Servs Inc EMASS/Overland CIP/SROP
  categories:
  - su-treatment
  address:
    street: 9553 Lackland Road
    city: Saint Louis
    state: mo
    zip: '63114'
  place: '2965000'
  geo:
    lat: 38.70101
    lng: -90.36789
  phone: 314-872-1915
  website: https://www.dwi-emass.com
  sources:
  - samhsa/findtreatment
  verified:
    'on': '2026-07-19'
    method: api
- id: mo/st-louis/eastern-mo-alt-sentencing-servs-inc-emass-st-lou
  name: Eastern MO Alt Sentencing Servs Inc EMASS/St Louis City CIP/SROP
  categories:
  - su-treatment
  address:
    street: 3819 South Grand Boulevard
    city: Saint Louis
    state: mo
    zip: '63118'
  place: '2965000'
  geo:
    lat: 38.58786
    lng: -90.24488
  phone: 314-664-9555
  website: https://www.dwi-emass.com
  sources:
  - samhsa/findtreatment
  verified:
    'on': '2026-07-19'
    method: api
- id: mo/st-louis/educare-headstart
  name: EDUCARE HEADSTART
  categories:
  - child-care
  address:
    street: 1101 Milwaukee St
    city: Saint Louis
    state: mo
    zip: '63122'
  place: '2965000'
  geo:
    lat: 38.56435
    lng: -90.40263
  phone: 314-821-4470
  sources:
  - acf/head-start-locations
  verified:
    'on': '2026-07-19'
    method: api
- id: mo/st-louis/eleanor-health
  name: Eleanor Health
  categories:
  - su-treatment
  - mh-treatment
  address:
    street: 2055 Craigshire Road
    city: Saint Louis
    state: mo
    zip: '63146'
  place: '2965000'
  geo:
    lat: 38.69573
    lng: -90.44886
  phone: 866-465-0590
  website: https://www.eleanorhealth.com
  sources:
  - samhsa/findtreatment
  verified:
    'on': '2026-07-19'
    method: api
- id: mo/st-louis/every-childs-hope-residential-treatment
  name: Every Childs Hope Residential Treatment
  categories:
  - su-treatment
  - mh-treatment
  address:
    street: 8240 Saint Charles Rock Road
    city: Saint Louis
    state: mo
    zip: '63114'
  place: '2965000'
  geo:
    lat: 38.69971
    lng: -90.33476
  phone: 314-427-3755 x212
  website: https://www.everychildshope.org
  sources:
  - samhsa/findtreatment
  verified:
    'on': '2026-07-19'
    method: api
- id: mo/st-louis/family-care-health-centers-at-dutchtown
  name: Family Care Health Centers at Dutchtown
  categories:
  - community-health-center
  address:
    street: 3824 S Grand Blvd
    city: Saint Louis
    state: mo
    zip: '63118'
  place: '2965000'
  geo:
    lat: 38.58785
    lng: -90.24423
  phone: 314-481-1615
  website: https://www.fchcstl.org
  external_ids:
    bphc: BPS-H80-041469
  sources:
  - hrsa/health-center-sites
  verified:
    'on': '2026-07-19'
    method: api
- id: mo/st-louis/family-care-health-centers-at-rung
  name: Family Care Health Centers at RUNG
  categories:
  - community-health-center
  address:
    street: 2717 Sidney St
    city: Saint Louis
    state: mo
    zip: '63104'
  place: '2965000'
  geo:
    lat: 38.6062
    lng: -90.22589
  phone: 314-437-0364
  external_ids:
    bphc: BPS-H80-031652
  sources:
  - hrsa/health-center-sites
  verified:
    'on': '2026-07-19'
    method: api
- id: mo/st-louis/family-care-health-centers-at-university-city
  name: Family Care Health Centers at University City
  categories:
  - community-health-center
  address:
    street: 7401 Balson Ave
    city: Saint Louis
    state: mo
    zip: '63130'
  place: '2965000'
  geo:
    lat: 38.66488
    lng: -90.32924
  phone: 609-820-1961
  external_ids:
    bphc: BPS-H80-041770
  sources:
  - hrsa/health-center-sites
  verified:
    'on': '2026-07-19'
    method: api
- id: mo/st-louis/family-care-health-centers-at-youth-in-need
  name: Family Care Health Centers at Youth in Need
  categories:
  - community-health-center
  address:
    street: 3013 Meramec St
    city: Saint Louis
    state: mo
    zip: '63118'
  place: '2965000'
  geo:
    lat: 38.58033
    lng: -90.23693
  phone: 314-481-1615
  external_ids:
    bphc: BPS-H80-041330
  sources:
  - hrsa/health-center-sites
  verified:
    'on': '2026-07-19'
    method: api
- id: mo/st-louis/ferguson-florissant-bermuda-elementary
  name: FERGUSON FLORISSANT-Bermuda Elementary
  categories:
  - child-care
  address:
    street: 5835 Bermuda Dr
    city: Saint Louis
    state: mo
    zip: '63121'
  place: '2965000'
  geo:
    lat: 38.72687
    lng: -90.29436
  phone: 314-687-1972
  sources:
  - acf/head-start-locations
  verified:
    'on': '2026-07-19'
    method: api
- id: mo/st-louis/flance-early-learning-center
  name: Flance Early Learning Center
  categories:
  - community-health-center
  address:
    street: 39 O'Fallon St
    city: Saint Louis
    state: mo
    zip: '63102'
  place: '2965000'
  geo:
    lat: 38.63722
    lng: -90.18289
  phone: 314-814-8698
  external_ids:
    bphc: BPS-H80-014104
  sources:
  - hrsa/health-center-sites
  verified:
    'on': '2026-07-19'
    method: api
- id: mo/st-louis/flance-early-learning-center-2
  name: Flance Early Learning Center
  categories:
  - child-care
  address:
    street: 1908 Ofallon Street
    city: Saint Louis
    state: mo
    zip: '63106'
  place: '2965000'
  geo:
    lat: 38.64038
    lng: -90.20446
  phone: 314-881-0881
  sources:
  - acf/head-start-locations
  verified:
    'on': '2026-07-19'
    method: api
- id: mo/st-louis/forest-park-southeast
  name: FOREST PARK SOUTHEAST
  categories:
  - community-health-center
  address:
    street: 4352 Manchester Ave
    city: Saint Louis
    state: mo
    zip: '63110'
  place: '2965000'
  geo:
    lat: 38.62658
    lng: -90.25796
  phone: 314-531-5444
  website: https://familycarehealthcenter.org
  external_ids:
    bphc: BPS-H80-003663
  sources:
  - hrsa/health-center-sites
  verified:
    'on': '2026-07-19'
    method: api
- id: mo/st-louis/gateway-classic
  name: Gateway Classic
  categories:
  - community-health-center
  address:
    street: 2012 Dr Martin Luther King Dr
    city: Saint Louis
    state: mo
    zip: '63106'
  place: '2965000'
  geo:
    lat: 38.63678
    lng: -90.20779
  phone: 314-367-7848
  external_ids:
    bphc: BPS-H80-040473
  sources:
  - hrsa/health-center-sites
  verified:
    'on': '2026-07-19'
    method: api
- id: mo/st-louis/gateway-foundation-inc
  name: Gateway Foundation Inc
  categories:
  - su-treatment
  address:
    street: 1430 Olive Street
    city: Saint Louis
    state: mo
    zip: '63103'
  place: '2965000'
  geo:
    lat: 38.6301
    lng: -90.2013
  phone: 314-421-6188
  website: https://www.gatewaycorrections.org
  sources:
  - samhsa/findtreatment
  verified:
    'on': '2026-07-19'
    method: api
- id: mo/st-louis/good-shepherd
  name: Good Shepherd
  categories:
  - child-care
  address:
    street: 1297 Amherst Pl
    city: Saint Louis
    state: mo
    zip: '63112'
  place: '2965000'
  geo:
    lat: 38.66948
    lng: -90.28845
  sources:
  - acf/head-start-locations
  verified:
    'on': '2026-07-19'
    method: api
- id: mo/st-louis/good-shepherd-early-learning-center
  name: Good Shepherd Early Learning Center
  categories:
  - child-care
  address:
    street: 1297 Amherst Pl
    city: Saint Louis
    state: mo
    zip: '63112'
  place: '2965000'
  geo:
    lat: 38.66948
    lng: -90.28845
  phone: 314-863-9056
  sources:
  - acf/head-start-locations
  verified:
    'on': '2026-07-19'
    method: api
- id: mo/st-louis/good-shepherd-infant-toddler-and-preschool-cente
  name: Good Shepherd Infant, Toddler, and Preschool Center
  categories:
  - child-care
  address:
    street: 5990 Page Blvd
    city: Saint Louis
    state: mo
    zip: '63112'
  place: '2965000'
  geo:
    lat: 38.66971
    lng: -90.2889
  phone: 314-725-5710
  sources:
  - acf/head-start-locations
  verified:
    'on': '2026-07-19'
    method: api
- id: mo/st-louis/growing-minds-academy-daycare-llc
  name: GROWING MINDS ACADEMY & DAYCARE, LLC
  categories:
  - child-care
  address:
    street: 11889 Benham Rd
    city: Saint Louis
    state: mo
    zip: '63138'
  place: '2965000'
  geo:
    lat: 38.78981
    lng: -90.23354
  phone: 314-741-0700
  sources:
  - acf/head-start-locations
  verified:
    'on': '2026-07-19'
    method: api
- id: mo/st-louis/guardian-angel-settlement
  name: GUARDIAN ANGEL SETTLEMENT
  categories:
  - child-care
  address:
    street: 1127 N Vandeventer Ave
    city: Saint Louis
    state: mo
    zip: '63113'
  place: '2965000'
  geo:
    lat: 38.64708
    lng: -90.23514
  phone: 314-231-3188
  sources:
  - acf/head-start-locations
  verified:
    'on': '2026-07-19'
    method: api
- id: mo/st-louis/hawthorn-childrens-psychiatric-hosp
  name: Hawthorn Childrens Psychiatric Hosp
  categories:
  - mh-treatment
  address:
    street: 1901 Pennsylvania Avenue
    city: Saint Louis
    state: mo
    zip: '63133'
  place: '2965000'
  geo:
    lat: 38.68664
    lng: -90.31247
  phone: 314-512-7800
  website: https://dmh.mo.gov/hawthorn-childrens-psychiatric-hospital
  sources:
  - samhsa/findtreatment
  verified:
    'on': '2026-07-19'
    method: api
- id: mo/st-louis/hazelwood-east-high-school
  name: Hazelwood East High School
  categories:
  - community-health-center
  address:
    street: 11300 Dunn Rd
    city: Saint Louis
    state: mo
    zip: '63138'
  place: '2965000'
  geo:
    lat: 38.77627
    lng: -90.23543
  phone: 314-953-5600
  website: https://www.phcenters.org
  external_ids:
    bphc: BPS-H80-013765
  sources:
  - hrsa/health-center-sites
  verified:
    'on': '2026-07-19'
    method: api
- id: mo/st-louis/health-care-for-kids
  name: Health Care For Kids
  categories:
  - community-health-center
  address:
    street: 5647 Delmar Blvd
    city: Saint Louis
    state: mo
    zip: '63112'
  place: '2965000'
  geo:
    lat: 38.6542
    lng: -90.28381
  phone: 314-367-7848
  website: https://www.phcenters.org
  external_ids:
    bphc: BPS-H80-029767
  sources:
  - hrsa/health-center-sites
  verified:
    'on': '2026-07-19'
    method: api
- id: mo/st-louis/hi-tech-charities
  name: Hi Tech Charities
  categories:
  - su-treatment
  - mh-treatment
  address:
    street: 5920 Dr Martin Luther King Drive
    city: Saint Louis
    state: mo
    zip: '63112'
  place: '2965000'
  geo:
    lat: 38.67395
    lng: -90.28314
  phone: 314-922-7139
  website: https://www.hi-techcharities.org
  sources:
  - samhsa/findtreatment
  verified:
    'on': '2026-07-19'
    method: api
- id: mo/st-louis/hilltop-child-development-center
  name: Hilltop Child Development Center
  categories:
  - child-care
  address:
    street: 6155 W Florissant Ave
    city: Saint Louis
    state: mo
    zip: '63136'
  place: '2965000'
  geo:
    lat: 38.71233
    lng: -90.25394
  sources:
  - acf/head-start-locations
  verified:
    'on': '2026-07-19'
    method: api
- id: mo/st-louis/hope-house-stl
  name: Hope House STL
  categories:
  - child-care
  address:
    street: 1611 Hodiamont Ave
    city: Saint Louis
    state: mo
    zip: '63112'
  place: '2965000'
  geo:
    lat: 38.67634
    lng: -90.28465
  phone: 314-382-3801
  sources:
  - acf/head-start-locations
  verified:
    'on': '2026-07-19'
    method: api
- id: mo/st-louis/housing-authority-of-st-louis-county
  name: Housing Authority Of St. Louis County
  categories:
  - housing-assistance
  address: {street: 8865 Natural Bridge Rd, city: Saint Louis, state: mo, zip: '63121'}
  description: Public housing and Housing Choice Voucher agency
  place: '2965000'
  geo: {lat: 38.71574, lng: -90.32589}
  phone: 314-428-3200
  sources:
  - hud/resource-locator
  verified: {'on': '2026-07-19', method: api}
- id: mo/st-louis/housing-authority-of-the-city-of-hillsdale
  name: Housing Authority Of The City Of Hillsdale
  categories:
  - housing-assistance
  address: {street: 8865 Natural Bridge Rd, city: Saint Louis, state: mo, zip: '63121'}
  description: Public housing (Low-Rent) agency
  place: '2965000'
  geo: {lat: 38.71574, lng: -90.32589}
  phone: 314-428-3200
  sources:
  - hud/resource-locator
  verified: {'on': '2026-07-19', method: api}
- id: mo/st-louis/housing-authority-of-the-city-of-olivette
  name: Housing Authority Of The City Of Olivette
  categories:
  - housing-assistance
  address: {street: 8865 Natural Bridge Rd, city: Saint Louis, state: mo, zip: '63121'}
  description: Public housing (Low-Rent) agency
  place: '2965000'
  geo: {lat: 38.71574, lng: -90.32589}
  phone: 314-428-3200
  sources:
  - hud/resource-locator
  verified: {'on': '2026-07-19', method: api}
- id: mo/st-louis/housing-authority-of-the-city-of-pagedale
  name: Housing Authority Of The City Of Pagedale
  categories:
  - housing-assistance
  address: {street: 8865 Natural Bridge Rd, city: Saint Louis, state: mo, zip: '63121'}
  description: Public housing (Low-Rent) agency
  place: '2965000'
  geo: {lat: 38.71574, lng: -90.32589}
  phone: 314-428-3200
  sources:
  - hud/resource-locator
  verified: {'on': '2026-07-19', method: api}
- id: mo/st-louis/hv-team-1-3
  name: HV Team 1-3
  categories:
  - child-care
  address:
    street: 3001 Meramec St
    city: Saint Louis
    state: mo
    zip: '63118'
  place: '2965000'
  geo:
    lat: 38.58025
    lng: -90.23652
  phone: 314-353-6906
  sources:
  - acf/head-start-locations
  verified:
    'on': '2026-07-19'
    method: api
- id: mo/st-louis/hv-teams-1-5
  name: HV Teams 1-5
  categories:
  - child-care
  address:
    street: 3001 Meramec St
    city: Saint Louis
    state: mo
    zip: '63118'
  place: '2965000'
  geo:
    lat: 38.58024
    lng: -90.23654
  phone: 314-353-6906
  sources:
  - acf/head-start-locations
  verified:
    'on': '2026-07-19'
    method: api
- id: mo/st-louis/international-institute
  name: International Institute
  categories:
  - community-health-center
  address:
    street: 3654 S Grand Blvd
    city: Saint Louis
    state: mo
    zip: '63118'
  place: '2965000'
  geo:
    lat: 38.59028
    lng: -90.24376
  phone: 314-773-9090
  website: https://WWW.PHCENTERS.ORG
  external_ids:
    bphc: BPS-H80-006679
  sources:
  - hrsa/health-center-sites
  verified:
    'on': '2026-07-19'
    method: api
- id: mo/st-louis/john-c-murphy-health-center
  name: John C Murphy Health Center
  categories:
  - community-health-center
  address:
    street: 6121 N Hanley Rd
    city: Saint Louis
    state: mo
    zip: '63134'
  place: '2965000'
  geo:
    lat: 38.74855
    lng: -90.33595
  phone: 314-615-0500
  website: https://clinics.stlouiscountymo.gov/
  external_ids:
    bphc: BPS-LAL-040183
  sources:
  - hrsa/health-center-sites
  verified:
    'on': '2026-07-19'
    method: api
- id: mo/st-louis/kid-s-world-north-llc
  name: Kid's World North LLC
  categories:
  - child-care
  address:
    street: 9833 Halls Ferry Rd
    city: Saint Louis
    state: mo
    zip: '63136'
  place: '2965000'
  geo:
    lat: 38.74217
    lng: -90.2526
  phone: 314-867-2333
  sources:
  - acf/head-start-locations
  verified:
    'on': '2026-07-19'
    method: api
- id: mo/st-louis/lemay-child-and-family-center
  name: Lemay Child and Family Center
  categories:
  - child-care
  address:
    street: 9828 S Broadway
    city: Saint Louis
    state: mo
    zip: '63125'
  place: '2965000'
  geo:
    lat: 38.52515
    lng: -90.27693
  phone: 314-544-3338
  sources:
  - acf/head-start-locations
  verified:
    'on': '2026-07-19'
    method: api
- id: mo/st-louis/lewis-clark-center
  name: Lewis & Clark Center
  categories:
  - child-care
  address:
    street: 10242 Prince Dr
    city: Saint Louis
    state: mo
    zip: '63136'
  place: '2965000'
  geo:
    lat: 38.75702
    lng: -90.2425
  phone: 314-868-5205
  sources:
  - acf/head-start-locations
  verified:
    'on': '2026-07-19'
    method: api
- id: mo/st-louis/life-wise-stl
  name: LIFE WISE STL
  categories:
  - child-care
  address:
    street: 1321 S 11th St
    city: Saint Louis
    state: mo
    zip: '63104'
  place: '2965000'
  geo:
    lat: 38.61527
    lng: -90.2025
  phone: 314-421-0400
  sources:
  - acf/head-start-locations
  verified:
    'on': '2026-07-19'
    method: api
- id: mo/st-louis/little-green-food-pantry
  name: Little Green Food Pantry
  categories:
  - food-pantry
  place: '2965000'
  geo:
    lat: 38.61561
    lng: -90.24778
  external_ids:
    lfp: '4736'
  sources:
  - littlefreepantry/map
  verified:
    'on': '2026-07-19'
    method: scrape
- id: mo/st-louis/little-warriors-academy-llc
  name: LITTLE WARRIORS ACADEMY LLC
  categories:
  - child-care
  address:
    street: 3350 Goodfellow Blvd
    city: Saint Louis
    state: mo
    zip: '63120'
  place: '2965000'
  geo:
    lat: 38.68337
    lng: -90.2719
  phone: 314-339-5650
  sources:
  - acf/head-start-locations
  verified:
    'on': '2026-07-19'
    method: api
- id: mo/st-louis/lutheran-family-and-childrens-servs-saint-louis
  name: Lutheran Family and Childrens Servs Saint Louis Office
  categories:
  - su-treatment
  - mh-treatment
  address:
    street: 9666 Olive Boulevard
    city: Saint Louis
    state: mo
    zip: '63132'
  place: '2965000'
  geo:
    lat: 38.67282
    lng: -90.38874
  phone: 314-787-5100
  website: https://www.lfcsmo.org
  sources:
  - samhsa/findtreatment
  verified:
    'on': '2026-07-19'
    method: api
- id: mo/st-louis/magnolia-center
  name: Magnolia Center
  categories:
  - child-care
  address:
    street: 2725 Alhambra Ct
    city: Saint Louis
    state: mo
    zip: '63118'
  place: '2965000'
  geo:
    lat: 38.60681
    lng: -90.24024
  phone: 314-584-6363
  sources:
  - acf/head-start-locations
  verified:
    'on': '2026-07-19'
    method: api
- id: mo/st-louis/maplewood-early-childcare-center
  name: MAPLEWOOD EARLY CHILDCARE CENTER
  categories:
  - child-care
  address:
    street: 2801 Oakland Ave
    city: Saint Louis
    state: mo
    zip: '63143'
  place: '2965000'
  geo:
    lat: 38.61189
    lng: -90.32681
  phone: 314-644-4405
  sources:
  - acf/head-start-locations
  verified:
    'on': '2026-07-19'
    method: api
- id: mo/st-louis/martin-luther-king-jr-head-start-early-head-star
  name: Martin Luther King Jr. Head Start/Early Head Start Center
  categories:
  - child-care
  address:
    street: 1437 Laurel St
    city: Saint Louis
    state: mo
    zip: '63112'
  place: '2965000'
  geo:
    lat: 38.67113
    lng: -90.28197
  phone: 314-389-8800
  sources:
  - acf/head-start-locations
  verified:
    'on': '2026-07-19'
    method: api
- id: mo/st-louis/mccallum-place-eating-disorder-center
  name: McCallum Place Eating Disorder Center
  categories:
  - mh-treatment
  address:
    street: 231 West Lockwood Avenue
    city: Saint Louis
    state: mo
    zip: '63119'
  place: '2965000'
  geo:
    lat: 38.59358
    lng: -90.36296
  phone: 314-961-1452
  website: https://www.mccallumplace.com
  sources:
  - samhsa/findtreatment
  verified:
    'on': '2026-07-19'
    method: api
- id: mo/st-louis/meramec-elc
  name: Meramec ELC
  categories:
  - child-care
  address:
    street: 3013 Meramec St
    city: Saint Louis
    state: mo
    zip: '63118'
  place: '2965000'
  geo:
    lat: 38.58031
    lng: -90.23689
  phone: 314-353-6906
  sources:
  - acf/head-start-locations
  verified:
    'on': '2026-07-19'
    method: api
- id: mo/st-louis/mercy-edgewood-program
  name: Mercy Edgewood Program
  categories:
  - su-treatment
  - mh-treatment
  address:
    street: 970 Executive Parkway Drive
    city: Saint Louis
    state: mo
    zip: '63141'
  place: '2965000'
  geo:
    lat: 38.67491
    lng: -90.47157
  phone: 636-933-1231
  website: https://www.mercy.net
  sources:
  - samhsa/findtreatment
  verified:
    'on': '2026-07-19'
    method: api
- id: mo/st-louis/mercy-hospital-saint-louis-behavioral-health
  name: Mercy Hospital Saint Louis Behavioral Health
  categories:
  - su-treatment
  - mh-treatment
  address:
    street: 615 South New Ballas Road
    city: Saint Louis
    state: mo
    zip: '63141'
  place: '2965000'
  geo:
    lat: 38.64223
    lng: -90.44558
  phone: 314-251-0555
  website: https://www.mercy.net
  sources:
  - samhsa/findtreatment
  verified:
    'on': '2026-07-19'
    method: api
- id: mo/st-louis/mercy-hospital-south-behavioral-health
  name: Mercy Hospital South Behavioral Health
  categories:
  - su-treatment
  - mh-treatment
  address:
    street: 10010 Kennerly Road
    city: Saint Louis
    state: mo
    zip: '63128'
  place: '2965000'
  geo:
    lat: 38.50746
    lng: -90.38037
  phone: 314-251-0555
  website: https://www.mercy.net
  sources:
  - samhsa/findtreatment
  verified:
    'on': '2026-07-19'
    method: api
- id: mo/st-louis/monte-nido-clementine-st-louis
  name: Monte Nido Clementine St. Louis
  categories:
  - su-treatment
  - mh-treatment
  address:
    street: 7190 Christopher Drive
    city: Saint Louis
    state: mo
    zip: '63129'
  place: '2965000'
  geo:
    lat: 38.42727
    lng: -90.30819
  phone: 314-806-2090
  website: https://www.montenido.com/locations/clementine-missouri-st-louis
  sources:
  - samhsa/findtreatment
  verified:
    'on': '2026-07-19'
    method: api
- id: mo/st-louis/mount-zion-head-start-early-head-start-center
  name: Mount Zion Head Start/Early Head Start Center
  categories:
  - child-care
  address:
    street: 1440 S Compton Ave
    city: Saint Louis
    state: mo
    zip: '63104'
  place: '2965000'
  geo:
    lat: 38.62001
    lng: -90.23135
  phone: 314-773-0733
  sources:
  - acf/head-start-locations
  verified:
    'on': '2026-07-19'
    method: api
- id: mo/st-louis/new-dawn-family-healing-mental-health-therapy-se
  name: New Dawn Family Healing Mental Health Therapy Services
  categories:
  - su-treatment
  - mh-treatment
  address:
    street: 711 Old Ballas Road
    city: Saint Louis
    state: mo
    zip: '63141'
  place: '2965000'
  geo:
    lat: 38.66857
    lng: -90.43889
  phone: 636-425-3250
  website: https://newdawnfamilyhealing.com
  sources:
  - samhsa/findtreatment
  verified:
    'on': '2026-07-19'
    method: api
- id: mo/st-louis/normandy-high-school
  name: Normandy High School
  categories:
  - community-health-center
  address:
    street: 6701 Saint Charles Rock Rd
    city: Saint Louis
    state: mo
    zip: '63133'
  place: '2965000'
  geo:
    lat: 38.68183
    lng: -90.29759
  phone: 314-493-0600
  website: https://www.phcenters.org
  external_ids:
    bphc: BPS-H80-013764
  sources:
  - hrsa/health-center-sites
  verified:
    'on': '2026-07-19'
    method: api
- id: mo/st-louis/north-central-community-health-center
  name: North Central Community Health Center
  categories:
  - community-health-center
  address:
    street: 4000 Jennings Station Rd
    city: Saint Louis
    state: mo
    zip: '63121'
  place: '2965000'
  geo:
    lat: 38.69472
    lng: -90.27414
  phone: 314-615-9700
  website: https://clinics.stlouiscountymo.gov/
  external_ids:
    bphc: BPS-LAL-040182
  sources:
  - hrsa/health-center-sites
  verified:
    'on': '2026-07-19'
    method: api
- id: mo/st-louis/north-county-head-start-early-head-center
  name: NORTH COUNTY HEAD START/EARLY HEAD CENTER
  categories:
  - child-care
  address:
    street: 10725 Vorhof Dr
    city: Saint Louis
    state: mo
    zip: '63136'
  place: '2965000'
  geo:
    lat: 38.76681
    lng: -90.25349
  phone: 314-867-9522
  sources:
  - acf/head-start-locations
  verified:
    'on': '2026-07-19'
    method: api
- id: mo/st-louis/north-spring-head-start-center
  name: North Spring Head Start Center
  categories:
  - child-care
  address:
    street: 911 N Spring Ave
    city: Saint Louis
    state: mo
    zip: '63108'
  place: '2965000'
  geo:
    lat: 38.64303
    lng: -90.23369
  phone: 314-652-2402
  sources:
  - acf/head-start-locations
  verified:
    'on': '2026-07-19'
    method: api
- id: mo/st-louis/overland
  name: OVERLAND
  categories:
  - child-care
  address:
    street: 2210 N Warson Rd
    city: Saint Louis
    state: mo
    zip: '63114'
  place: '2965000'
  geo:
    lat: 38.69807
    lng: -90.39946
  phone: 314-426-1506
  sources:
  - acf/head-start-locations
  verified:
    'on': '2026-07-19'
    method: api
- id: mo/st-louis/pagedale-head-start-early-head-start-center
  name: PAGEDALE HEAD START/EARLY HEAD START CENTER
  categories:
  - child-care
  address:
    street: 1436 Ferguson Ave
    city: Saint Louis
    state: mo
    zip: '63133'
  place: '2965000'
  geo:
    lat: 38.68268
    lng: -90.30726
  phone: 314-727-1134
  sources:
  - acf/head-start-locations
  verified:
    'on': '2026-07-19'
    method: api
- id: mo/st-louis/patch-center
  name: Patch Center
  categories:
  - child-care
  address:
    street: 7925 Minnesota Ave
    city: Saint Louis
    state: mo
    zip: '63111'
  place: '2965000'
  geo:
    lat: 38.54612
    lng: -90.26326
  phone: 314-779-7011
  sources:
  - acf/head-start-locations
  verified:
    'on': '2026-07-19'
    method: api
- id: mo/st-louis/people-s-healthcare-services
  name: People's Healthcare Services
  categories:
  - community-health-center
  address:
    street: 49 N Florissant Rd, Ste 101
    city: Saint Louis
    state: mo
    zip: '63135'
  place: '2965000'
  geo:
    lat: 38.74669
    lng: -90.306
  phone: 314-633-8921
  website: https://www.phcenters.org
  external_ids:
    bphc: BPS-H80-021270
  sources:
  - hrsa/health-center-sites
  verified:
    'on': '2026-07-19'
    method: api
- id: mo/st-louis/peter-bunce
  name: Peter Bunce
  categories:
  - child-care
  address:
    street: 2125 Bissell St
    city: Saint Louis
    state: mo
    zip: '63107'
  place: '2965000'
  geo:
    lat: 38.66902
    lng: -90.20996
  phone: 314-584-6858
  sources:
  - acf/head-start-locations
  verified:
    'on': '2026-07-19'
    method: api
- id: mo/st-louis/pine-lawn-head-start-early-head-start-center
  name: PINE LAWN HEAD START/EARLY HEAD START CENTER
  categories:
  - child-care
  address:
    street: 4100 Peyton Ln
    city: Saint Louis
    state: mo
    zip: '63120'
  place: '2965000'
  geo:
    lat: 38.69387
    lng: -90.27152
  phone: 314-382-9041
  sources:
  - acf/head-start-locations
  verified:
    'on': '2026-07-19'
    method: api
- id: mo/st-louis/places-for-people
  name: Places for People
  categories:
  - community-health-center
  address:
    street: 1001 Lynch St
    city: Saint Louis
    state: mo
    zip: '63118'
  place: '2965000'
  geo:
    lat: 38.6
    lng: -90.21116
  phone: 314-535-5600
  external_ids:
    bphc: BPS-H80-031835
  sources:
  - hrsa/health-center-sites
  verified:
    'on': '2026-07-19'
    method: api
- id: mo/st-louis/precious-days-learning-academy
  name: PRECIOUS DAYS LEARNING ACADEMY
  categories:
  - child-care
  address:
    street: 8119 Airport Rd
    city: Saint Louis
    state: mo
    zip: '63134'
  place: '2965000'
  geo:
    lat: 38.74975
    lng: -90.32268
  phone: 314-524-1121
  sources:
  - acf/head-start-locations
  verified:
    'on': '2026-07-19'
    method: api
- id: mo/st-louis/provident-behavioral-health-creve-coeur-location
  name: Provident Behavioral Health Creve Coeur Location
  categories:
  - mh-treatment
  address:
    street: 12141 Ladue Road
    city: Saint Louis
    state: mo
    zip: '63141'
  place: '2965000'
  geo:
    lat: 38.65658
    lng: -90.45323
  phone: 314-878-4340
  website: https://www.providentstl.org
  sources:
  - samhsa/findtreatment
  verified:
    'on': '2026-07-19'
    method: api
- id: mo/st-louis/provident-behavioral-health-south-county-locatio
  name: Provident Behavioral Health South County Location
  categories:
  - mh-treatment
  address:
    street: 11166 Tesson Ferry Road
    city: Saint Louis
    state: mo
    zip: '63123'
  place: '2965000'
  geo:
    lat: 38.52577
    lng: -90.35079
  phone: 314-898-0102
  website: https://www.providentstl.org
  sources:
  - samhsa/findtreatment
  verified:
    'on': '2026-07-19'
    method: api
- id: mo/st-louis/provident-behavioral-health-st-louis-city-locati
  name: Provident Behavioral Health St Louis City Location
  categories:
  - mh-treatment
  address:
    street: 2650 Olive Street
    city: Saint Louis
    state: mo
    zip: '63103'
  place: '2965000'
  geo:
    lat: 38.63333
    lng: -90.21615
  phone: 314-371-6500
  website: https://www.providentstl.org
  sources:
  - samhsa/findtreatment
  verified:
    'on': '2026-07-19'
    method: api
- id: mo/st-louis/queen-of-peace-center-cathedral-tower
  name: Queen of Peace Center Cathedral Tower
  categories:
  - su-treatment
  address:
    street: 325 North Newstead Avenue
    city: Saint Louis
    state: mo
    zip: '63108'
  place: '2965000'
  geo:
    lat: 38.64406
    lng: -90.25456
  phone: 314-531-0511 x213
  website: https://www.qopcstl.org
  sources:
  - samhsa/findtreatment
  verified:
    'on': '2026-07-19'
    method: api
- id: mo/st-louis/saint-louis-university-hospital
  name: Saint Louis University Hospital
  categories:
  - su-treatment
  - mh-treatment
  address:
    street: 1201 South Grand
    city: Saint Louis
    state: mo
    zip: '63104'
  place: '2965000'
  geo:
    lat: 38.62441
    lng: -90.23848
  phone: 314-577-8000 x2
  website: https://www.ssmhealth.com/behavioralhealth
  sources:
  - samhsa/findtreatment
  verified:
    'on': '2026-07-19'
    method: api
- id: mo/st-louis/saint-louis-veterans-affairs-med-ctr-opioid-trea
  name: Saint Louis Veterans Affairs Med Ctr Opioid Treatment Program
  categories:
  - su-treatment
  address:
    street: 915 North Grand Boulevard
    city: Saint Louis
    state: mo
    zip: '63106'
  place: '2965000'
  geo:
    lat: 38.64213
    lng: -90.23094
  phone: 314-625-6056 x66376
  website: https://www.va.gov/st-louis-health-care
  sources:
  - samhsa/findtreatment
  verified:
    'on': '2026-07-19'
    method: api
- id: mo/st-louis/saint-louis-veterans-affairs-med-ctr-substance-u
  name: Saint Louis Veterans Affairs Med Ctr Substance Use Disorders Domiciliary
  categories:
  - su-treatment
  address:
    street: 1 Jefferson Barracks Drive
    city: Saint Louis
    state: mo
    zip: '63125'
  place: '2965000'
  geo:
    lat: 38.49226
    lng: -90.27918
  phone: 314-652-4100 x66598
  website: https://www.va.gov/st-louis-health-care
  sources:
  - samhsa/findtreatment
  verified:
    'on': '2026-07-19'
    method: api
- id: mo/st-louis/saint-patrick-center
  name: Saint Patrick Center
  categories:
  - su-treatment
  - mh-treatment
  address:
    street: 800 North Tucker Boulevard
    city: Saint Louis
    state: mo
    zip: '63101'
  place: '2965000'
  geo:
    lat: 38.63336
    lng: -90.19557
  phone: 314-802-0700
  website: https://www.stpatrickcenter.org/
  sources:
  - samhsa/findtreatment
  verified:
    'on': '2026-07-19'
    method: api
- id: mo/st-louis/south-county-head-start
  name: SOUTH COUNTY HEAD START
  categories:
  - child-care
  address:
    street: 4974 Heege Rd
    city: Saint Louis
    state: mo
    zip: '63123'
  place: '2965000'
  geo:
    lat: 38.55852
    lng: -90.30209
  phone: 314-544-8383
  sources:
  - acf/head-start-locations
  verified:
    'on': '2026-07-19'
    method: api
- id: mo/st-louis/south-county-health-center
  name: South County Health Center
  categories:
  - community-health-center
  address:
    street: 4580 S Lindbergh Blvd
    city: Saint Louis
    state: mo
    zip: '63127'
  place: '2965000'
  geo:
    lat: 38.53194
    lng: -90.38274
  phone: 314-615-0400
  website: https://clinics.stlouiscountymo.gov/
  external_ids:
    bphc: BPS-LAL-040181
  sources:
  - hrsa/health-center-sites
  verified:
    'on': '2026-07-19'
    method: api
- id: mo/st-louis/southside-early-childhood-center
  name: Southside Early Childhood Center
  categories:
  - child-care
  address:
    street: 2101 S Jefferson Ave
    city: Saint Louis
    state: mo
    zip: '63104'
  place: '2965000'
  geo:
    lat: 38.61091
    lng: -90.22228
  phone: 314-865-0322
  sources:
  - acf/head-start-locations
  verified:
    'on': '2026-07-19'
    method: api
- id: mo/st-louis/ssm-saint-marys-health-center
  name: SSM Saint Marys Health Center
  categories:
  - su-treatment
  - mh-treatment
  address:
    street: 6420 Clayton Road
    city: Saint Louis
    state: mo
    zip: '63117'
  place: '2965000'
  geo:
    lat: 38.63307
    lng: -90.31118
  phone: 314-768-8000
  website: https://www.ssmhealth.com/mental-health
  sources:
  - samhsa/findtreatment
  verified:
    'on': '2026-07-19'
    method: api
- id: mo/st-louis/st-louis-housing-authority
  name: St. Louis Housing Authority
  categories:
  - housing-assistance
  address: {street: 3520 Page Blvd, city: Saint Louis, state: mo, zip: '63106'}
  description: Public housing and Housing Choice Voucher agency
  place: '2965000'
  geo: {lat: 38.64534, lng: -90.2266}
  phone: 314-286-4355
  sources:
  - hud/resource-locator
  verified: {'on': '2026-07-19', method: api}
- id: mo/st-louis/st-louis-metro-treatment-center-metro-treatment
  name: St Louis Metro Treatment Center Metro Treatment of Missouri LP
  categories:
  - su-treatment
  address:
    street: 9733 Saint Charles Rock Road
    city: Saint Louis
    state: mo
    zip: '63114'
  place: '2965000'
  geo:
    lat: 38.72149
    lng: -90.36772
  phone: 314-423-7030
  website: https://www.newseason.com/
  sources:
  - samhsa/findtreatment
  verified:
    'on': '2026-07-19'
    method: api
- id: mo/st-louis/the-christian-academy-2
  name: The Christian Academy 2
  categories:
  - child-care
  address:
    street: 8923 Riverview Dr
    city: Saint Louis
    state: mo
    zip: '63137'
  place: '2965000'
  geo:
    lat: 38.72809
    lng: -90.22705
  phone: 314-455-4172
  sources:
  - acf/head-start-locations
  verified:
    'on': '2026-07-19'
    method: api
- id: mo/st-louis/training-up-a-child-child-care-center
  name: Training Up A Child Child Care Center
  categories:
  - child-care
  address:
    street: 1425 Stein Rd
    city: Saint Louis
    state: mo
    zip: '63135'
  place: '2965000'
  geo:
    lat: 38.7575
    lng: -90.28059
  phone: 314-521-7733
  sources:
  - acf/head-start-locations
  verified:
    'on': '2026-07-19'
    method: api
- id: mo/st-louis/urban-league-head-start-early-head-start-center
  name: Urban League Head Start/Early Head Start Center
  categories:
  - child-care
  address:
    street: 8964 Jennings Station Rd
    city: Saint Louis
    state: mo
    zip: '63136'
  place: '2965000'
  geo:
    lat: 38.72572
    lng: -90.2479
  phone: 314-867-9100
  sources:
  - acf/head-start-locations
  verified:
    'on': '2026-07-19'
    method: api
- id: mo/st-louis/urban-sprouts-child-development-center
  name: Urban Sprouts Child Development Center
  categories:
  - child-care
  address:
    street: 6757 Olive Blvd
    city: Saint Louis
    state: mo
    zip: '63130'
  place: '2965000'
  geo:
    lat: 38.66342
    lng: -90.30953
  phone: 314-997-2259
  sources:
  - acf/head-start-locations
  verified:
    'on': '2026-07-19'
    method: api
- id: mo/st-louis/vashon-high-school
  name: Vashon High School
  categories:
  - community-health-center
  address:
    street: 3035 Cass Ave
    city: Saint Louis
    state: mo
    zip: '63106'
  place: '2965000'
  geo:
    lat: 38.64693
    lng: -90.22151
  phone: 314-533-9487
  website: https://www.phcenters.org
  external_ids:
    bphc: BPS-H80-013769
  sources:
  - hrsa/health-center-sites
  verified:
    'on': '2026-07-19'
    method: api
- id: mo/st-louis/west-florissant
  name: WEST FLORISSANT
  categories:
  - child-care
  address:
    street: 4632 W Florissant Ave
    city: Saint Louis
    state: mo
    zip: '63115'
  place: '2965000'
  geo:
    lat: 38.68374
    lng: -90.23029
  phone: 314-385-0598
  sources:
  - acf/head-start-locations
  verified:
    'on': '2026-07-19'
    method: api
- id: mo/st-louis/westend-clinic
  name: Westend Clinic
  categories:
  - su-treatment
  address:
    street: 5736 West Florissant Avenue
    city: Saint Louis
    state: mo
    zip: '63120'
  place: '2965000'
  geo:
    lat: 38.70319
    lng: -90.2467
  phone: 314-381-0560
  website: https://westendclinic.org/
  sources:
  - samhsa/findtreatment
  verified:
    'on': '2026-07-19'
    method: api
- id: mo/st-louis/ywca-head-start
  name: YWCA Head Start
  categories:
  - community-health-center
  address:
    street: 10725 Vorhof Dr
    city: Saint Louis
    state: mo
    zip: '63136'
  place: '2965000'
  geo:
    lat: 38.76687
    lng: -90.25277
  phone: 314-867-9522
  external_ids:
    bphc: BPS-H80-013770
  sources:
  - hrsa/health-center-sites
  verified:
    'on': '2026-07-19'
    method: api
- id: mo/st-louis/ywca-head-start-program
  name: YWCA Head Start Program
  categories:
  - community-health-center
  address:
    street: 1911 Belt Way Dr
    city: Saint Louis
    state: mo
    zip: '63114'
  place: '2965000'
  geo:
    lat: 38.69048
    lng: -90.35051
  phone: 314-427-4940
  website: https://WWW.PHCENTERS.ORG
  external_ids:
    bphc: BPS-H80-002242
  sources:
  - hrsa/health-center-sites
  verified:
    'on': '2026-07-19'
    method: api
