- id: mo/willow-springs/christos-house
  name: Christos House
  org: mo/ozarks-food-harvest
  categories:
  - food-pantry
  place: '2980098'
  geo: {lat: 36.99228, lng: -91.96987}
  external_ids: {mo-ozarks-food-harvest: '2191'}
  sources:
  - foodbank/mo-ozarks-food-harvest
  verified: {'on': '2026-07-20', method: scrape}
- id: mo/willow-springs/munch
  name: MUNCH
  org: mo/ozarks-food-harvest
  categories:
  - food-pantry
  place: '2980098'
  geo: {lat: 36.98833, lng: -91.96185}
  external_ids: {mo-ozarks-food-harvest: '2371'}
  sources:
  - foodbank/mo-ozarks-food-harvest
  verified: {'on': '2026-07-20', method: scrape}
- id: mo/willow-springs/senior-citizens-club-of-willow-springs
  name: Senior Citizens Club of Willow Springs
  org: mo/ozarks-food-harvest
  categories:
  - food-pantry
  place: '2980098'
  geo: {lat: 36.99629, lng: -91.96617}
  external_ids: {mo-ozarks-food-harvest: '2493'}
  sources:
  - foodbank/mo-ozarks-food-harvest
  verified: {'on': '2026-07-20', method: scrape}
- id: mo/willow-springs/willow-springs-elementary
  name: Willow Springs Elementary
  categories:
  - meal-program
  address: {street: 215 W. Fourth Street, city: Willow Springs, state: mo, zip: '65793'}
  description: Free summer meals for kids and teens (2026 season) — sponsored by School District of Willow
    Springs R-IV.
  place: '2980098'
  geo: {lat: 36.99518, lng: -91.97038}
  phone: (417) 252-0228
  external_ids: {usda_master: Cycle 02_MO_SFSP_0236}
  sources:
  - usda/summer-meal-sites
  verified: {'on': '2026-07-19', method: api}
- id: mo/willow-springs/willow-springs-head-start
  name: Willow Springs Head Start
  categories:
  - child-care
  address: {street: 409 W Main St, city: Willow Springs, state: mo, zip: '65793'}
  description: Head Start early childhood program — 32 funded slots; operated by Ozark Action, Inc.
  place: '2980098'
  geo: {lat: 36.9943, lng: -91.97288}
  phone: 417-469-2893
  sources:
  - acf/head-start-locations
  verified: {'on': '2026-07-19', method: api}
