- id: me/anson/center-point-community-church
  name: Center Point Community Church
  org: me/good-shepherd-food-bank
  categories:
  - food-pantry
  address: {street: 15 Church Street, street2: Marantha Assembly Church, city: Anson, state: me, zip: 04911}
  place: '2301360'
  geo: {lat: 44.7987, lng: -69.89174}
  phone: 207-431-0458
  website: https://www.facebook.com/CenterPointCom/
  external_ids: {me-good-shepherd-food-bank: '28786'}
  sources:
  - foodbank/me-good-shepherd-food-bank
  verified: {'on': '2026-07-20', method: api}
- id: me/anson/mary-s-helping-hands
  name: Mary's Helping Hands
  categories:
  - food-pantry
  place: '2301360'
  geo: {lat: 44.79704, lng: -69.87874}
  website: https://mapping.littlefreepantry.org/pantry/4562
  external_ids: {lfp: '4562'}
  sources:
  - littlefreepantry/map
  verified: {'on': '2026-07-19', method: scrape}
- id: me/anson/shady-maple-farm
  name: Shady Maple Farm
  org: me/good-shepherd-food-bank
  categories:
  - food-pantry
  address: {street: PO Box 22, city: Anson, state: me, zip: 04911}
  place: '2301360'
  geo: {lat: 44.78144, lng: -69.9372}
  email: shadymaplefarmproducts@gmail.com
  external_ids: {me-good-shepherd-food-bank: '28501'}
  sources:
  - foodbank/me-good-shepherd-food-bank
  verified: {'on': '2026-07-20', method: api}
- id: me/anson/starks-food-cupboard
  name: Starks Food Cupboard
  org: me/good-shepherd-food-bank
  categories:
  - food-pantry
  address: {street: 2 Chicken Street, city: Starks, state: me, zip: 04911}
  place: '2301360'
  geo: {lat: 44.73124, lng: -69.96577}
  phone: 610-217-7762
  website: https://www.starksme.com/copy-of-services
  external_ids: {me-good-shepherd-food-bank: '29020'}
  sources:
  - foodbank/me-good-shepherd-food-bank
  verified: {'on': '2026-07-20', method: api}
- id: me/anson/sweet-land-farm
  name: Sweet Land Farm
  org: me/good-shepherd-food-bank
  categories:
  - food-pantry
  address: {street: 209 Sandy River Road, city: Starks, state: me, zip: 04911}
  place: '2301360'
  geo: {lat: 44.71243, lng: -69.94359}
  email: sweetland97@gmail.com
  external_ids: {me-good-shepherd-food-bank: '28496'}
  sources:
  - foodbank/me-good-shepherd-food-bank
  verified: {'on': '2026-07-20', method: api}
