- id: me/biddeford/biddeford-housing-authority
  name: Biddeford Housing Authority
  categories:
  - housing-assistance
  address:
    street: 22 South St
    city: Biddeford
    state: me
    zip: '04005'
  description: Housing Choice Voucher (Section 8) agency
  place: '2304860'
  geo:
    lat: 43.49269
    lng: -70.45754
  phone: 207-282-6537
  sources:
  - hud/resource-locator
  verified:
    'on': '2026-07-19'
    method: api
- id: me/biddeford/biddeford-jfk-head-start
  name: Biddeford JFK Head Start
  categories:
  - child-care
  address:
    street: 64 West St
    city: Biddeford
    state: me
    zip: '04005'
  place: '2304860'
  geo:
    lat: 43.47736
    lng: -70.46112
  phone: 207-710-2424
  sources:
  - acf/head-start-locations
  verified:
    'on': '2026-07-19'
    method: api
- id: me/biddeford/biddeford-middle-school
  name: Biddeford Middle School
  categories:
  - meal-program
  address:
    street: 25 Tiger Drive
    city: Biddeford
    state: me
    zip: '04005'
  description: Free summer meals for kids and teens (2026 season) — sponsored by Biddeford Public Schools.
  place: '2304860'
  geo:
    lat: 43.47332
    lng: -70.46585
  phone: (207) 229-6234
  external_ids:
    usda_master: Cycle 08_ME_SFSP_0018
  sources:
  - usda/summer-meal-sites
  verified:
    'on': '2026-07-19'
    method: api
- id: me/biddeford/biddeford-stone-street
  name: Biddeford Stone Street
  categories:
  - child-care
  address:
    street: 2 Stone St
    city: Biddeford
    state: me
    zip: '04005'
  place: '2304860'
  geo:
    lat: 43.49468
    lng: -70.45696
  phone: 207-459-2963
  sources:
  - acf/head-start-locations
  verified:
    'on': '2026-07-19'
    method: api
- id: me/biddeford/groups-recover-together
  name: Groups Recover Together
  categories:
  - su-treatment
  address:
    street: 265 Main Street
    city: Biddeford
    state: me
    zip: '04005'
  place: '2304860'
  geo:
    lat: 43.494
    lng: -70.45821
  phone: 207-808-7935
  website: https://www.joingroups.com
  sources:
  - samhsa/findtreatment
  verified:
    'on': '2026-07-19'
    method: api
- id: me/biddeford/maine-behavioral-healthcare-sherry-sabo-center
  name: Maine Behavioral Healthcare Sherry Sabo Center
  categories:
  - su-treatment
  - mh-treatment
  address:
    street: 2 Springbrook Drive
    city: Biddeford
    state: me
    zip: '04005'
  place: '2304860'
  geo:
    lat: 43.4863
    lng: -70.48894
  phone: 207-282-1500
  website: https://mainehealth.org/maine-behavioral-healthcare
  sources:
  - samhsa/findtreatment
  verified:
    'on': '2026-07-19'
    method: api
- id: me/biddeford/nasson-health-care-biddeford
  name: Nasson Health Care - Biddeford
  categories:
  - community-health-center
  address:
    street: 357 Elm St
    city: Biddeford
    state: me
    zip: '04005'
  place: '2304860'
  geo:
    lat: 43.48534
    lng: -70.46882
  phone: 207-490-6900
  external_ids:
    bphc: BPS-H80-032645
  sources:
  - hrsa/health-center-sites
  verified:
    'on': '2026-07-19'
    method: api
- id: me/biddeford/rotary-park-teen-center
  name: Rotary Park Teen Center
  categories:
  - meal-program
  address:
    street: 550 Main St.
    city: Biddeford
    state: me
    zip: '04005'
  description: Free summer meals for kids and teens (2026 season) — sponsored by Biddeford Public Schools.
  place: '2304860'
  geo:
    lat: 43.4966
    lng: -70.47816
  phone: (207) 391-9188
  external_ids:
    usda_master: Cycle 08_ME_SFSP_0230
  sources:
  - usda/summer-meal-sites
  verified:
    'on': '2026-07-19'
    method: api
- id: me/biddeford/savida-health-biddeford
  name: SaVida Health Biddeford
  categories:
  - su-treatment
  - mh-treatment
  address:
    street: 409 Alfred Street
    city: Biddeford
    state: me
    zip: '04005'
  place: '2304860'
  geo:
    lat: 43.48116
    lng: -70.47622
  phone: 207-175-2222
  website: https://www.savidahealth.com
  sources:
  - samhsa/findtreatment
  verified:
    'on': '2026-07-19'
    method: api
