- id: me/biddeford/biddeford-food-pantry
  name: Biddeford Food Pantry
  org: me/good-shepherd-food-bank
  categories:
  - food-pantry
  address: {street: 162 Elm St, city: Biddeford, state: me, zip: '04005'}
  place: '2304860'
  geo: {lat: 43.4944, lng: -70.46034}
  phone: 207-282-4771
  website: https://biddefordfoodpantry.org/
  external_ids: {me-good-shepherd-food-bank: '28919'}
  sources:
  - foodbank/me-good-shepherd-food-bank
  verified: {'on': '2026-07-21', method: api}
- id: me/biddeford/biddeford-food-pantry-2
  name: Biddeford Food Pantry
  org: me/good-shepherd-food-bank
  categories:
  - food-pantry
  address: {street: 162 Elm Street, city: Biddeford, state: me, zip: '04005'}
  place: '2304860'
  geo: {lat: 43.49438, lng: -70.46035}
  phone: 207-282-4771
  external_ids: {me-good-shepherd-food-bank: '31919'}
  sources:
  - foodbank/me-good-shepherd-food-bank
  verified: {'on': '2026-07-21', method: api}
- id: me/biddeford/biddeford-housing-authority
  name: Biddeford Housing Authority
  categories:
  - housing-assistance
  address: {street: 22 South St, city: Biddeford, state: me, zip: '04005'}
  description: Housing Choice Voucher (Section 8) agency
  place: '2304860'
  geo: {lat: 43.49269, lng: -70.45754}
  phone: 207-282-6537
  sources:
  - hud/resource-locator
  verified: {'on': '2026-07-19', method: api}
- id: me/biddeford/biddeford-jfk-head-start
  name: Biddeford JFK Head Start
  categories:
  - child-care
  address: {street: 64 West St, city: Biddeford, state: me, zip: '04005'}
  description: Head Start early childhood program — 15 funded slots; operated by York County Head Start.
  place: '2304860'
  geo: {lat: 43.47736, lng: -70.46112}
  phone: 207-710-2424
  sources:
  - acf/head-start-locations
  verified: {'on': '2026-07-19', method: api}
- id: me/biddeford/biddeford-middle-school
  name: Biddeford Middle School
  categories:
  - meal-program
  address: {street: 25 Tiger Drive, city: Biddeford, state: me, zip: '04005'}
  description: Free summer meals for kids and teens (2026 season) — sponsored by Biddeford Public Schools.
  place: '2304860'
  geo: {lat: 43.47332, lng: -70.46585}
  phone: (207) 229-6234
  external_ids: {usda_master: Cycle 08_ME_SFSP_0018}
  sources:
  - usda/summer-meal-sites
  verified: {'on': '2026-07-19', method: api}
- id: me/biddeford/biddeford-stone-street
  name: Biddeford Stone Street
  categories:
  - child-care
  address: {street: 2 Stone St, city: Biddeford, state: me, zip: '04005'}
  description: Head Start early childhood program — 16 funded slots; operated by York County Early Head
    Start.
  place: '2304860'
  geo: {lat: 43.49468, lng: -70.45696}
  phone: 207-459-2963
  sources:
  - acf/head-start-locations
  verified: {'on': '2026-07-19', method: api}
- id: me/biddeford/bon-appetit-community-meal-program
  name: Bon Appétit Community Meal Program
  org: me/good-shepherd-food-bank
  categories:
  - food-pantry
  address: {street: 19 Crescent St, city: Biddeford, state: me, zip: '04005'}
  place: '2304860'
  geo: {lat: 43.49219, lng: -70.45897}
  phone: 207-569-4726
  website: https://www.bonappetitmealprogram.com/
  external_ids: {me-good-shepherd-food-bank: '28732'}
  sources:
  - foodbank/me-good-shepherd-food-bank
  verified: {'on': '2026-07-21', method: api}
- id: me/biddeford/groups-recover-together
  name: Groups Recover Together
  categories:
  - su-treatment
  address: {street: 265 Main Street, city: Biddeford, state: me, zip: '04005'}
  place: '2304860'
  geo: {lat: 43.494, lng: -70.45821}
  phone: 207-808-7935
  website: https://www.joingroups.com
  services:
  - Outpatient
  - Outpatient methadone/buprenorphine or naltrexone treatment
  - Regular outpatient treatment
  eligibility: Serves young adults, adults, seniors.
  cost: varies
  sources:
  - samhsa/findtreatment
  verified: {'on': '2026-07-19', method: api}
- id: me/biddeford/maine-behavioral-healthcare-sherry-sabo-center
  name: Maine Behavioral Healthcare Sherry Sabo Center
  categories:
  - su-treatment
  - mh-treatment
  address: {street: 2 Springbrook Drive, city: Biddeford, state: me, zip: '04005'}
  place: '2304860'
  geo: {lat: 43.4863, lng: -70.48894}
  phone: 207-282-1500
  website: https://mainehealth.org/maine-behavioral-healthcare
  services:
  - Outpatient
  - Young adults
  - Veterans
  - Clients who have experienced trauma
  - Persons with post-traumatic stress disorder (PTSD)
  eligibility: Serves children/adolescents, young adults, adults, seniors.
  cost: varies
  sources:
  - samhsa/findtreatment
  verified: {'on': '2026-07-19', method: api}
- id: me/biddeford/nasson-health-care-biddeford
  name: Nasson Health Care - Biddeford
  categories:
  - community-health-center
  cost: sliding-scale
  address: {street: 357 Elm St, city: Biddeford, state: me, zip: '04005'}
  place: '2304860'
  geo: {lat: 43.48534, lng: -70.46882}
  phone: 207-490-6900
  external_ids: {bphc: BPS-H80-032645}
  sources:
  - hrsa/health-center-sites
  verified: {'on': '2026-07-19', method: api}
- id: me/biddeford/rotary-park-teen-center
  name: Rotary Park Teen Center
  categories:
  - meal-program
  address: {street: 550 Main St., city: Biddeford, state: me, zip: '04005'}
  description: Free summer meals for kids and teens (2026 season) — sponsored by Biddeford Public Schools.
  place: '2304860'
  geo: {lat: 43.4966, lng: -70.47816}
  phone: (207) 391-9188
  external_ids: {usda_master: Cycle 08_ME_SFSP_0230}
  sources:
  - usda/summer-meal-sites
  verified: {'on': '2026-07-19', method: api}
- id: me/biddeford/savida-health-biddeford
  name: SaVida Health Biddeford
  categories:
  - su-treatment
  - mh-treatment
  address: {street: 409 Alfred Street, city: Biddeford, state: me, zip: '04005'}
  place: '2304860'
  geo: {lat: 43.48116, lng: -70.47622}
  phone: 207-175-2222
  website: https://www.savidahealth.com
  services:
  - Outpatient
  - Clients with co-occurring mental and substance use disorders
  eligibility: Serves young adults, adults, seniors.
  cost: sliding-scale
  sources:
  - samhsa/findtreatment
  verified: {'on': '2026-07-19', method: api}
- id: me/biddeford/smhc-hospital
  name: SMHC Hospital
  org: me/good-shepherd-food-bank
  categories:
  - food-pantry
  address: {street: 1 Medical Center Dr, city: Biddeford, state: me}
  place: '2304860'
  geo: {lat: 43.47765, lng: -70.49051}
  website: http://www.mainehealth.org
  external_ids: {me-good-shepherd-food-bank: '28589'}
  sources:
  - foodbank/me-good-shepherd-food-bank
  verified: {'on': '2026-07-21', method: api}
- id: me/biddeford/youth-full-maine
  name: Youth Full Maine
  org: me/good-shepherd-food-bank
  categories:
  - food-pantry
  address: {street: 11 Maplewood Ave, city: Biddeford, state: me, zip: '04005'}
  place: '2304860'
  geo: {lat: 43.49531, lng: -70.4695}
  phone: 207-391-0185
  website: https://youthfullme.org/
  external_ids: {me-good-shepherd-food-bank: '34435'}
  sources:
  - foodbank/me-good-shepherd-food-bank
  verified: {'on': '2026-07-21', method: api}
