- id: me/calais/aroostook-mental-health-center-adult-crisis-unit
  name: Aroostook Mental Health Center Adult Crisis Unit/Calais
  categories:
  - su-treatment
  - mh-treatment
  address:
    street: 127 Palmer Street
    city: Calais
    state: me
    zip: 04619
  place: '2309585'
  geo:
    lat: 45.17949
    lng: -67.26045
  phone: 207-554-2352
  website: https://www.amhc.org
  sources:
  - samhsa/findtreatment
  verified:
    'on': '2026-07-19'
    method: api
- id: me/calais/aroostook-mental-health-center-calais-childrens
  name: Aroostook Mental Health Center Calais Childrens Residential
  categories:
  - su-treatment
  - mh-treatment
  address:
    street: 127 Palmer Street
    city: Calais
    state: me
    zip: 04619
  place: '2309585'
  geo:
    lat: 45.1811
    lng: -67.27041
  phone: 207-454-0269
  website: https://www.amhc.org
  sources:
  - samhsa/findtreatment
  verified:
    'on': '2026-07-19'
    method: api
- id: me/calais/aroostook-mental-health-center-calais-outpatient
  name: Aroostook Mental Health Center Calais Outpatient Office
  categories:
  - su-treatment
  - mh-treatment
  address:
    street: 127 Palmer Street
    city: Calais
    state: me
    zip: 04619
  place: '2309585'
  geo:
    lat: 45.17972
    lng: -67.26038
  phone: 207-554-2352
  website: https://www.amhc.org
  sources:
  - samhsa/findtreatment
  verified:
    'on': '2026-07-19'
    method: api
- id: me/calais/calais-comprehensive-treatment-center-discovery
  name: Calais Comprehensive Treatment Center Discovery House WC Inc
  categories:
  - su-treatment
  address:
    street: 12 Beach Street
    city: Calais
    state: me
    zip: 04619
  place: '2309585'
  geo:
    lat: 45.17857
    lng: -67.28896
  phone: 207-454-1300
  website: https://www.ctcprograms.com/location/calais-comprehensive-treatment-center/
  sources:
  - samhsa/findtreatment
  verified:
    'on': '2026-07-19'
    method: api
- id: me/calais/calais-elementary-school
  name: Calais Elementary School
  categories:
  - meal-program
  address: {street: 53 Garfield Street, city: Calais, state: me, zip: 04619}
  description: Free summer meals for kids and teens (2026 season) — sponsored by Calais Public Schools.
  place: '2309585'
  geo: {lat: 45.18109, lng: -67.28456}
  phone: (207) 454-2000
  external_ids: {usda_master: Cycle 08_ME_SFSP_0040}
  sources:
  - usda/summer-meal-sites
  verified: {'on': '2026-07-19', method: api}
- id: me/calais/calais-pk-hs
  name: Calais PK/HS
  categories:
  - child-care
  address:
    street: 53 Garfield St
    city: Calais
    state: me
    zip: 04619
  place: '2309585'
  geo:
    lat: 45.17993
    lng: -67.28212
  phone: 207-454-0131
  sources:
  - acf/head-start-locations
  verified:
    'on': '2026-07-19'
    method: api
- id: me/calais/groups-recover-together
  name: Groups Recover Together
  categories:
  - su-treatment
  address:
    street: 23 Washington Street
    city: Calais
    state: me
    zip: 04619
  place: '2309585'
  geo:
    lat: 45.185
    lng: -67.27625
  phone: 207-573-2402
  website: https://www.joingroups.com
  sources:
  - samhsa/findtreatment
  verified:
    'on': '2026-07-19'
    method: api
- id: me/calais/st-croix-early-care-and-education-center
  name: St. Croix Early Care and Education Center
  categories:
  - child-care
  address:
    street: 25 Gatcomb Dr
    street2: Washington County Community College
    city: Calais
    state: me
    zip: 04619
  place: '2309585'
  geo:
    lat: 45.16573
    lng: -67.24813
  phone: 207-454-3212
  sources:
  - acf/head-start-locations
  verified:
    'on': '2026-07-19'
    method: api
- id: me/calais/st-croix-regional-at-calais
  name: ST CROIX REGIONAL AT CALAIS
  categories:
  - community-health-center
  address:
    street: 5 Lowell St
    city: Calais
    state: me
    zip: 04619
  place: '2309585'
  geo:
    lat: 45.1879
    lng: -67.27963
  phone: 207-796-5503
  external_ids:
    bphc: BPS-H80-031951
  sources:
  - hrsa/health-center-sites
  verified:
    'on': '2026-07-19'
    method: api
