- id: me/eagle-lake/eagle-lake-health-center
  name: EAGLE LAKE HEALTH CENTER
  categories:
  - community-health-center
  cost: sliding-scale
  address: {street: 10 Carter St, city: Eagle Lake, state: me, zip: 04739}
  place: '2319385'
  geo: {lat: 47.03671, lng: -68.59459}
  phone: 207-444-5973
  website: https://www.frrh.org
  external_ids: {bphc: BPS-H80-002678}
  sources:
  - hrsa/health-center-sites
  verified: {'on': '2026-07-19', method: api}
- id: me/eagle-lake/eagle-lake-town-office
  name: Eagle Lake Town Office
  categories:
  - meal-program
  address: {street: 36 Devoe Brook Road, city: Eagle Lake, state: me, zip: 04739}
  description: Free summer meals for kids and teens (2026 season) — sponsored by MSAD 27.
  place: '2319385'
  geo: {lat: 47.04376, lng: -68.6006}
  phone: (207) 551-8192
  external_ids: {usda_master: Cycle 08_ME_SFSP_0080}
  sources:
  - usda/summer-meal-sites
  verified: {'on': '2026-07-19', method: api}
- id: me/eagle-lake/fish-river-rural-health
  name: Fish River Rural Health
  org: me/good-shepherd-food-bank
  categories:
  - food-pantry
  address: {street: 10 Carter Street, city: Eagle Lake, state: me, zip: 04739}
  place: '2319385'
  geo: {lat: 47.03528, lng: -68.59508}
  phone: 207-444-5973
  website: https://frrh.org/frrh-food-shelf/
  external_ids: {me-good-shepherd-food-bank: '28933'}
  sources:
  - foodbank/me-good-shepherd-food-bank
  verified: {'on': '2026-07-21', method: api}
- id: me/eagle-lake/fish-river-rural-health-2
  name: Fish River Rural Health
  org: me/good-shepherd-food-bank
  categories:
  - food-pantry
  address: {street: 10 Carter St, city: Eagle Lake, state: me, zip: 04739}
  place: '2319385'
  geo: {lat: 47.03641, lng: -68.5947}
  phone: 207-444-5973
  website: http://www.frrh.org
  external_ids: {me-good-shepherd-food-bank: '28659'}
  sources:
  - foodbank/me-good-shepherd-food-bank
  verified: {'on': '2026-07-21', method: api}
- id: me/eagle-lake/nutrition-sports-aquatics-center
  name: Nutrition, Sports & Aquatics Center
  categories:
  - community-health-center
  cost: sliding-scale
  address: {street: 10 Carter St, city: Eagle Lake, state: me, zip: 04739}
  place: '2319385'
  geo: {lat: 47.03671, lng: -68.59459}
  phone: 207-444-5973
  external_ids: {bphc: BPS-H80-041954}
  sources:
  - hrsa/health-center-sites
  verified: {'on': '2026-07-19', method: api}
- id: me/eagle-lake/st-marys-food-pantry-eagle-lake
  name: St. Mary’s Food Pantry – Eagle Lake
  org: me/good-shepherd-food-bank
  categories:
  - food-pantry
  address: {street: 3443 Main Street, city: Eagle Lake, state: me, zip: 04739}
  place: '2319385'
  geo: {lat: 47.03227, lng: -68.59607}
  phone: 207-834-5656
  website: https://www.maine.gov/dacf/ard/food-assistance/tefap/Aroostook.shtml
  external_ids: {me-good-shepherd-food-bank: '28808'}
  sources:
  - foodbank/me-good-shepherd-food-bank
  verified: {'on': '2026-07-21', method: api}
