- id: me/kingfield/faithworks-inc
  name: Faithworks Inc
  org: me/good-shepherd-food-bank
  categories:
  - food-pantry
  address: {street: 44 N Main Street, city: Strong, state: me, zip: 04983}
  place: '2336990'
  geo: {lat: 44.81032, lng: -70.21968}
  phone: 207-684-1030
  website: https://www.facebook.com/FaithWorksPantry/
  external_ids: {me-good-shepherd-food-bank: '31263'}
  sources:
  - foodbank/me-good-shepherd-food-bank
  verified: {'on': '2026-07-20', method: api}
- id: me/kingfield/mt-abram-regional-health-center
  name: MT. ABRAM REGIONAL HEALTH CENTER
  categories:
  - community-health-center
  cost: sliding-scale
  address: {street: 25 Depot St, city: Kingfield, state: me, zip: 04947}
  place: '2336990'
  geo: {lat: 44.95805, lng: -70.15716}
  phone: 207-265-4555
  website: https://www.healthreachchc.org
  external_ids: {bphc: BPS-H80-002198}
  sources:
  - hrsa/health-center-sites
  verified: {'on': '2026-07-19', method: api}
- id: me/kingfield/phillips-area-food-pantry
  name: Phillips Area Food Pantry
  org: me/good-shepherd-food-bank
  categories:
  - food-pantry
  address: {street: 31 Main Street, city: Phillips, state: me, zip: 04966}
  place: '2336990'
  geo: {lat: 44.82324, lng: -70.34317}
  phone: 207-491-0118
  website: https://www.maine.gov/dacf/ard/food-assistance/tefap/Franklin.shtml
  external_ids: {me-good-shepherd-food-bank: '28779'}
  sources:
  - foodbank/me-good-shepherd-food-bank
  verified: {'on': '2026-07-20', method: api}
- id: me/kingfield/riverweb-farm
  name: Riverweb Farm
  org: me/good-shepherd-food-bank
  categories:
  - food-pantry
  address: {street: 300 River Road, city: Avon, state: me, zip: 04966}
  place: '2336990'
  geo: {lat: 44.81012, lng: -70.32659}
  phone: 207-209-2573
  email: larissa@riverweb.farm
  external_ids: {me-good-shepherd-food-bank: '28502'}
  sources:
  - foodbank/me-good-shepherd-food-bank
  verified: {'on': '2026-07-20', method: api}
- id: me/kingfield/united-methodist-economic-ministry
  name: United Methodist Economic Ministry
  org: me/good-shepherd-food-bank
  categories:
  - food-pantry
  address: {street: 1458 Salem Rd, city: Salem, state: me, zip: 04983}
  place: '2336990'
  geo: {lat: 44.90405, lng: -70.25898}
  phone: 207-678-2611
  website: https://www.facebook.com/umeconomicministry/
  external_ids: {me-good-shepherd-food-bank: '29009'}
  sources:
  - foodbank/me-good-shepherd-food-bank
  verified: {'on': '2026-07-20', method: api}
