- id: me/lewiston/andwell-health-partners-community-and-behavioral
  name: Andwell Health Partners Community and Behavioral Health
  categories:
  - mh-treatment
  address:
    street: 15 Strawberry Avenue
    city: Lewiston
    state: me
    zip: '04240'
  place: '2338740'
  phone: 800-482-7412
  website: https://andwell.org
  sources:
  - samhsa/findtreatment
  verified:
    'on': '2026-07-19'
    method: api
- id: me/lewiston/avalon-counseling-services
  name: Avalon Counseling Services
  categories:
  - su-treatment
  - mh-treatment
  address:
    street: 37 Park Street
    city: Lewiston
    state: me
    zip: '04240'
  place: '2338740'
  geo:
    lat: 44.09805
    lng: -70.21717
  phone: 207-333-1080
  website: https://www.avaloncounseling.net
  sources:
  - samhsa/findtreatment
  verified:
    'on': '2026-07-19'
    method: api
- id: me/lewiston/b-street-health-center
  name: B Street Health Center
  categories:
  - community-health-center
  address:
    street: 57 Birch St
    city: Lewiston
    state: me
    zip: '04240'
  place: '2338740'
  geo:
    lat: 44.09286
    lng: -70.21144
  phone: 207-753-5400
  website: https://www.communityclinicalservices.com
  external_ids:
    bphc: BPS-LAL-009910
  sources:
  - hrsa/health-center-sites
  verified:
    'on': '2026-07-19'
    method: api
- id: me/lewiston/ccs-family-health-center
  name: CCS Family Health Center
  categories:
  - community-health-center
  address:
    street: 100 Campus Ave
    city: Lewiston
    state: me
    zip: '04240'
  place: '2338740'
  geo:
    lat: 44.10249
    lng: -70.19933
  phone: 207-755-3445
  website: https://www.communityclinicalservices.com
  external_ids:
    bphc: BPS-LAL-009915
  sources:
  - hrsa/health-center-sites
  verified:
    'on': '2026-07-19'
    method: api
- id: me/lewiston/ccs-pediatrics
  name: CCS Pediatrics
  categories:
  - community-health-center
  address:
    street: 330 Sabattus St
    city: Lewiston
    state: me
    zip: '04240'
  place: '2338740'
  geo:
    lat: 44.10072
    lng: -70.19994
  phone: 207-755-3160
  website: https://www.communityclinicalservices.com
  external_ids:
    bphc: BPS-LAL-017470
  sources:
  - hrsa/health-center-sites
  verified:
    'on': '2026-07-19'
    method: api
- id: me/lewiston/ccs-recovery-connections-of-maine
  name: CCS @ Recovery Connections of Maine
  categories:
  - community-health-center
  address:
    street: 103 Park St
    city: Lewiston
    state: me
    zip: '04240'
  place: '2338740'
  geo:
    lat: 44.09603
    lng: -70.21599
  phone: 207-440-7922
  external_ids:
    bphc: BPS-LAL-038338
  sources:
  - hrsa/health-center-sites
  verified:
    'on': '2026-07-19'
    method: api
- id: me/lewiston/central-maine-family-counseling-pa-blue-willow-c
  name: Central Maine Family Counseling PA Blue Willow Counseling Center
  categories:
  - su-treatment
  - mh-treatment
  address:
    street: 101 East Avenue
    city: Lewiston
    state: me
    zip: '04240'
  place: '2338740'
  geo:
    lat: 44.09093
    lng: -70.19866
  phone: 207-777-3399
  website: https://www.bluewillowcounseling.com
  sources:
  - samhsa/findtreatment
  verified:
    'on': '2026-07-19'
    method: api
- id: me/lewiston/coburn
  name: Coburn
  categories:
  - child-care
  address:
    street: 269 Bates St
    city: Lewiston
    state: me
    zip: '04240'
  place: '2338740'
  geo:
    lat: 44.09321
    lng: -70.21201
  phone: 207-795-4040
  sources:
  - acf/head-start-locations
  verified:
    'on': '2026-07-19'
    method: api
- id: me/lewiston/colleen-jillson-counseling-servs-llc
  name: Colleen Jillson Counseling Servs LLC
  categories:
  - su-treatment
  address:
    street: 183 Main Street
    city: Lewiston
    state: me
    zip: '04240'
  place: '2338740'
  geo:
    lat: 44.09897
    lng: -70.21744
  phone: 207-312-8614
  website: https://
  sources:
  - samhsa/findtreatment
  verified:
    'on': '2026-07-19'
    method: api
- id: me/lewiston/connors
  name: Connors
  categories:
  - child-care
  address:
    street: 400 Bartlett St
    city: Lewiston
    state: me
    zip: '04240'
  place: '2338740'
  geo:
    lat: 44.08887
    lng: -70.20201
  phone: 207-795-4040
  sources:
  - acf/head-start-locations
  verified:
    'on': '2026-07-19'
    method: api
- id: me/lewiston/farwell-elementary-school
  name: Farwell Elementary School
  categories:
  - meal-program
  address:
    street: 84 Farwell Street
    city: Lewiston
    state: me
    zip: '04240'
  description: Free summer meals for kids and teens (2026 season) — sponsored by Lewiston Public Schools.
  place: '2338740'
  geo:
    lat: 44.09704
    lng: -70.19123
  phone: (207) 312-7143
  external_ids:
    usda_master: Cycle 08_ME_SFSP_0095
  sources:
  - usda/summer-meal-sites
  verified:
    'on': '2026-07-19'
    method: api
- id: me/lewiston/governor-james-b-longley-elem-sch
  name: Governor James B Longley Elem Sch
  categories:
  - meal-program
  address:
    street: 145 Birch Street
    city: Lewiston
    state: me
    zip: '04240'
  description: Free summer meals for kids and teens (2026 season) — sponsored by Lewiston Public Schools.
  place: '2338740'
  geo:
    lat: 44.09448
    lng: -70.20696
  phone: (207) 522-4854
  external_ids:
    usda_master: Cycle 08_ME_SFSP_0110
  sources:
  - usda/summer-meal-sites
  verified:
    'on': '2026-07-19'
    method: api
- id: me/lewiston/groups-recover-together
  name: Groups Recover Together
  categories:
  - su-treatment
  address:
    street: 217 Main Street
    city: Lewiston
    state: me
    zip: '04240'
  place: '2338740'
  geo:
    lat: 44.09951
    lng: -70.21654
  phone: 207-618-5157
  website: https://www.joingroups.com
  sources:
  - samhsa/findtreatment
  verified:
    'on': '2026-07-19'
    method: api
- id: me/lewiston/hillview
  name: Hillview
  categories:
  - child-care
  address:
    street: 77 Rideout Ave
    city: Lewiston
    state: me
    zip: '04240'
  place: '2338740'
  geo:
    lat: 44.0988
    lng: -70.16586
  phone: 207-795-4040
  sources:
  - acf/head-start-locations
  verified:
    'on': '2026-07-19'
    method: api
- id: me/lewiston/hillview-2
  name: Hillview
  categories:
  - meal-program
  address:
    street: 77 Rideout Ave
    city: Lewiston
    state: me
    zip: '04240'
  description: Free summer meals for kids and teens (2026 season) — sponsored by Lewiston Public Schools.
  place: '2338740'
  geo:
    lat: 44.0987
    lng: -70.16594
  phone: (207) 784-4995
  external_ids:
    usda_master: Cycle 08_ME_SFSP_0122
  sources:
  - usda/summer-meal-sites
  verified:
    'on': '2026-07-19'
    method: api
- id: me/lewiston/left-bank-recovery-services-llc
  name: Left Bank Recovery Services LLC
  categories:
  - su-treatment
  - mh-treatment
  address:
    street: 37 Park Street
    city: Lewiston
    state: me
    zip: '04240'
  place: '2338740'
  geo:
    lat: 44.09805
    lng: -70.21717
  phone: 207-777-1046
  website: https://www.leftbankrecovery.com
  sources:
  - samhsa/findtreatment
  verified:
    'on': '2026-07-19'
    method: api
- id: me/lewiston/lewiston-high-school
  name: Lewiston High School
  categories:
  - meal-program
  address:
    street: 156 East Ave.
    city: Lewiston
    state: me
    zip: '04240'
  description: Free summer meals for kids and teens (2026 season) — sponsored by Lewiston Public Schools.
  place: '2338740'
  geo:
    lat: 44.09366
    lng: -70.19915
  phone: (207) 212-9997
  external_ids:
    usda_master: Cycle 08_ME_SFSP_0143
  sources:
  - usda/summer-meal-sites
  verified:
    'on': '2026-07-19'
    method: api
- id: me/lewiston/lewiston-high-school-based-health-center
  name: Lewiston High School-Based Health Center
  categories:
  - community-health-center
  address:
    street: 156 East Ave
    city: Lewiston
    state: me
    zip: '04240'
  place: '2338740'
  geo:
    lat: 44.09318
    lng: -70.20192
  phone: 207-795-4144
  website: https://www.communityclinicalservices.com
  external_ids:
    bphc: BPS-LAL-009921
  sources:
  - hrsa/health-center-sites
  verified:
    'on': '2026-07-19'
    method: api
- id: me/lewiston/lewiston-housing-authority
  name: Lewiston Housing Authority
  categories:
  - housing-assistance
  address:
    street: 86 Lisbon St
    city: Lewiston
    state: me
    zip: '04240'
  description: Public housing and Housing Choice Voucher agency
  place: '2338740'
  geo:
    lat: 44.09726
    lng: -70.21726
  phone: 207-783-1423
  sources:
  - hud/resource-locator
  verified:
    'on': '2026-07-19'
    method: api
- id: me/lewiston/lewiston-middle-school
  name: Lewiston Middle School
  categories:
  - meal-program
  address:
    street: 75 Central Ave
    city: Lewiston
    state: me
    zip: '04240'
  description: Free summer meals for kids and teens (2026 season) — sponsored by Lewiston Public Schools.
  place: '2338740'
  geo:
    lat: 44.10301
    lng: -70.20307
  phone: (207) 795-4180
  external_ids:
    usda_master: Cycle 08_ME_SFSP_0144
  sources:
  - usda/summer-meal-sites
  verified:
    'on': '2026-07-19'
    method: api
- id: me/lewiston/lewiston-mobile-vet-center
  name: Lewiston Mobile Vet Center
  categories: &id001
  - vet-center
  address: {street: 35 Westminster Street, city: Lewiston, state: me, zip: '04240'}
  place: '2338740'
  geo: {lat: 44.07565, lng: -70.17469}
  phone: 207-783-0068
  website: https://www.va.gov/lewiston-vet-center/locations/#lewiston-mobile-vet-center
  external_ids: {va: vc_0804MVC}
  sources:
  - va/facilities-api
  verified: {'on': '2026-07-19', method: api}
- id: me/lewiston/lewiston-recreation-summer-program
  name: Lewiston Recreation Summer Program
  categories:
  - meal-program
  address:
    street: 65 Central Ave
    city: Lewiston
    state: me
    zip: '04240'
  description: Free summer meals for kids and teens (2026 season) — sponsored by Lewiston Public Schools.
  place: '2338740'
  geo:
    lat: 44.10216
    lng: -70.20387
  phone: (207) 513-3005
  external_ids:
    usda_master: Cycle 08_ME_SFSP_0145
  sources:
  - usda/summer-meal-sites
  verified:
    'on': '2026-07-19'
    method: api
- id: me/lewiston/lewiston-va-clinic
  name: Lewiston VA Clinic
  categories:
  - va-facility
  - health
  description: Multi-Specialty CBOC
  address: {street: 15 Challenger Drive, city: Lewiston, state: me, zip: '04240'}
  place: '2338740'
  geo: {lat: 44.07025, lng: -70.19023}
  phone: 877-421-8263
  website: https://www.va.gov/maine-health-care/locations/lewiston-va-clinic/
  hours:
  - {days: [mon, tue, wed, thu, fri], open: '07:00', close: '16:30'}
  external_ids: {va: vha_402GE}
  sources:
  - va/facilities-api
  verified: {'on': '2026-07-19', method: api}
- id: me/lewiston/lewiston-vet-center
  name: Lewiston Vet Center
  categories: *id001
  address: {street: 35 Westminster Street, city: Lewiston, state: me, zip: '04240'}
  place: '2338740'
  geo: {lat: 44.07565, lng: -70.17469}
  phone: 207-783-0068
  website: https://www.va.gov/lewiston-vet-center/
  hours:
  - {days: [mon, tue, wed, thu, fri], open: '08:00', close: '16:30'}
  external_ids: {va: vc_0129V}
  sources:
  - va/facilities-api
  verified: {'on': '2026-07-19', method: api}
- id: me/lewiston/merrimack-river-medical-services-healthcare-reso
  name: Merrimack River Medical Services Healthcare Resource Centers
  categories:
  - su-treatment
  address:
    street: 18 Mollison Way
    city: Lewiston
    state: me
    zip: '04240'
  place: '2338740'
  geo:
    lat: 44.12479
    lng: -70.19833
  phone: 207-312-6860
  website: https://www.hcrcenters.com/
  sources:
  - samhsa/findtreatment
  verified:
    'on': '2026-07-19'
    method: api
- id: me/lewiston/montello-school
  name: Montello School
  categories:
  - meal-program
  address:
    street: 407 East Ave
    city: Lewiston
    state: me
    zip: '04240'
  description: Free summer meals for kids and teens (2026 season) — sponsored by Lewiston Public Schools.
  place: '2338740'
  geo:
    lat: 44.10989
    lng: -70.18562
  phone: (508) 209-1491
  external_ids:
    usda_master: Cycle 08_ME_SFSP_0173
  sources:
  - usda/summer-meal-sites
  verified:
    'on': '2026-07-19'
    method: api
- id: me/lewiston/one-college
  name: One College
  categories:
  - child-care
  address:
    street: 1 College St
    city: Lewiston
    state: me
    zip: '04240'
  place: '2338740'
  geo:
    lat: 44.09776
    lng: -70.21434
  phone: 207-795-4040
  sources:
  - acf/head-start-locations
  verified:
    'on': '2026-07-19'
    method: api
- id: me/lewiston/pleasant-view-acres
  name: Pleasant View Acres
  categories:
  - meal-program
  address:
    street: 50 Fairmont St
    city: Lewiston
    state: me
    zip: '04240'
  description: Free summer meals for kids and teens (2026 season) — sponsored by Lewiston Public Schools.
  place: '2338740'
  geo:
    lat: 44.08454
    lng: -70.18896
  phone: (917) 651-8195
  external_ids:
    usda_master: Cycle 08_ME_SFSP_0212
  sources:
  - usda/summer-meal-sites
  verified:
    'on': '2026-07-19'
    method: api
- id: me/lewiston/raymond-a-geiger-elementary-school
  name: Raymond A. Geiger Elementary School
  categories:
  - meal-program
  address:
    street: 601 College Street
    city: Lewiston
    state: me
    zip: '04240'
  description: Free summer meals for kids and teens (2026 season) — sponsored by Lewiston Public Schools.
  place: '2338740'
  geo:
    lat: 44.12375
    lng: -70.18918
  phone: (207) 590-2224
  external_ids:
    usda_master: Cycle 08_ME_SFSP_0215
  sources:
  - usda/summer-meal-sites
  verified:
    'on': '2026-07-19'
    method: api
- id: me/lewiston/river-valley-village
  name: River Valley Village
  categories:
  - meal-program
  address:
    street: 84 Strawberry Ave
    city: Lewiston
    state: me
    zip: '04240'
  description: Free summer meals for kids and teens (2026 season) — sponsored by Lewiston Public Schools.
  place: '2338740'
  geo:
    lat: 44.12011
    lng: -70.20782
  phone: (207) 777-7199
  external_ids:
    usda_master: Cycle 08_ME_SFSP_0218
  sources:
  - usda/summer-meal-sites
  verified:
    'on': '2026-07-19'
    method: api
- id: me/lewiston/robert-v-connors-elementary-school
  name: Robert V. Connors Elementary School
  categories:
  - meal-program
  address:
    street: 400 Bartlett Street
    city: Lewiston
    state: me
    zip: '04240'
  description: Free summer meals for kids and teens (2026 season) — sponsored by Lewiston Public Schools.
  place: '2338740'
  geo:
    lat: 44.08878
    lng: -70.20214
  phone: (207) 577-3632
  external_ids:
    usda_master: Cycle 08_ME_SFSP_0222
  sources:
  - usda/summer-meal-sites
  verified:
    'on': '2026-07-19'
    method: api
- id: me/lewiston/saint-marys-regional-medical-center
  name: Saint Marys Regional Medical Center
  categories:
  - su-treatment
  - mh-treatment
  address:
    street: 93 Campus Avenue
    city: Lewiston
    state: me
    zip: '04240'
  place: '2338740'
  geo:
    lat: 44.10175
    lng: -70.19963
  phone: 207-777-8100
  website: https://www.stmarysmaine.com
  sources:
  - samhsa/findtreatment
  verified:
    'on': '2026-07-19'
    method: api
- id: me/lewiston/spurwink-services-lisbon-street
  name: Spurwink Services Lisbon Street
  categories:
  - su-treatment
  - mh-treatment
  address:
    street: 1155 Lisbon Street
    city: Lewiston
    state: me
    zip: '04241'
  place: '2338740'
  geo:
    lat: 44.07803
    lng: -70.19055
  phone: 888-889-3903
  website: https://www.spurwink.org
  sources:
  - samhsa/findtreatment
  verified:
    'on': '2026-07-19'
    method: api
- id: me/lewiston/the-root-cellar
  name: The Root Cellar
  categories:
  - meal-program
  address:
    street: 89 Birch Street
    city: Lewiston
    state: me
    zip: '04240'
  description: Free summer meals for kids and teens (2026 season) — sponsored by Lewiston Public Schools.
  place: '2338740'
  geo:
    lat: 44.0936
    lng: -70.20968
  phone: (717) 634-4326
  external_ids:
    usda_master: Cycle 08_ME_SFSP_0271
  sources:
  - usda/summer-meal-sites
  verified:
    'on': '2026-07-19'
    method: api
- id: me/lewiston/thomas-j-mcmahon-elementary-sch
  name: Thomas J Mcmahon Elementary Sch
  categories:
  - meal-program
  address:
    street: 151 N Temple St
    city: Lewiston
    state: me
    zip: '04240'
  description: Free summer meals for kids and teens (2026 season) — sponsored by Lewiston Public Schools.
  place: '2338740'
  geo:
    lat: 44.10934
    lng: -70.16124
  phone: (207) 212-6605
  external_ids:
    usda_master: Cycle 08_ME_SFSP_0272
  sources:
  - usda/summer-meal-sites
  verified:
    'on': '2026-07-19'
    method: api
- id: me/lewiston/ywca-central-maine-open-site
  name: Ywca Central Maine Open Site
  categories:
  - meal-program
  address:
    street: 130 East Avenue
    city: Lewiston
    state: me
    zip: '04240'
  description: Free summer meals for kids and teens (2026 season) — sponsored by YWCA Central Maine.
  place: '2338740'
  geo:
    lat: 44.09349
    lng: -70.19912
  phone: (207) 795-4050
  external_ids:
    usda_master: Cycle 08_ME_SFSP_0309
  sources:
  - usda/summer-meal-sites
  verified:
    'on': '2026-07-19'
    method: api
