- id: me/lewiston/andwell-health-partners-community-and-behavioral
  name: Andwell Health Partners Community and Behavioral Health
  categories:
  - mh-treatment
  address:
    street: 15 Strawberry Avenue
    city: Lewiston
    state: me
    zip: '04240'
  place: '2338740'
  phone: 800-482-7412
  website: https://andwell.org
  sources:
  - samhsa/findtreatment
  verified:
    'on': '2026-07-19'
    method: api
- id: me/lewiston/avalon-counseling-services
  name: Avalon Counseling Services
  categories:
  - su-treatment
  - mh-treatment
  address:
    street: 37 Park Street
    city: Lewiston
    state: me
    zip: '04240'
  place: '2338740'
  geo:
    lat: 44.09805
    lng: -70.21717
  phone: 207-333-1080
  website: https://www.avaloncounseling.net
  sources:
  - samhsa/findtreatment
  verified:
    'on': '2026-07-19'
    method: api
- id: me/lewiston/b-street-health-center
  name: B Street Health Center
  categories:
  - community-health-center
  address:
    street: 57 Birch St
    city: Lewiston
    state: me
    zip: '04240'
  place: '2338740'
  geo:
    lat: 44.09286
    lng: -70.21144
  phone: 207-753-5400
  website: https://www.communityclinicalservices.com
  external_ids:
    bphc: BPS-LAL-009910
  sources:
  - hrsa/health-center-sites
  verified:
    'on': '2026-07-19'
    method: api
- id: me/lewiston/ccs-family-health-center
  name: CCS Family Health Center
  categories:
  - community-health-center
  address:
    street: 100 Campus Ave
    city: Lewiston
    state: me
    zip: '04240'
  place: '2338740'
  geo:
    lat: 44.10249
    lng: -70.19933
  phone: 207-755-3445
  website: https://www.communityclinicalservices.com
  external_ids:
    bphc: BPS-LAL-009915
  sources:
  - hrsa/health-center-sites
  verified:
    'on': '2026-07-19'
    method: api
- id: me/lewiston/ccs-pediatrics
  name: CCS Pediatrics
  categories:
  - community-health-center
  address:
    street: 330 Sabattus St
    city: Lewiston
    state: me
    zip: '04240'
  place: '2338740'
  geo:
    lat: 44.10072
    lng: -70.19994
  phone: 207-755-3160
  website: https://www.communityclinicalservices.com
  external_ids:
    bphc: BPS-LAL-017470
  sources:
  - hrsa/health-center-sites
  verified:
    'on': '2026-07-19'
    method: api
- id: me/lewiston/ccs-recovery-connections-of-maine
  name: CCS @ Recovery Connections of Maine
  categories:
  - community-health-center
  address:
    street: 103 Park St
    city: Lewiston
    state: me
    zip: '04240'
  place: '2338740'
  geo:
    lat: 44.09603
    lng: -70.21599
  phone: 207-440-7922
  external_ids:
    bphc: BPS-LAL-038338
  sources:
  - hrsa/health-center-sites
  verified:
    'on': '2026-07-19'
    method: api
- id: me/lewiston/central-maine-family-counseling-pa-blue-willow-c
  name: Central Maine Family Counseling PA Blue Willow Counseling Center
  categories:
  - su-treatment
  - mh-treatment
  address:
    street: 101 East Avenue
    city: Lewiston
    state: me
    zip: '04240'
  place: '2338740'
  geo:
    lat: 44.09093
    lng: -70.19866
  phone: 207-777-3399
  website: https://www.bluewillowcounseling.com
  sources:
  - samhsa/findtreatment
  verified:
    'on': '2026-07-19'
    method: api
- id: me/lewiston/coburn
  name: Coburn
  categories:
  - child-care
  address:
    street: 269 Bates St
    city: Lewiston
    state: me
    zip: '04240'
  place: '2338740'
  geo:
    lat: 44.09321
    lng: -70.21201
  phone: 207-795-4040
  sources:
  - acf/head-start-locations
  verified:
    'on': '2026-07-19'
    method: api
- id: me/lewiston/colleen-jillson-counseling-servs-llc
  name: Colleen Jillson Counseling Servs LLC
  categories:
  - su-treatment
  address:
    street: 183 Main Street
    city: Lewiston
    state: me
    zip: '04240'
  place: '2338740'
  geo:
    lat: 44.09897
    lng: -70.21744
  phone: 207-312-8614
  website: https://
  sources:
  - samhsa/findtreatment
  verified:
    'on': '2026-07-19'
    method: api
- id: me/lewiston/connors
  name: Connors
  categories:
  - child-care
  address:
    street: 400 Bartlett St
    city: Lewiston
    state: me
    zip: '04240'
  place: '2338740'
  geo:
    lat: 44.08887
    lng: -70.20201
  phone: 207-795-4040
  sources:
  - acf/head-start-locations
  verified:
    'on': '2026-07-19'
    method: api
- id: me/lewiston/groups-recover-together
  name: Groups Recover Together
  categories:
  - su-treatment
  address:
    street: 217 Main Street
    city: Lewiston
    state: me
    zip: '04240'
  place: '2338740'
  geo:
    lat: 44.09951
    lng: -70.21654
  phone: 207-618-5157
  website: https://www.joingroups.com
  sources:
  - samhsa/findtreatment
  verified:
    'on': '2026-07-19'
    method: api
- id: me/lewiston/hillview
  name: Hillview
  categories:
  - child-care
  address:
    street: 77 Rideout Ave
    city: Lewiston
    state: me
    zip: '04240'
  place: '2338740'
  geo:
    lat: 44.0988
    lng: -70.16586
  phone: 207-795-4040
  sources:
  - acf/head-start-locations
  verified:
    'on': '2026-07-19'
    method: api
- id: me/lewiston/left-bank-recovery-services-llc
  name: Left Bank Recovery Services LLC
  categories:
  - su-treatment
  - mh-treatment
  address:
    street: 37 Park Street
    city: Lewiston
    state: me
    zip: '04240'
  place: '2338740'
  geo:
    lat: 44.09805
    lng: -70.21717
  phone: 207-777-1046
  website: https://www.leftbankrecovery.com
  sources:
  - samhsa/findtreatment
  verified:
    'on': '2026-07-19'
    method: api
- id: me/lewiston/lewiston-high-school-based-health-center
  name: Lewiston High School-Based Health Center
  categories:
  - community-health-center
  address:
    street: 156 East Ave
    city: Lewiston
    state: me
    zip: '04240'
  place: '2338740'
  geo:
    lat: 44.09318
    lng: -70.20192
  phone: 207-795-4144
  website: https://www.communityclinicalservices.com
  external_ids:
    bphc: BPS-LAL-009921
  sources:
  - hrsa/health-center-sites
  verified:
    'on': '2026-07-19'
    method: api
- id: me/lewiston/lewiston-housing-authority
  name: Lewiston Housing Authority
  categories:
  - housing-assistance
  address: {street: 86 Lisbon St, city: Lewiston, state: me, zip: '04240'}
  description: Public housing and Housing Choice Voucher agency
  place: '2338740'
  geo: {lat: 44.09726, lng: -70.21726}
  phone: 207-783-1423
  sources:
  - hud/resource-locator
  verified: {'on': '2026-07-19', method: api}
- id: me/lewiston/merrimack-river-medical-services-healthcare-reso
  name: Merrimack River Medical Services Healthcare Resource Centers
  categories:
  - su-treatment
  address:
    street: 18 Mollison Way
    city: Lewiston
    state: me
    zip: '04240'
  place: '2338740'
  geo:
    lat: 44.12479
    lng: -70.19833
  phone: 207-312-6860
  website: https://www.hcrcenters.com/
  sources:
  - samhsa/findtreatment
  verified:
    'on': '2026-07-19'
    method: api
- id: me/lewiston/one-college
  name: One College
  categories:
  - child-care
  address:
    street: 1 College St
    city: Lewiston
    state: me
    zip: '04240'
  place: '2338740'
  geo:
    lat: 44.09776
    lng: -70.21434
  phone: 207-795-4040
  sources:
  - acf/head-start-locations
  verified:
    'on': '2026-07-19'
    method: api
- id: me/lewiston/saint-marys-regional-medical-center
  name: Saint Marys Regional Medical Center
  categories:
  - su-treatment
  - mh-treatment
  address:
    street: 93 Campus Avenue
    city: Lewiston
    state: me
    zip: '04240'
  place: '2338740'
  geo:
    lat: 44.10175
    lng: -70.19963
  phone: 207-777-8100
  website: https://www.stmarysmaine.com
  sources:
  - samhsa/findtreatment
  verified:
    'on': '2026-07-19'
    method: api
- id: me/lewiston/spurwink-services-lisbon-street
  name: Spurwink Services Lisbon Street
  categories:
  - su-treatment
  - mh-treatment
  address:
    street: 1155 Lisbon Street
    city: Lewiston
    state: me
    zip: '04241'
  place: '2338740'
  geo:
    lat: 44.07803
    lng: -70.19055
  phone: 888-889-3903
  website: https://www.spurwink.org
  sources:
  - samhsa/findtreatment
  verified:
    'on': '2026-07-19'
    method: api
