- id: me/newcastle/alna-food-pantry
  name: Alna Food Pantry
  org: me/good-shepherd-food-bank
  categories:
  - food-pantry
  address: {street: 1574 Alna Road, city: Alna, state: me, zip: '04535'}
  place: '2348610'
  geo: {lat: 44.0795, lng: -69.61928}
  phone: 207-737-9582
  website: https://alna.maine.gov/?SEC=92B22A75-F939-41A1-80DD-272672F7A7DA
  external_ids: {me-good-shepherd-food-bank: '34328'}
  sources:
  - foodbank/me-good-shepherd-food-bank
  verified: {'on': '2026-07-20', method: api}
- id: me/newcastle/ecumenical-food-pantry-of-lincoln-county
  name: Ecumenical Food Pantry of Lincoln County
  org: me/good-shepherd-food-bank
  categories:
  - food-pantry
  address: {street: 51 Main Street, city: Newcastle, state: me, zip: '04553'}
  place: '2348610'
  geo: {lat: 44.0609, lng: -69.52526}
  phone: 207-563-1311
  external_ids: {me-good-shepherd-food-bank: '31911'}
  sources:
  - foodbank/me-good-shepherd-food-bank
  verified: {'on': '2026-07-20', method: api}
- id: me/newcastle/ecumenical-food-pantry-of-lincoln-county-2
  name: Ecumenical Food Pantry of Lincoln County
  org: me/good-shepherd-food-bank
  categories:
  - food-pantry
  address: {street: 51 Main St, city: Newcastle, state: me, zip: '04553'}
  place: '2348610'
  geo: {lat: 44.03459, lng: -69.53732}
  phone: 207-563-3379
  website: https://www.facebook.com/ecumenicalfoodpantry/?__tn__=dP-R&#038;eid=ARALaXlxV2qI5gIJzKM3jpNHghsBXGdunr6_gMMRMtaGH2fyIMx3MtaF97-daCUEFWWEUF1_pwDdUkvO
  external_ids: {me-good-shepherd-food-bank: '28818'}
  sources:
  - foodbank/me-good-shepherd-food-bank
  verified: {'on': '2026-07-20', method: api}
- id: me/newcastle/salt-bay-area-head-start
  name: Salt Bay Area Head Start
  categories:
  - child-care
  address: {street: 5 Sheepscot Rd, city: Newcastle, state: me, zip: '04553'}
  description: Head Start early childhood program — 32 funded slots; operated by Midcoast Maine Community
    Action.
  place: '2348610'
  geo: {lat: 44.02687, lng: -69.56615}
  phone: 207-563-1412
  sources:
  - acf/head-start-locations
  verified: {'on': '2026-07-19', method: api}
- id: me/newcastle/skidompha-library-little-free-pantry
  name: Skidompha Library Little Free Pantry
  categories:
  - food-pantry
  place: '2348610'
  geo: {lat: 44.03259, lng: -69.53059}
  website: https://mapping.littlefreepantry.org/pantry/2808
  external_ids: {lfp: '2808'}
  sources:
  - littlefreepantry/map
  verified: {'on': '2026-07-19', method: scrape}
