- id: me/rangeley/ecumenical-food-pantry-rangeley-tefap-only
  name: Ecumenical Food Pantry – Rangeley (TEFAP ONLY)
  org: me/good-shepherd-food-bank
  categories:
  - food-pantry
  address: {street: 2416 Main St., city: Rangeley, state: me, zip: 04983}
  place: '2361805'
  geo: {lat: 44.96285, lng: -70.64047}
  phone: 207-864-2636
  website: https://goodshepherdrangeley.org/ministries/outreach/ecumenical-food-pantry/
  external_ids: {me-good-shepherd-food-bank: '34464'}
  sources:
  - foodbank/me-good-shepherd-food-bank
  verified: {'on': '2026-07-20', method: api}
- id: me/rangeley/rangeley-family-medicine
  name: RANGELEY FAMILY MEDICINE
  categories:
  - community-health-center
  cost: sliding-scale
  address: {street: 42 Dallas Hill Rd, city: Rangeley, state: me, zip: 04970}
  place: '2361805'
  geo: {lat: 44.95438, lng: -70.63498}
  phone: 207-864-3303
  website: https://www.healthreachchc.org
  external_ids: {bphc: BPS-H80-004765}
  sources:
  - hrsa/health-center-sites
  verified: {'on': '2026-07-19', method: api}
- id: me/rangeley/rangeley-family-medicine-2
  name: Rangeley Family Medicine
  org: me/good-shepherd-food-bank
  categories:
  - food-pantry
  address: {street: 42 Dallas Hill Rd, city: Rangeley, state: me}
  place: '2361805'
  geo: {lat: 44.95439, lng: -70.63497}
  website: http://www.rangeleychc.org
  external_ids: {me-good-shepherd-food-bank: '28934'}
  sources:
  - foodbank/me-good-shepherd-food-bank
  verified: {'on': '2026-07-20', method: api}
- id: me/rangeley/stratton-eustis-food-pantry
  name: Stratton- Eustis Food Pantry
  org: me/good-shepherd-food-bank
  categories:
  - food-pantry
  address: {street: 84 Main St, city: Stratton, state: me, zip: 04982}
  place: '2361805'
  geo: {lat: 45.191, lng: -70.46331}
  phone: 207-246-4401
  website: https://www.maine.gov/dacf/ard/food-assistance/tefap/Oxford.shtml
  external_ids: {me-good-shepherd-food-bank: '28811'}
  sources:
  - foodbank/me-good-shepherd-food-bank
  verified: {'on': '2026-07-20', method: api}
- id: me/rangeley/stratton-eustis-lions-club-lfp
  name: Stratton-Eustis Lions Club LFP
  categories:
  - food-pantry
  place: '2361805'
  geo: {lat: 45.13982, lng: -70.43675}
  website: https://mapping.littlefreepantry.org/pantry/2712
  external_ids: {lfp: '2712'}
  sources:
  - littlefreepantry/map
  verified: {'on': '2026-07-19', method: scrape}
