- id: me/rockland/groups-recover-together
  name: Groups Recover Together
  categories:
  - su-treatment
  address:
    street: 77 Park Street
    city: Rockland
    state: me
    zip: 04841
  place: '2363590'
  geo:
    lat: 44.11686
    lng: -69.10311
  phone: 888-858-1723
  website: https://www.joingroups.com
  sources:
  - samhsa/findtreatment
  verified:
    'on': '2026-07-19'
    method: api
- id: me/rockland/maine-behavioral-healthcare
  name: Maine Behavioral Healthcare
  categories:
  - su-treatment
  - mh-treatment
  address:
    street: 12 Union Street
    city: Rockland
    state: me
    zip: 04841
  place: '2363590'
  geo:
    lat: 44.1014
    lng: -69.11128
  phone: 844-292-0111
  website: https://mainehealth.org/maine-behavioral-healthcare
  sources:
  - samhsa/findtreatment
  verified:
    'on': '2026-07-19'
    method: api
- id: me/rockland/new-season-470-to-472-treatment-center
  name: New Season 470 to 472 Treatment Center
  categories:
  - su-treatment
  address:
    street: 166 New County Road
    city: Rockland
    state: me
    zip: 04841
  place: '2363590'
  geo:
    lat: 44.10107
    lng: -69.12047
  phone: 207-596-0312 x26905
  website: https://www.newseason.com/clinics/rockland-metro-treatment-center
  sources:
  - samhsa/findtreatment
  verified:
    'on': '2026-07-19'
    method: api
- id: me/rockland/rockland-child-development-center
  name: Rockland Child Development Center
  categories:
  - child-care
  address:
    street: 7 High St
    city: Rockland
    state: me
    zip: 04841
  place: '2363590'
  geo:
    lat: 44.10259
    lng: -69.11216
  phone: 207-594-5342
  sources:
  - acf/head-start-locations
  verified:
    'on': '2026-07-19'
    method: api
- id: me/rockland/south-school
  name: South School
  categories:
  - child-care
  address:
    street: 30 Broadway
    city: Rockland
    state: me
    zip: 04841
  place: '2363590'
  geo:
    lat: 44.09595
    lng: -69.11561
  phone: 207-596-2008
  sources:
  - acf/head-start-locations
  verified:
    'on': '2026-07-19'
    method: api
- id: me/rockland/uur-little-food-pantry
  name: UUR Little Food Pantry
  categories:
  - food-pantry
  place: '2363590'
  geo:
    lat: 44.11227
    lng: -69.11453
  external_ids:
    lfp: '3909'
  sources:
  - littlefreepantry/map
  verified:
    'on': '2026-07-19'
    method: scrape
