- id: me/unity/community-harvest
  name: Community Harvest
  org: me/good-shepherd-food-bank
  categories:
  - food-pantry
  address: {street: 358 Thorndike Road, city: Unity, state: me, zip: 04988}
  place: '2378220'
  geo: {lat: 44.61081, lng: -69.30608}
  external_ids: {me-good-shepherd-food-bank: '28544'}
  sources:
  - foodbank/me-good-shepherd-food-bank
  verified: {'on': '2026-07-21', method: api}
- id: me/unity/daybreak-growers-alliance
  name: Daybreak Growers Alliance
  org: me/good-shepherd-food-bank
  categories:
  - food-pantry
  address: {street: PO Box 262, city: 'Unity, ME', state: me, zip: 04988}
  place: '2378220'
  geo: {lat: 44.59401, lng: -69.34285}
  phone: 207-808-2189
  external_ids: {me-good-shepherd-food-bank: '36320'}
  sources:
  - foodbank/me-good-shepherd-food-bank
  verified: {'on': '2026-07-21', method: api}
- id: me/unity/field-of-greens
  name: Field of Greens
  org: me/good-shepherd-food-bank
  categories:
  - food-pantry
  address: {street: 24 Winslow Road, city: Albion, state: me, zip: 04910}
  place: '2378220'
  geo: {lat: 44.53135, lng: -69.44412}
  phone: 207-877-4817
  email: shawesgreen@gmail.com
  external_ids: {me-good-shepherd-food-bank: '28535'}
  sources:
  - foodbank/me-good-shepherd-food-bank
  verified: {'on': '2026-07-21', method: api}
- id: me/unity/four-waters-farm
  name: Four Waters Farm
  org: me/good-shepherd-food-bank
  categories:
  - food-pantry
  address: {street: 2069 N. Mountain Valley Highway, city: Montville, state: me, zip: 04941}
  place: '2378220'
  geo: {lat: 44.51203, lng: -69.2763}
  phone: 207-342-4044
  email: fourwatersfarm@gmail.com
  external_ids: {me-good-shepherd-food-bank: '28538'}
  sources:
  - foodbank/me-good-shepherd-food-bank
  verified: {'on': '2026-07-21', method: api}
- id: me/unity/hall-brook-farm
  name: Hall Brook Farm
  org: me/good-shepherd-food-bank
  categories:
  - food-pantry
  address: {street: 34 Berry Rd., city: Thorndike, state: me, zip: 04986}
  place: '2378220'
  geo: {lat: 44.59014, lng: -69.27663}
  email: hallbrookfarmmaine@gmail.com
  external_ids: {me-good-shepherd-food-bank: '28532'}
  sources:
  - foodbank/me-good-shepherd-food-bank
  verified: {'on': '2026-07-21', method: api}
- id: me/unity/jackson-food-pantry
  name: Jackson Food Pantry
  org: me/good-shepherd-food-bank
  categories:
  - food-pantry
  address: {street: 260 Village Rd, city: Jackson, state: me, zip: 04921}
  place: '2378220'
  geo: {lat: 44.61513, lng: -69.11933}
  phone: 207-322-9469
  website: https://www.jacksonmaine.org/organizations/jackson-food-pantry
  external_ids: {me-good-shepherd-food-bank: '28814'}
  sources:
  - foodbank/me-good-shepherd-food-bank
  verified: {'on': '2026-07-21', method: api}
- id: me/unity/lovejoy-health-center
  name: Lovejoy Health Center
  org: me/good-shepherd-food-bank
  categories:
  - food-pantry
  address: {street: 7 School St STE 1, city: Albion, state: me}
  place: '2378220'
  geo: {lat: 44.53002, lng: -69.44188}
  website: http://www.lovejoychc.org
  external_ids: {me-good-shepherd-food-bank: '28643'}
  sources:
  - foodbank/me-good-shepherd-food-bank
  verified: {'on': '2026-07-21', method: api}
- id: me/unity/rsu-3-unity-head-start-pre-k
  name: RSU 3 Unity Head Start / Pre-K
  categories:
  - child-care
  address: {street: 84 School St, city: Unity, state: me, zip: 04988}
  description: Head Start early childhood program — 20 funded slots; operated by Waldo Community Action
    Partners.
  place: '2378220'
  geo: {lat: 44.61346, lng: -69.35192}
  phone: 207-948-5228
  sources:
  - acf/head-start-locations
  verified: {'on': '2026-07-19', method: api}
- id: me/unity/the-buckle-farm
  name: The Buckle Farm
  org: me/good-shepherd-food-bank
  categories:
  - food-pantry
  address: {street: 43 Fisher Road, city: Unity, state: me, zip: 04988}
  place: '2378220'
  geo: {lat: 44.6088, lng: -69.28937}
  email: bucklefarm@gmail.com
  external_ids: {me-good-shepherd-food-bank: '28488'}
  sources:
  - foodbank/me-good-shepherd-food-bank
  verified: {'on': '2026-07-21', method: api}
- id: me/unity/the-open-door
  name: The Open Door
  org: me/good-shepherd-food-bank
  categories:
  - food-pantry
  address: {street: 180 Depot Street, city: Unity, state: me, zip: 04988}
  place: '2378220'
  geo: {lat: 44.61389, lng: -69.32847}
  phone: 207-722-3645
  website: https://www.facebook.com/p/The-Open-Door-100069755673060/
  external_ids: {me-good-shepherd-food-bank: '28805'}
  sources:
  - foodbank/me-good-shepherd-food-bank
  verified: {'on': '2026-07-21', method: api}
- id: me/unity/unity-elementary-school
  name: Unity Elementary School
  categories:
  - meal-program
  address: {street: 84 School Street, city: Unity, state: me, zip: 04988}
  description: Free summer meals for kids and teens (2026 season) — sponsored by RSU 03/MSAD 03.
  place: '2378220'
  geo: {lat: 44.61191, lng: -69.33865}
  phone: (207) 568-4607
  external_ids: {usda_master: Cycle 08_ME_SFSP_0279}
  sources:
  - usda/summer-meal-sites
  verified: {'on': '2026-07-19', method: api}
- id: me/unity/volunteer-regional-food-pantry
  name: Volunteer Regional Food Pantry
  org: me/good-shepherd-food-bank
  categories:
  - food-pantry
  address: {street: 180 Depot St, city: Unity, state: me, zip: 04988}
  place: '2378220'
  geo: {lat: 44.61467, lng: -69.32263}
  phone: 207-416-8479
  website: https://www.facebook.com/VolunteerRegionalFoodPantry/
  external_ids: {me-good-shepherd-food-bank: '28927'}
  sources:
  - foodbank/me-good-shepherd-food-bank
  verified: {'on': '2026-07-21', method: api}
- id: me/unity/walker-health-center
  name: Walker Health Center
  org: me/good-shepherd-food-bank
  categories:
  - food-pantry
  address: {street: 43 W Main St, city: Liberty, state: me}
  place: '2378220'
  geo: {lat: 44.397, lng: -69.31484}
  website: http://www.mainehealth.org
  external_ids: {me-good-shepherd-food-bank: '28670'}
  sources:
  - foodbank/me-good-shepherd-food-bank
  verified: {'on': '2026-07-21', method: api}
