- id: me/waldoboro/brookside-mobile-home-park
  name: Brookside Mobile Home Park
  categories:
  - meal-program
  address:
    street: 2108 Friendship Road
    city: Waldoboro
    state: me
    zip: '04572'
  description: Free summer meals for kids and teens (2026 season) — sponsored by Medical Care Development.
  place: '2379515'
  geo:
    lat: 44.05544
    lng: -69.32789
  phone: (207) 389-8090
  external_ids:
    usda_master: Cycle 08_ME_SFSP_0034
  sources:
  - usda/summer-meal-sites
  verified:
    'on': '2026-07-19'
    method: api
- id: me/waldoboro/jvs-little-free-pantry
  name: JVS Little Free Pantry
  categories:
  - food-pantry
  place: '2379515'
  geo:
    lat: 44.20563
    lng: -69.45609
  website: https://mapping.littlefreepantry.org/pantry/2962
  external_ids:
    lfp: '2962'
  sources:
  - littlefreepantry/map
  verified:
    'on': '2026-07-19'
    method: scrape
- id: me/waldoboro/marble-oaks
  name: Marble Oaks
  categories:
  - meal-program
  address:
    street: 327 Friendship St., Waldoboro, Me
    city: Waldoboro
    state: me
    zip: '04572'
  description: Free summer meals for kids and teens (2026 season) — sponsored by Medical Care Development.
  place: '2379515'
  geo:
    lat: 44.08684
    lng: -69.37383
  phone: (207) 563-1330
  external_ids:
    usda_master: Cycle 08_ME_SFSP_0156
  sources:
  - usda/summer-meal-sites
  verified:
    'on': '2026-07-19'
    method: api
- id: me/waldoboro/medomak-valley-middle-school
  name: Medomak Valley Middle School
  categories:
  - meal-program
  address:
    street: 318 Manktown Rd
    city: Waldoboro
    state: me
    zip: '04572'
  description: Free summer meals for kids and teens (2026 season) — sponsored by Medical Care Development.
  place: '2379515'
  geo:
    lat: 44.12169
    lng: -69.30722
  phone: (207) 542-2327
  external_ids:
    usda_master: Cycle 08_ME_SFSP_0163
  sources:
  - usda/summer-meal-sites
  verified:
    'on': '2026-07-19'
    method: api
- id: me/waldoboro/waldoboro-head-start
  name: Waldoboro Head Start
  categories:
  - child-care
  address: {street: 20 Depot St, city: Waldoboro, state: me, zip: '04572'}
  description: Head Start early childhood program — 8 funded slots; operated by Midcoast Maine Community
    Action.
  place: '2379515'
  geo: {lat: 44.10233, lng: -69.38089}
  sources:
  - acf/head-start-locations
  verified: {'on': '2026-07-19', method: api}
- id: me/waldoboro/waldoboro-village-apartments
  name: Waldoboro Village Apartments
  categories:
  - meal-program
  address:
    street: 1024 Main Street
    city: Waldoboro
    state: me
    zip: '04572'
  description: Free summer meals for kids and teens (2026 season) — sponsored by Medical Care Development.
  place: '2379515'
  geo:
    lat: 44.09834
    lng: -69.3724
  phone: (207) 389-8090
  external_ids:
    usda_master: Cycle 08_ME_SFSP_0287
  sources:
  - usda/summer-meal-sites
  verified:
    'on': '2026-07-19'
    method: api
