- id: me/waldoboro/brookside-mobile-home-park
  name: Brookside Mobile Home Park
  categories:
  - meal-program
  address: {street: 2108 Friendship Road, city: Waldoboro, state: me, zip: '04572'}
  description: Free summer meals for kids and teens (2026 season) — sponsored by Medical Care Development.
  place: '2379515'
  geo: {lat: 44.05544, lng: -69.32789}
  phone: (207) 389-8090
  external_ids: {usda_master: Cycle 08_ME_SFSP_0034}
  sources:
  - usda/summer-meal-sites
  verified: {'on': '2026-07-19', method: api}
- id: me/waldoboro/chloe-maxmin
  name: Chloe Maxmin
  org: me/good-shepherd-food-bank
  categories:
  - food-pantry
  address: {street: 76 Morang Cove Road, city: Nobleboro, state: me, zip: '04555'}
  place: '2379515'
  geo: {lat: 44.14349, lng: -69.4724}
  email: csmaxmin@gmail.com
  external_ids: {me-good-shepherd-food-bank: '28551'}
  sources:
  - foodbank/me-good-shepherd-food-bank
  verified: {'on': '2026-07-20', method: api}
- id: me/waldoboro/friendship-cushing-food-pantry
  name: Friendship – Cushing Food Pantry
  org: me/good-shepherd-food-bank
  categories:
  - food-pantry
  address: {street: 4 Kaler Lane, city: Friendship, state: me, zip: '04547'}
  place: '2379515'
  geo: {lat: 43.98213, lng: -69.33261}
  phone: 207-832-7644
  website: https://www.maine.gov/dacf/ard/food-assistance/tefap/Knox.shtml
  external_ids: {me-good-shepherd-food-bank: '28766'}
  sources:
  - foodbank/me-good-shepherd-food-bank
  verified: {'on': '2026-07-20', method: api}
- id: me/waldoboro/jefferson-area-community-food-pantry
  name: Jefferson Area Community Food Pantry
  org: me/good-shepherd-food-bank
  categories:
  - food-pantry
  address: {street: 72 Gardiner Rd, city: Jefferson, state: me, zip: 04348}
  place: '2379515'
  geo: {lat: 44.20047, lng: -69.49144}
  phone: 207-315-1134
  website: https://www.facebook.com/jeffersonareacommunityfoodpantry/
  external_ids: {me-good-shepherd-food-bank: '28871'}
  sources:
  - foodbank/me-good-shepherd-food-bank
  verified: {'on': '2026-07-20', method: api}
- id: me/waldoboro/jvs-little-free-pantry
  name: JVS Little Free Pantry
  categories:
  - food-pantry
  place: '2379515'
  geo: {lat: 44.20563, lng: -69.45609}
  website: https://mapping.littlefreepantry.org/pantry/2962
  external_ids: {lfp: '2962'}
  sources:
  - littlefreepantry/map
  verified: {'on': '2026-07-19', method: scrape}
- id: me/waldoboro/marble-oaks
  name: Marble Oaks
  categories:
  - meal-program
  address: {street: '327 Friendship St., Waldoboro, Me', city: Waldoboro, state: me, zip: '04572'}
  description: Free summer meals for kids and teens (2026 season) — sponsored by Medical Care Development.
  place: '2379515'
  geo: {lat: 44.08684, lng: -69.37383}
  phone: (207) 563-1330
  external_ids: {usda_master: Cycle 08_ME_SFSP_0156}
  sources:
  - usda/summer-meal-sites
  verified: {'on': '2026-07-19', method: api}
- id: me/waldoboro/medomak-valley-middle-school
  name: Medomak Valley Middle School
  categories:
  - meal-program
  address: {street: 318 Manktown Rd, city: Waldoboro, state: me, zip: '04572'}
  description: Free summer meals for kids and teens (2026 season) — sponsored by Medical Care Development.
  place: '2379515'
  geo: {lat: 44.12169, lng: -69.30722}
  phone: (207) 542-2327
  external_ids: {usda_master: Cycle 08_ME_SFSP_0163}
  sources:
  - usda/summer-meal-sites
  verified: {'on': '2026-07-19', method: api}
- id: me/waldoboro/somerville-farmers-market-at-pumpkin-vine-farm
  name: Somerville, Farmers’ Market at Pumpkin Vine Farm
  org: me/good-shepherd-food-bank
  categories:
  - food-pantry
  address: {street: 217 Hewett Rd, city: Somerville, state: me}
  place: '2379515'
  geo: {lat: 44.27523, lng: -69.4595}
  external_ids: {me-good-shepherd-food-bank: '28694'}
  sources:
  - foodbank/me-good-shepherd-food-bank
  verified: {'on': '2026-07-20', method: api}
- id: me/waldoboro/spear-farm
  name: Spear Farm
  org: me/good-shepherd-food-bank
  categories:
  - food-pantry
  address: {street: 14 Eugley Hill Rd, city: Nobleboro, state: me, zip: '04555'}
  place: '2379515'
  geo: {lat: 44.14069, lng: -69.44763}
  phone: 207-832-4488
  email: rwspear@roadrunner.com
  external_ids: {me-good-shepherd-food-bank: '28500'}
  sources:
  - foodbank/me-good-shepherd-food-bank
  verified: {'on': '2026-07-20', method: api}
- id: me/waldoboro/waldoboro-family-medicine
  name: Waldoboro Family Medicine
  org: me/good-shepherd-food-bank
  categories:
  - food-pantry
  address: {street: 27 Mill Street, city: Waldoboro, state: me}
  place: '2379515'
  geo: {lat: 44.09913, lng: -69.38128}
  website: http://www.mainehealth.org
  external_ids: {me-good-shepherd-food-bank: '28581'}
  sources:
  - foodbank/me-good-shepherd-food-bank
  verified: {'on': '2026-07-20', method: api}
- id: me/waldoboro/waldoboro-food-pantry
  name: Waldoboro Food Pantry
  org: me/good-shepherd-food-bank
  categories:
  - food-pantry
  address: {street: 124 Friendship St, city: Waldoboro, state: me, zip: '04572'}
  place: '2379515'
  geo: {lat: 44.09231, lng: -69.37571}
  phone: 207-542-3855
  website: http://waldoborofoodpantry.org/
  external_ids: {me-good-shepherd-food-bank: '28946'}
  sources:
  - foodbank/me-good-shepherd-food-bank
  verified: {'on': '2026-07-20', method: api}
- id: me/waldoboro/waldoboro-head-start
  name: Waldoboro Head Start
  categories:
  - child-care
  address: {street: 20 Depot St, city: Waldoboro, state: me, zip: '04572'}
  description: Head Start early childhood program — 8 funded slots; operated by Midcoast Maine Community
    Action.
  place: '2379515'
  geo: {lat: 44.10233, lng: -69.38089}
  sources:
  - acf/head-start-locations
  verified: {'on': '2026-07-19', method: api}
- id: me/waldoboro/waldoboro-village-apartments
  name: Waldoboro Village Apartments
  categories:
  - meal-program
  address: {street: 1024 Main Street, city: Waldoboro, state: me, zip: '04572'}
  description: Free summer meals for kids and teens (2026 season) — sponsored by Medical Care Development.
  place: '2379515'
  geo: {lat: 44.09834, lng: -69.3724}
  phone: (207) 389-8090
  external_ids: {usda_master: Cycle 08_ME_SFSP_0287}
  sources:
  - usda/summer-meal-sites
  verified: {'on': '2026-07-19', method: api}
- id: me/waldoboro/washington-food-bank
  name: Washington Food Bank
  org: me/good-shepherd-food-bank
  categories:
  - food-pantry
  address: {street: 33 Liberty Rd, city: Washington, state: me, zip: '04574'}
  place: '2379515'
  geo: {lat: 44.27612, lng: -69.36941}
  phone: 207-845-2101
  website: https://www.facebook.com/Washington-Food-Bank-1634001549967193/
  external_ids: {me-good-shepherd-food-bank: '28925'}
  sources:
  - foodbank/me-good-shepherd-food-bank
  verified: {'on': '2026-07-20', method: api}
