- id: nd/dickinson/amen-food-pantry
  name: Amen Food Pantry
  categories:
  - meal-program
  address:
    street: Po Box 1231
    city: Dickinson
    state: nd
    zip: '58601'
  description: Free summer meals for kids and teens (2026 season) — sponsored by Great Plains Food Bank.
  place: '3819620'
  geo:
    lat: 46.89332
    lng: -102.79011
  phone: (701) 476-9114
  external_ids:
    usda_master: Cycle 02_ND_SFSP_0050
  sources:
  - usda/summer-meal-sites
  verified:
    'on': '2026-07-19'
    method: api
- id: nd/dickinson/badlands-human-service-center-behavioral-health
  name: Badlands Human Service Center Behavioral Health Services
  categories:
  - su-treatment
  - mh-treatment
  address:
    street: 1463 I94 Business Loop East
    city: Dickinson
    state: nd
    zip: '58601'
  place: '3819620'
  geo:
    lat: 46.87923
    lng: -102.76273
  phone: 701-227-7500
  website: https://www.nd.gov
  sources:
  - samhsa/findtreatment
  verified:
    'on': '2026-07-19'
    method: api
- id: nd/dickinson/community-action-partnership-early-head-start
  name: Community Action Partnership Early Head Start
  categories:
  - child-care
  address:
    street: 338 1st St SE
    city: Dickinson
    state: nd
    zip: '58601'
  place: '3819620'
  geo:
    lat: 46.87492
    lng: -102.78418
  phone: 701-227-3010
  sources:
  - acf/head-start-locations
  verified:
    'on': '2026-07-19'
    method: api
- id: nd/dickinson/dickinson-head-start
  name: Dickinson Head Start
  categories:
  - child-care
  address:
    street: 107 3rd Ave SE
    city: Dickinson
    state: nd
    zip: '58601'
  place: '3819620'
  geo:
    lat: 46.87493
    lng: -102.78551
  phone: 701-227-3010
  sources:
  - acf/head-start-locations
  verified:
    'on': '2026-07-19'
    method: api
- id: nd/dickinson/dickinson-va-clinic
  name: Dickinson VA Clinic
  categories:
  - va-facility
  - health
  description: Primary Care CBOC
  address: {street: '3275 West Ridge Drive, West Ridge Market Center', city: Dickinson, state: nd, zip: '58601'}
  place: '3819620'
  geo: {lat: 46.89459, lng: -102.83498}
  phone: 701-483-1850
  website: https://www.va.gov/fargo-health-care/locations/dickinson-va-clinic/
  hours:
  - {days: [mon, tue, wed, thu, fri], open: '08:00', close: '16:30'}
  services:
  - Audiology and speech
  - Cardiology
  - Dermatology
  - Laboratory and pathology
  - MOVE! weight management
  - Mental health care
  - Nutrition, food, and dietary care
  - Primary care
  external_ids: {va: vha_437GJ}
  sources:
  - va/facilities-api
  verified: {'on': '2026-07-19', method: api}
- id: nd/dickinson/heart-river-services-llc-drug-abuse-service-inc
  name: Heart River Services LLC Drug Abuse Service Inc
  categories:
  - su-treatment
  address:
    street: 30 7th Street West
    city: Dickinson
    state: nd
    zip: '58601'
  place: '3819620'
  geo:
    lat: 46.88642
    lng: -102.78558
  phone: 701-483-0795
  website: https://www.hradonline.org
  sources:
  - samhsa/findtreatment
  verified:
    'on': '2026-07-19'
    method: api
- id: nd/dickinson/little-free-pantry-benedictine-living-community
  name: Little Free Pantry - Benedictine Living Community
  categories:
  - food-pantry
  place: '3819620'
  geo:
    lat: 46.88733
    lng: -102.7803
  external_ids:
    lfp: '3349'
  sources:
  - littlefreepantry/map
  verified:
    'on': '2026-07-19'
    method: scrape
- id: nd/dickinson/little-free-pantry-engage
  name: Little Free Pantry - Engage
  categories:
  - food-pantry
  place: '3819620'
  geo:
    lat: 46.86371
    lng: -102.79659
  external_ids:
    lfp: '2460'
  sources:
  - littlefreepantry/map
  verified:
    'on': '2026-07-19'
    method: scrape
- id: nd/dickinson/little-free-pantry-nodak-insurance
  name: Little Free Pantry - Nodak Insurance
  categories:
  - food-pantry
  place: '3819620'
  geo:
    lat: 46.9106
    lng: -102.79029
  external_ids:
    lfp: '2421'
  sources:
  - littlefreepantry/map
  verified:
    'on': '2026-07-19'
    method: scrape
- id: nd/dickinson/little-free-pantry-peace-lutheran-church
  name: Little Free Pantry - Peace Lutheran Church
  categories:
  - food-pantry
  place: '3819620'
  geo:
    lat: 46.90544
    lng: -102.80628
  external_ids:
    lfp: '2394'
  sources:
  - littlefreepantry/map
  verified:
    'on': '2026-07-19'
    method: scrape
- id: nd/dickinson/people-first-pantry
  name: People First Pantry
  categories:
  - food-pantry
  place: '3819620'
  geo:
    lat: 46.88023
    lng: -102.79348
  external_ids:
    lfp: '2733'
  sources:
  - littlefreepantry/map
  verified:
    'on': '2026-07-19'
    method: scrape
- id: nd/dickinson/people-first-pantry-dickinson
  name: People First Pantry - Dickinson
  categories:
  - food-pantry
  place: '3819620'
  geo:
    lat: 46.88036
    lng: -102.79401
  external_ids:
    lfp: '3826'
  sources:
  - littlefreepantry/map
  verified:
    'on': '2026-07-19'
    method: scrape
- id: nd/dickinson/st-john-lutheran-church-garden-of-grace
  name: St. John Lutheran Church Garden of Grace
  categories:
  - food-pantry
  place: '3819620'
  geo:
    lat: 46.88098
    lng: -102.79392
  external_ids:
    lfp: '2393'
  sources:
  - littlefreepantry/map
  verified:
    'on': '2026-07-19'
    method: scrape
- id: nd/dickinson/st-luke-s-little-free-pantry
  name: St. Luke's Little Free Pantry
  categories:
  - food-pantry
  place: '3819620'
  geo:
    lat: 46.89131
    lng: -102.78861
  external_ids:
    lfp: '2404'
  sources:
  - littlefreepantry/map
  verified:
    'on': '2026-07-19'
    method: scrape
- id: nd/dickinson/stark-county-housing-authority
  name: Stark County Housing Authority
  categories:
  - housing-assistance
  address:
    street: 1449 W Villard St
    city: Dickinson
    state: nd
    zip: '58601'
  description: Housing Choice Voucher (Section 8) agency
  place: '3819620'
  geo:
    lat: 46.8793
    lng: -102.80778
  phone: 701-225-3120
  sources:
  - hud/resource-locator
  verified:
    'on': '2026-07-19'
    method: api
