- id: la/alexandria/acadian-elementary
  name: Acadian Elementary
  categories:
  - child-care
  address:
    street: 310 Richmond Dr
    city: Alexandria
    state: la
    zip: '71302'
  place: '2200975'
  geo:
    lat: 31.28771
    lng: -92.41175
  phone: 318-442-8891
  sources:
  - acf/head-start-locations
  verified:
    'on': '2026-07-19'
    method: api
- id: la/alexandria/acadian-elementary-school-based-clinic
  name: Acadian Elementary School Based Clinic
  categories:
  - community-health-center
  address:
    street: 310 Richmond Dr
    city: Alexandria
    state: la
    zip: '71302'
  place: '2200975'
  geo:
    lat: 31.28723
    lng: -92.41187
  phone: 318-648-0375
  website: https://www.winnchc.org
  external_ids:
    bphc: BPS-H80-030988
  sources:
  - hrsa/health-center-sites
  verified:
    'on': '2026-07-19'
    method: api
- id: la/alexandria/alexandria-community-health-center
  name: Alexandria Community Health Center
  categories:
  - community-health-center
  address:
    street: 3425 North Blvd
    city: Alexandria
    state: la
    zip: '71301'
  place: '2200975'
  geo:
    lat: 31.27817
    lng: -92.45654
  phone: 318-648-0375
  website: https://www.winnchc.org
  external_ids:
    bphc: BPS-H80-040963
  sources:
  - hrsa/health-center-sites
  verified:
    'on': '2026-07-19'
    method: api
- id: la/alexandria/alexandria-senior-high-school-based-clinic
  name: Alexandria Senior High School Based Clinic
  categories:
  - community-health-center
  address:
    street: 800 Ola St
    city: Alexandria
    state: la
    zip: '71303'
  place: '2200975'
  geo:
    lat: 31.26821
    lng: -92.48938
  phone: 318-648-0375
  website: https://www.winnchc.org
  external_ids:
    bphc: BPS-H80-031265
  sources:
  - hrsa/health-center-sites
  verified:
    'on': '2026-07-19'
    method: api
- id: la/alexandria/alma-redwine-elementary
  name: Alma Redwine Elementary
  categories:
  - child-care
  address:
    street: 1323 Vance Ave
    city: Alexandria
    state: la
    zip: '71301'
  place: '2200975'
  geo:
    lat: 31.29493
    lng: -92.44798
  phone: 318-442-3177
  sources:
  - acf/head-start-locations
  verified:
    'on': '2026-07-19'
    method: api
- id: la/alexandria/alma-redwine-elementary-school-based-clinic
  name: Alma Redwine Elementary School-Based Clinic
  categories:
  - community-health-center
  address:
    street: 1321 Vance Ave
    city: Alexandria
    state: la
    zip: '71301'
  place: '2200975'
  geo:
    lat: 31.2954
    lng: -92.44772
  phone: 318-648-0375
  external_ids:
    bphc: BPS-H80-037618
  sources:
  - hrsa/health-center-sites
  verified:
    'on': '2026-07-19'
    method: api
- id: la/alexandria/arthur-f-smith-middle-magnet-school-based-clinic
  name: Arthur F. Smith Middle Magnet School Based Clinic
  categories:
  - community-health-center
  address:
    street: 3100 Jones Ave
    city: Alexandria
    state: la
    zip: '71302'
  place: '2200975'
  geo:
    lat: 31.28955
    lng: -92.43296
  phone: 318-648-0375
  website: https://www.winnchc.org
  external_ids:
    bphc: BPS-H80-030989
  sources:
  - hrsa/health-center-sites
  verified:
    'on': '2026-07-19'
    method: api
- id: la/alexandria/bolton-high-school-based-clinic
  name: Bolton High School Based Clinic
  categories:
  - community-health-center
  address:
    street: 2101 Vance Ave
    city: Alexandria
    state: la
    zip: '71301'
  place: '2200975'
  geo:
    lat: 31.29441
    lng: -92.45596
  phone: 318-648-0375
  website: https://www.winnchc.org
  external_ids:
    bphc: BPS-H80-030990
  sources:
  - hrsa/health-center-sites
  verified:
    'on': '2026-07-19'
    method: api
- id: la/alexandria/caring-choices-of-alexandria-central-la-human-se
  name: Caring Choices of Alexandria Central LA Human Service District
  categories:
  - su-treatment
  - mh-treatment
  address:
    street: 5411 Coliseum Boulevard
    city: Alexandria
    state: la
    zip: '71303'
  place: '2200975'
  geo:
    lat: 31.29414
    lng: -92.4985
  phone: 318-484-5191
  website: https://www.clhsd.org
  sources:
  - samhsa/findtreatment
  verified:
    'on': '2026-07-19'
    method: api
- id: la/alexandria/cherokee-elementary
  name: Cherokee Elementary
  categories:
  - child-care
  address:
    street: 5700 Prescott Rd
    city: Alexandria
    state: la
    zip: '71301'
  place: '2200975'
  geo:
    lat: 31.26438
    lng: -92.47792
  phone: 318-442-8891
  sources:
  - acf/head-start-locations
  verified:
    'on': '2026-07-19'
    method: api
- id: la/alexandria/cherokee-elementary-school-based-clinic
  name: Cherokee Elementary School Based Clinic
  categories:
  - community-health-center
  address:
    street: 5700 Prescott Rd
    city: Alexandria
    state: la
    zip: '71301'
  place: '2200975'
  geo:
    lat: 31.26448
    lng: -92.47791
  phone: 318-648-0375
  website: https://www.winnchc.org
  external_ids:
    bphc: BPS-H80-032656
  sources:
  - hrsa/health-center-sites
  verified:
    'on': '2026-07-19'
    method: api
- id: la/alexandria/d-f-huddle-elementary
  name: D. F. Huddle Elementary
  categories:
  - child-care
  address:
    street: 505 Texas Ave
    city: Alexandria
    state: la
    zip: '71301'
  place: '2200975'
  geo:
    lat: 31.29763
    lng: -92.47566
  phone: 318-442-8891
  sources:
  - acf/head-start-locations
  verified:
    'on': '2026-07-19'
    method: api
- id: la/alexandria/homebased-and-pregnant-moms
  name: Homebased and Pregnant Moms
  categories:
  - child-care
  address:
    street: 619 6th St
    street2: 619 Sixth Street
    city: Alexandria
    state: la
    zip: '71301'
  place: '2200975'
  geo:
    lat: 31.31176
    lng: -92.44848
  phone: 318-442-8891
  sources:
  - acf/head-start-locations
  verified:
    'on': '2026-07-19'
    method: api
- id: la/alexandria/horseshoe-drive-elementary
  name: Horseshoe Drive Elementary
  categories:
  - community-health-center
  address:
    street: 2905 Horseshoe Dr
    city: Alexandria
    state: la
    zip: '71301'
  place: '2200975'
  geo:
    lat: 31.26142
    lng: -92.46165
  phone: 318-648-0375
  website: https://www.wchc.org
  external_ids:
    bphc: BPS-H80-032654
  sources:
  - hrsa/health-center-sites
  verified:
    'on': '2026-07-19'
    method: api
- id: la/alexandria/horseshoe-elementary
  name: Horseshoe Elementary
  categories:
  - child-care
  address:
    street: 2905 Horseshoe Dr
    city: Alexandria
    state: la
    zip: '71301'
  place: '2200975'
  geo:
    lat: 31.26103
    lng: -92.46161
  phone: 318-442-8891
  sources:
  - acf/head-start-locations
  verified:
    'on': '2026-07-19'
    method: api
- id: la/alexandria/housing-authority-of-the-city-of-alexandria
  name: Housing Authority Of The City Of Alexandria
  categories:
  - housing-assistance
  address: {street: 2558 Loblolly Ln, city: Alexandria, state: la, zip: '71303'}
  description: Public housing and Housing Choice Voucher agency
  place: '2200975'
  geo: {lat: 31.31722, lng: -92.47977}
  phone: 318-442-8843
  sources:
  - hud/resource-locator
  verified: {'on': '2026-07-19', method: api}
- id: la/alexandria/j-b-nachman-elementary
  name: J. B. Nachman Elementary
  categories:
  - child-care
  address:
    street: 4102 Wakefield Blvd
    city: Alexandria
    state: la
    zip: '71303'
  place: '2200975'
  geo:
    lat: 31.28944
    lng: -92.4853
  phone: 318-442-8891
  sources:
  - acf/head-start-locations
  verified:
    'on': '2026-07-19'
    method: api
- id: la/alexandria/j-b-nachman-elementary-school-based-clinic
  name: J.B. Nachman Elementary School Based Clinic
  categories:
  - community-health-center
  address:
    street: 4102 Wakefield Blvd
    city: Alexandria
    state: la
    zip: '71303'
  place: '2200975'
  geo:
    lat: 31.28934
    lng: -92.48468
  phone: 318-648-0375
  website: https://www.winnchc.org
  external_ids:
    bphc: BPS-H80-030986
  sources:
  - hrsa/health-center-sites
  verified:
    'on': '2026-07-19'
    method: api
- id: la/alexandria/kite-clinic-alex
  name: Kite Clinic Alex
  categories:
  - su-treatment
  - mh-treatment
  address:
    street: 2800 South Macarthur Drive
    city: Alexandria
    state: la
    zip: '71301'
  place: '2200975'
  geo:
    lat: 31.26547
    lng: -92.46057
  phone: 337-579-5777
  website: https://www.thekiteclinic.com
  sources:
  - samhsa/findtreatment
  verified:
    'on': '2026-07-19'
    method: api
- id: la/alexandria/l-s-rugg-elementary
  name: L. S. Rugg Elementary
  categories:
  - child-care
  address:
    street: 1319 Bush Ave
    city: Alexandria
    state: la
    zip: '71301'
  place: '2200975'
  geo:
    lat: 31.29515
    lng: -92.46223
  phone: 318-442-4536
  sources:
  - acf/head-start-locations
  verified:
    'on': '2026-07-19'
    method: api
- id: la/alexandria/l-s-rugg-elementary-school-based-clinic
  name: L.S. Rugg Elementary School Based Clinic
  categories:
  - community-health-center
  address:
    street: 1319 Bush Ave
    city: Alexandria
    state: la
    zip: '71301'
  place: '2200975'
  geo:
    lat: 31.29511
    lng: -92.46245
  phone: 318-648-0375
  website: https://www.winnchc.org
  external_ids:
    bphc: BPS-H80-030987
  sources:
  - hrsa/health-center-sites
  verified:
    'on': '2026-07-19'
    method: api
- id: la/alexandria/mabel-brasher-montessori-elementary
  name: Mabel Brasher Montessori Elementary
  categories:
  - child-care
  address:
    street: 601 Cloverleaf Blvd
    city: Alexandria
    state: la
    zip: '71303'
  place: '2200975'
  geo:
    lat: 31.30016
    lng: -92.51469
  phone: 318-442-8891
  sources:
  - acf/head-start-locations
  verified:
    'on': '2026-07-19'
    method: api
- id: la/alexandria/mabel-brasher-montessori-school-based-health-cen
  name: Mabel Brasher Montessori School Based Health Center
  categories:
  - community-health-center
  address:
    street: 601 Cloverleaf Blvd
    city: Alexandria
    state: la
    zip: '71303'
  place: '2200975'
  geo:
    lat: 31.30058
    lng: -92.51369
  phone: 318-648-0375
  external_ids:
    bphc: BPS-H80-027803
  sources:
  - hrsa/health-center-sites
  verified:
    'on': '2026-07-19'
    method: api
- id: la/alexandria/martin-park-elementary
  name: Martin Park Elementary
  categories:
  - child-care
  address:
    street: 4203 Lisa St
    city: Alexandria
    state: la
    zip: '71302'
  place: '2200975'
  geo:
    lat: 31.25238
    lng: -92.4489
  phone: 318-448-1695
  sources:
  - acf/head-start-locations
  verified:
    'on': '2026-07-19'
    method: api
- id: la/alexandria/martin-park-elementary-school-based-clinic
  name: Martin Park Elementary School Based Clinic
  categories:
  - community-health-center
  address:
    street: 4203 Lisa St
    city: Alexandria
    state: la
    zip: '71302'
  place: '2200975'
  geo:
    lat: 31.2525
    lng: -92.44878
  phone: 318-648-0375
  website: https://www.winnchc.org
  external_ids:
    bphc: BPS-H80-032653
  sources:
  - hrsa/health-center-sites
  verified:
    'on': '2026-07-19'
    method: api
- id: la/alexandria/palmetto-addiction-recovery-center-alexandria-io
  name: Palmetto Addiction Recovery Center Alexandria IOP
  categories:
  - su-treatment
  - mh-treatment
  address:
    street: 3636 Government Street
    city: Alexandria
    state: la
    zip: '71302'
  place: '2200975'
  geo:
    lat: 31.26599
    lng: -92.44889
  phone: 318-704-6157
  website: https://alexandriacounselingllc.com
  sources:
  - samhsa/findtreatment
  verified:
    'on': '2026-07-19'
    method: api
- id: la/alexandria/peabody-montessori-elementary
  name: Peabody Montessori Elementary
  categories:
  - child-care
  address:
    street: 2416 3rd St
    city: Alexandria
    state: la
    zip: '71302'
  place: '2200975'
  geo:
    lat: 31.30205
    lng: -92.43523
  sources:
  - acf/head-start-locations
  verified:
    'on': '2026-07-19'
    method: api
- id: la/alexandria/peabody-montessori-elementary-school-based-clini
  name: Peabody Montessori Elementary School Based Clinic
  categories:
  - community-health-center
  address:
    street: 2416 3rd St
    city: Alexandria
    state: la
    zip: '71302'
  place: '2200975'
  geo:
    lat: 31.30277
    lng: -92.43451
  phone: 318-648-0375
  external_ids:
    bphc: BPS-H80-038942
  sources:
  - hrsa/health-center-sites
  verified:
    'on': '2026-07-19'
    method: api
- id: la/alexandria/peabody-school-based-clinic
  name: Peabody School-Based Clinic
  categories:
  - community-health-center
  address:
    street: 2727 Jones Ave
    city: Alexandria
    state: la
    zip: '71302'
  place: '2200975'
  geo:
    lat: 31.29313
    lng: -92.43517
  phone: 318-628-0088
  external_ids:
    bphc: BPS-H80-024546
  sources:
  - hrsa/health-center-sites
  verified:
    'on': '2026-07-19'
    method: api
- id: la/alexandria/phoenix-magnet-elementary
  name: Phoenix Magnet Elementary
  categories:
  - child-care
  address:
    street: 4500 Lincoln Rd
    city: Alexandria
    state: la
    zip: '71302'
  place: '2200975'
  geo:
    lat: 31.26624
    lng: -92.43232
  sources:
  - acf/head-start-locations
  verified:
    'on': '2026-07-19'
    method: api
- id: la/alexandria/phoenix-magnet-elementary-school-based-health-ce
  name: Phoenix Magnet Elementary School Based Health Center
  categories:
  - community-health-center
  address:
    street: 4500 Lincoln Rd
    city: Alexandria
    state: la
    zip: '71302'
  place: '2200975'
  geo:
    lat: 31.26626
    lng: -92.43225
  phone: 318-648-0375
  website: https://www.winnchc.org
  external_ids:
    bphc: BPS-H80-032655
  sources:
  - hrsa/health-center-sites
  verified:
    'on': '2026-07-19'
    method: api
- id: la/alexandria/poland-junior-high
  name: Poland Junior High
  categories:
  - child-care
  address:
    street: 3348 Highway 457
    city: Alexandria
    state: la
    zip: '71302'
  place: '2200975'
  geo:
    lat: 31.16739
    lng: -92.27571
  phone: 318-442-8891
  sources:
  - acf/head-start-locations
  verified:
    'on': '2026-07-19'
    method: api
- id: la/alexandria/poland-junior-high-school-based-clinic
  name: Poland Junior High School Based Clinic
  categories:
  - community-health-center
  address:
    street: 3348 Highway 457
    city: Alexandria
    state: la
    zip: '71302'
  place: '2200975'
  geo:
    lat: 31.16728
    lng: -92.27572
  phone: 318-648-0375
  external_ids:
    bphc: BPS-H80-034866
  sources:
  - hrsa/health-center-sites
  verified:
    'on': '2026-07-19'
    method: api
- id: la/alexandria/rapides-academy-school-based-clinic
  name: Rapides Academy School Based Clinic
  categories:
  - community-health-center
  address:
    street: 4645 Lincoln Rd
    city: Alexandria
    state: la
    zip: '71302'
  place: '2200975'
  geo:
    lat: 31.26594
    lng: -92.43068
  phone: 318-648-0375
  website: https://www.winnchc.org
  external_ids:
    bphc: BPS-H80-032662
  sources:
  - hrsa/health-center-sites
  verified:
    'on': '2026-07-19'
    method: api
- id: la/alexandria/rapides-community-health-center
  name: Rapides Community Health Center
  categories:
  - community-health-center
  address:
    street: 2200 N Bolton Ave
    city: Alexandria
    state: la
    zip: '71303'
  place: '2200975'
  geo:
    lat: 31.32298
    lng: -92.47622
  phone: 318-648-0375
  website: https://www.winnchc.org
  external_ids:
    bphc: BPS-H80-031137
  sources:
  - hrsa/health-center-sites
  verified:
    'on': '2026-07-19'
    method: api
- id: la/alexandria/rapides-drug-court-treatment
  name: Rapides Drug Court Treatment
  categories:
  - su-treatment
  address:
    street: 708 Wasington Street
    city: Alexandria
    state: la
    zip: '71301'
  place: '2200975'
  geo:
    lat: 31.3082
    lng: -92.44624
  phone: 318-561-7575 x105
  website: https://
  sources:
  - samhsa/findtreatment
  verified:
    'on': '2026-07-19'
    method: api
- id: la/alexandria/rapides-head-start-julius-patrick
  name: Rapides Head Start @ Julius Patrick
  categories:
  - child-care
  address:
    street: 1402 Reed Ave
    city: Alexandria
    state: la
    zip: '71301'
  place: '2200975'
  geo:
    lat: 31.31506
    lng: -92.46003
  phone: 318-442-8891
  sources:
  - acf/head-start-locations
  verified:
    'on': '2026-07-19'
    method: api
- id: la/alexandria/rapides-head-start-mckeithen
  name: Rapides Head Start @ McKeithen
  categories:
  - child-care
  address:
    street: 521 McKeithen Dr
    city: Alexandria
    state: la
    zip: '71303'
  place: '2200975'
  geo:
    lat: 31.28692
    lng: -92.53852
  phone: 318-442-8891
  sources:
  - acf/head-start-locations
  verified:
    'on': '2026-07-19'
    method: api
- id: la/alexandria/rapides-head-start-w-o-hall
  name: Rapides Head Start @ W. O. Hall
  categories:
  - child-care
  address:
    street: 3111 Jones Ave
    city: Alexandria
    state: la
    zip: '71302'
  place: '2200975'
  geo:
    lat: 31.29169
    lng: -92.43171
  phone: 318-442-8891
  sources:
  - acf/head-start-locations
  verified:
    'on': '2026-07-19'
    method: api
- id: la/alexandria/rapides-primary-health-care-center
  name: RAPIDES PRIMARY HEALTH CARE CENTER
  categories:
  - community-health-center
  address:
    street: 1217 Willow Glen River Rd
    city: Alexandria
    state: la
    zip: '71302'
  place: '2200975'
  geo:
    lat: 31.28604
    lng: -92.42652
  phone: 318-487-4400
  website: https://www.rphcc.org
  external_ids:
    bphc: BPS-H80-001109
  sources:
  - hrsa/health-center-sites
  verified:
    'on': '2026-07-19'
    method: api
- id: la/alexandria/rapides-primary-health-care-center-browns-bend-s
  name: Rapides Primary Health Care Center-Browns Bend Site
  categories:
  - community-health-center
  address:
    street: 605 Browns Bend Rd
    city: Alexandria
    state: la
    zip: '71303'
  place: '2200975'
  geo:
    lat: 31.32009
    lng: -92.48953
  phone: 318-487-4400
  external_ids:
    bphc: BPS-H80-036081
  sources:
  - hrsa/health-center-sites
  verified:
    'on': '2026-07-19'
    method: api
- id: la/alexandria/rapides-primary-health-care-center-mobile-health
  name: Rapides Primary Health Care Center, Mobile Health Clinic
  categories:
  - community-health-center
  address:
    street: 1217 Willow Glen River Rd
    city: Alexandria
    state: la
    zip: '71302'
  place: '2200975'
  geo:
    lat: 31.28604
    lng: -92.42652
  phone: 318-487-4400
  website: https://www.rphcc.org
  external_ids:
    bphc: BPS-H80-039459
  sources:
  - hrsa/health-center-sites
  verified:
    'on': '2026-07-19'
    method: api
- id: la/alexandria/rapides-school-based-health-center-amms
  name: Rapides School Based Health Center - AMMS
  categories:
  - community-health-center
  address:
    street: 122 Maryland Ave
    city: Alexandria
    state: la
    zip: '71301'
  place: '2200975'
  geo:
    lat: 31.3005
    lng: -92.47474
  phone: 318-648-0375
  external_ids:
    bphc: BPS-H80-020802
  sources:
  - hrsa/health-center-sites
  verified:
    'on': '2026-07-19'
    method: api
- id: la/alexandria/rapides-school-based-health-center-huddle
  name: Rapides School Based Health Center - Huddle
  categories:
  - community-health-center
  address:
    street: 505 Texas Ave
    city: Alexandria
    state: la
    zip: '71301'
  place: '2200975'
  geo:
    lat: 31.29759
    lng: -92.47538
  phone: 318-628-0088
  external_ids:
    bphc: BPS-H80-024494
  sources:
  - hrsa/health-center-sites
  verified:
    'on': '2026-07-19'
    method: api
- id: la/alexandria/rosenthal-montessori-elementary
  name: Rosenthal Montessori Elementary
  categories:
  - child-care
  address:
    street: 1951 Monroe St
    city: Alexandria
    state: la
    zip: '71301'
  place: '2200975'
  geo:
    lat: 31.30554
    lng: -92.46312
  phone: 318-442-8891
  sources:
  - acf/head-start-locations
  verified:
    'on': '2026-07-19'
    method: api
- id: la/alexandria/rosenthal-montessori-elementary-school-based-cli
  name: Rosenthal Montessori Elementary School Based Clinic
  categories:
  - community-health-center
  address:
    street: 1951 Monroe St
    city: Alexandria
    state: la
    zip: '71301'
  place: '2200975'
  geo:
    lat: 31.30623
    lng: -92.46342
  phone: 318-648-0375
  external_ids:
    bphc: BPS-H80-038944
  sources:
  - hrsa/health-center-sites
  verified:
    'on': '2026-07-19'
    method: api
- id: la/alexandria/scott-m-brame-middle-school-based-clinic
  name: Scott M. Brame Middle School Based Clinic
  categories:
  - community-health-center
  address:
    street: 4800 Dawn St
    city: Alexandria
    state: la
    zip: '71301'
  place: '2200975'
  geo:
    lat: 31.27356
    lng: -92.47354
  phone: 318-648-0375
  website: https://www.winnchc.org
  external_ids:
    bphc: BPS-H80-030992
  sources:
  - hrsa/health-center-sites
  verified:
    'on': '2026-07-19'
    method: api
- id: la/alexandria/women-s-pavilion
  name: Women's Pavilion
  categories:
  - community-health-center
  address:
    street: 1217 Willow Glen River Rd
    city: Alexandria
    state: la
    zip: '71302'
  place: '2200975'
  geo:
    lat: 31.28604
    lng: -92.42652
  phone: 318-487-4400
  website: https://www.rphcc.org
  external_ids:
    bphc: BPS-H80-012612
  sources:
  - hrsa/health-center-sites
  verified:
    'on': '2026-07-19'
    method: api
