- id: la/amite/capca-amite-migrant-seasonal-head-start-center
  name: CAPCA Amite Migrant & Seasonal Head Start Center
  categories:
  - child-care
  address:
    street: 56210 Old U S 51
    city: Amite
    state: la
    zip: '70422'
  geo:
    lat: 30.67133
    lng: -90.51307
  phone: 877-699-1466
  sources:
  - acf/head-start-locations
  verified:
    'on': '2026-07-19'
    method: api
- id: la/amite/rkm-at-amite-elementary
  name: RKM at Amite Elementary
  categories:
  - community-health-center
  address:
    street: 301 Vernon Ave
    city: Amite
    state: la
    zip: '70422'
  geo:
    lat: 30.72395
    lng: -90.50175
  phone: 225-683-5292
  external_ids:
    bphc: BPS-H80-040839
  sources:
  - hrsa/health-center-sites
  verified:
    'on': '2026-07-19'
    method: api
- id: la/amite/rkm-at-amite-high
  name: RKM at Amite High
  categories:
  - community-health-center
  address:
    street: 403 S Laurel St
    city: Amite
    state: la
    zip: '70422'
  geo:
    lat: 30.7221
    lng: -90.50624
  phone: 225-683-5292
  external_ids:
    bphc: BPS-H80-040843
  sources:
  - hrsa/health-center-sites
  verified:
    'on': '2026-07-19'
    method: api
- id: la/amite/rkm-at-amite-westside-magnet
  name: RKM at Amite Westside Magnet
  categories:
  - community-health-center
  address:
    street: 401 E Oak St
    city: Amite
    state: la
    zip: '70422'
  geo:
    lat: 30.72689
    lng: -90.50337
  phone: 225-683-5292
  external_ids:
    bphc: BPS-H80-040840
  sources:
  - hrsa/health-center-sites
  verified:
    'on': '2026-07-19'
    method: api
- id: la/amite/tangipahoa-parish-council
  name: Tangipahoa Parish Council
  categories:
  - housing-assistance
  address: {street: 111 N Bay St Ste B, city: Amite, state: la, zip: '70422'}
  description: Housing Choice Voucher (Section 8) agency
  geo: {lat: 30.72745, lng: -90.50545}
  phone: 985-748-8474
  sources:
  - hud/resource-locator
  verified: {'on': '2026-07-19', method: api}
