- id: la/amite/amite-elementary-magnet-school
  name: Amite Elementary Magnet School
  categories:
  - meal-program
  address: {street: 301 Vernon Ave, city: Amite, state: la, zip: '70422'}
  description: Free summer meals for kids and teens (2026 season) — sponsored by Tangipahoa Parish School
    Board.
  geo: {lat: 30.72366, lng: -90.50179}
  phone: (985) 748-6953
  external_ids: {usda_master: Cycle 04_LA_SFSP_0483}
  sources:
  - usda/summer-meal-sites
  verified: {'on': '2026-07-19', method: api}
  place: '2201885'
- id: la/amite/amite-westside-middle-magnet
  name: Amite Westside Middle Magnet
  categories:
  - meal-program
  address: {street: 401 W Oak St, city: Amite, state: la, zip: '70422'}
  description: Free summer meals for kids and teens (2026 season) — sponsored by Tangipahoa Parish School
    Board.
  geo: {lat: 30.72656, lng: -90.51455}
  phone: (985) 748-9073
  external_ids: {usda_master: Cycle 04_LA_SFSP_0484}
  sources:
  - usda/summer-meal-sites
  verified: {'on': '2026-07-19', method: api}
  place: '2201885'
- id: la/amite/capca-amite-migrant-seasonal-head-start-center
  name: CAPCA Amite Migrant & Seasonal Head Start Center
  categories:
  - child-care
  address: {street: 56210 Old U S 51, city: Amite, state: la, zip: '70422'}
  description: Head Start early childhood program — 76 funded slots; operated by COMMUNITY ACTION PROGRAM
    FOR CENTRAL ARKANSAS CAPCA.
  geo: {lat: 30.67133, lng: -90.51307}
  phone: 877-699-1466
  sources:
  - acf/head-start-locations
  verified: {'on': '2026-07-19', method: api}
  place: '2237025'
- id: la/amite/church-of-jesus-christ
  name: Church Of Jesus Christ
  categories:
  - meal-program
  address: {street: 61133 N.Lachie Rd, city: Amite, state: la, zip: '70422'}
  description: Free summer meals for kids and teens (2026 season) — sponsored by Victorious Life Family
    Worship Center.
  geo: {lat: 30.73347, lng: -90.50424}
  external_ids: {usda_master: Cycle 07_LA_SFSP_0012}
  sources:
  - usda/summer-meal-sites
  verified: {'on': '2026-07-19', method: api}
  place: '2201885'
- id: la/amite/grant-chapel-ame-church
  name: Grant Chapel Ame Church
  categories:
  - meal-program
  address: {street: 317 W. Oak St, city: Amite, state: la, zip: '70422'}
  description: Free summer meals for kids and teens (2026 season) — sponsored by Victorious Life Family
    Worship Center.
  geo: {lat: 30.72658, lng: -90.51297}
  phone: (985) 286-9482
  external_ids: {usda_master: Cycle 04_LA_SFSP_0529}
  sources:
  - usda/summer-meal-sites
  verified: {'on': '2026-07-19', method: api}
  place: '2201885'
- id: la/amite/greater-refuge-temple-ministries-summer-feeding
  name: Greater Refuge Temple Ministries Summer Feeding
  categories:
  - meal-program
  address: {street: 1005 Nw Central Avenue, city: Amite, state: la, zip: '70422'}
  description: Free summer meals for kids and teens (2026 season) — sponsored by Victorious Life Family
    Worship Center.
  geo: {lat: 30.73735, lng: -90.50919}
  phone: (985) 517-7275
  external_ids: {usda_master: Cycle 07_LA_SFSP_0013}
  sources:
  - usda/summer-meal-sites
  verified: {'on': '2026-07-19', method: api}
  place: '2201885'
- id: la/amite/mcmichael-ame-chhurch
  name: Mcmichael Ame Chhurch
  categories:
  - meal-program
  address: {street: 13015 Mcmichael Church Rd., city: Amite, state: la, zip: '70422'}
  description: Free summer meals for kids and teens (2026 season) — sponsored by Victorious Life Family
    Worship Center.
  geo: {lat: 30.69262, lng: -90.50765}
  phone: (985) 323-9887
  external_ids: {usda_master: Cycle 04_LA_SFSP_0532}
  sources:
  - usda/summer-meal-sites
  verified: {'on': '2026-07-19', method: api}
  place: '2201885'
- id: la/amite/rkm-at-amite-elementary
  name: RKM at Amite Elementary
  categories:
  - community-health-center
  cost: sliding-scale
  address: {street: 301 Vernon Ave, city: Amite, state: la, zip: '70422'}
  geo: {lat: 30.72395, lng: -90.50175}
  phone: 225-683-5292
  external_ids: {bphc: BPS-H80-040839}
  sources:
  - hrsa/health-center-sites
  verified: {'on': '2026-07-19', method: api}
  place: '2201885'
- id: la/amite/rkm-at-amite-high
  name: RKM at Amite High
  categories:
  - community-health-center
  cost: sliding-scale
  address: {street: 403 S Laurel St, city: Amite, state: la, zip: '70422'}
  geo: {lat: 30.7221, lng: -90.50624}
  phone: 225-683-5292
  external_ids: {bphc: BPS-H80-040843}
  sources:
  - hrsa/health-center-sites
  verified: {'on': '2026-07-19', method: api}
  place: '2201885'
- id: la/amite/rkm-at-amite-westside-magnet
  name: RKM at Amite Westside Magnet
  categories:
  - community-health-center
  cost: sliding-scale
  address: {street: 401 E Oak St, city: Amite, state: la, zip: '70422'}
  geo: {lat: 30.72689, lng: -90.50337}
  phone: 225-683-5292
  external_ids: {bphc: BPS-H80-040840}
  sources:
  - hrsa/health-center-sites
  verified: {'on': '2026-07-19', method: api}
  place: '2201885'
- id: la/amite/tangipahoa-parish-council
  name: Tangipahoa Parish Council
  categories:
  - housing-assistance
  address: {street: 111 N Bay St Ste B, city: Amite, state: la, zip: '70422'}
  description: Housing Choice Voucher (Section 8) agency
  geo: {lat: 30.72745, lng: -90.50545}
  phone: 985-748-8474
  sources:
  - hud/resource-locator
  verified: {'on': '2026-07-19', method: api}
  place: '2201885'
