- id: la/chalmette/arlene-meraux-elementary
  name: Arlene Meraux Elementary
  categories:
  - child-care
  address:
    street: 4004 Paris Rd
    city: Chalmette
    state: la
    zip: '70043'
  place: '2214135'
  geo:
    lat: 29.95859
    lng: -89.95766
  phone: 504-556-0900
  sources:
  - acf/head-start-locations
  verified:
    'on': '2026-07-19'
    method: api
- id: la/chalmette/baptist-community-health-services-chalmette
  name: Baptist Community Health Services- Chalmette
  categories:
  - community-health-center
  address:
    street: 221 W Genie St
    city: Chalmette
    state: la
    zip: '70043'
  place: '2214135'
  geo:
    lat: 29.95306
    lng: -89.96041
  phone: 504-533-4999
  website: https://www.bchsnola.org
  external_ids:
    bphc: BPS-H80-029494
  sources:
  - hrsa/health-center-sites
  verified:
    'on': '2026-07-19'
    method: api
- id: la/chalmette/chalmette-elementary
  name: Chalmette Elementary
  categories:
  - child-care
  address:
    street: 75 E Chalmette Cir
    city: Chalmette
    state: la
    zip: '70043'
  place: '2214135'
  geo:
    lat: 29.94829
    lng: -89.97687
  phone: 504-304-0370
  sources:
  - acf/head-start-locations
  verified:
    'on': '2026-07-19'
    method: api
- id: la/chalmette/olps
  name: OLPS
  categories:
  - food-pantry
  place: '2214135'
  geo:
    lat: 29.94003
    lng: -89.96556
  external_ids:
    lfp: '859'
  sources:
  - littlefreepantry/map
  verified:
    'on': '2026-07-19'
    method: scrape
- id: la/chalmette/st-bernard-community-health-center
  name: ST Bernard Community Health Center
  categories:
  - community-health-center
  address:
    street: 8050 W Judge Perez Dr
    city: Chalmette
    state: la
    zip: '70043'
  place: '2214135'
  geo:
    lat: 29.95406
    lng: -89.98833
  phone: 504-281-2800
  website: https://www.accesshealthla.org
  external_ids:
    bphc: BPS-H80-012385
  sources:
  - hrsa/health-center-sites
  verified:
    'on': '2026-07-19'
    method: api
- id: la/chalmette/st-bernard-parish-government
  name: St. Bernard Parish Government
  categories:
  - housing-assistance
  address: {street: 8201 W Judge Perez Dr, city: Chalmette, state: la, zip: '70043'}
  description: Housing Choice Voucher (Section 8) agency
  place: '2214135'
  geo: {lat: 29.95463, lng: -89.98126}
  phone: 504-278-4224
  sources:
  - hud/resource-locator
  verified: {'on': '2026-07-19', method: api}
