- id: la/crowley/ap-ross-head-start-center
  name: AP ROSS HEAD START CENTER
  categories:
  - child-care
  address:
    street: 800 N Western Ave
    city: Crowley
    state: la
    zip: '70526'
  place: '2218650'
  geo:
    lat: 30.214
    lng: -92.38277
  phone: 337-783-5432
  sources:
  - acf/head-start-locations
  verified:
    'on': '2026-07-19'
    method: api
- id: la/crowley/center-for-children-and-families-inc
  name: Center for Children and Families Inc
  categories:
  - su-treatment
  - mh-treatment
  address:
    street: 1325 Wright Avenue
    city: Crowley
    state: la
    zip: '70526'
  place: '2218650'
  geo:
    lat: 30.22626
    lng: -92.36502
  phone: 337-514-5181
  website: https://www.standforhope.org
  sources:
  - samhsa/findtreatment
  verified:
    'on': '2026-07-19'
    method: api
- id: la/crowley/crowley-behavioral-health-clinic
  name: Crowley Behavioral Health Clinic
  categories:
  - su-treatment
  - mh-treatment
  address:
    street: 1822 West 2nd Street
    city: Crowley
    state: la
    zip: '70526'
  place: '2218650'
  geo:
    lat: 30.20098
    lng: -92.391
  phone: 337-788-7511
  website: https://www.aahsd.org/site302.php
  sources:
  - samhsa/findtreatment
  verified:
    'on': '2026-07-19'
    method: api
- id: la/crowley/housing-authority-of-crowley
  name: Housing Authority Of Crowley
  categories:
  - housing-assistance
  address: {street: 200 Westwood Dr, city: Crowley, state: la, zip: '70526'}
  description: Public housing and Housing Choice Voucher agency
  place: '2218650'
  geo: {lat: 30.21205, lng: -92.39339}
  phone: 337-783-8521
  sources:
  - hud/resource-locator
  verified: {'on': '2026-07-19', method: api}
- id: la/crowley/swla-center-for-health-services-crowley
  name: SWLA Center for Health Services - Crowley
  categories:
  - community-health-center
  address:
    street: 526 Crowley Rayne Hwy
    city: Crowley
    state: la
    zip: '70526'
  place: '2218650'
  geo:
    lat: 30.22002
    lng: -92.36192
  phone: 337-439-9983
  website: https://www.swlahealth.org
  external_ids:
    bphc: BPS-H80-027695
  sources:
  - hrsa/health-center-sites
  verified:
    'on': '2026-07-19'
    method: api
