- id: la/delhi/cool-kids-youth-services-delhi-nc
  name: Cool Kids Youth Services Delhi - Nc
  categories:
  - meal-program
  address:
    street: 232 Denver Street
    city: Delhi
    state: la
    zip: '71232'
  description: Free summer meals for kids and teens (2026 season) — sponsored by Cool Kids Youth Services.
  place: '2220190'
  geo:
    lat: 32.45497
    lng: -91.49906
  phone: (318) 488-2648
  external_ids:
    usda_master: Cycle 04_LA_SFSP_0096
  sources:
  - usda/summer-meal-sites
  verified:
    'on': '2026-07-19'
    method: api
- id: la/delhi/delhi-charter-school-based-health-center
  name: Delhi Charter School Based Health Center
  categories:
  - community-health-center
  cost: sliding-scale
  address: {street: 6940 Highway 17, city: Delhi, state: la, zip: '71232'}
  place: '2220190'
  geo: {lat: 32.42632, lng: -91.49664}
  phone: 318-878-5717
  website: http://www.dchc-delhi.com
  external_ids: {bphc: BPS-H80-012455}
  sources:
  - hrsa/health-center-sites
  verified: {'on': '2026-07-19', method: api}
- id: la/delhi/delhi-community-health-center
  name: Delhi Community Health Center
  categories:
  - su-treatment
  - mh-treatment
  address:
    street: 501 Broadway Street
    city: Delhi
    state: la
    zip: '71232'
  place: '2220190'
  geo:
    lat: 32.45308
    lng: -91.49199
  phone: 318-878-8656
  website: https://www.delhihospital.com
  services:
  - Outpatient
  - Clients who have experienced trauma
  cost: sliding-scale
  sources:
  - samhsa/findtreatment
  verified:
    'on': '2026-07-19'
    method: api
- id: la/delhi/delhi-community-health-center-2
  name: Delhi Community Health Center
  categories:
  - community-health-center
  cost: sliding-scale
  address: {street: 109 Elm St, city: Delhi, state: la, zip: '71232'}
  place: '2220190'
  geo: {lat: 32.45598, lng: -91.49349}
  phone: 318-878-6650
  website: http://www.dchc-delhi.com
  external_ids: {bphc: BPS-H80-011989}
  sources:
  - hrsa/health-center-sites
  verified: {'on': '2026-07-19', method: api}
- id: la/delhi/delhi-community-health-center-3
  name: Delhi Community Health Center
  categories:
  - community-health-center
  cost: sliding-scale
  address: {street: 501 Broadway St, city: Delhi, state: la, zip: '71232'}
  place: '2220190'
  geo: {lat: 32.45295, lng: -91.49197}
  phone: 318-878-6650
  website: https://www.dchc-delhi.com
  external_ids: {bphc: BPS-H80-032017}
  sources:
  - hrsa/health-center-sites
  verified: {'on': '2026-07-19', method: api}
- id: la/delhi/delhi-community-health-center-dental-clinic
  name: Delhi Community Health Center Dental Clinic
  categories:
  - community-health-center
  cost: sliding-scale
  address: {street: 605 Broadway St, city: Delhi, state: la, zip: '71232'}
  place: '2220190'
  geo: {lat: 32.4521, lng: -91.4924}
  phone: 318-878-6350
  website: https://www.dchc-delhi.com
  external_ids: {bphc: BPS-H80-018148}
  sources:
  - hrsa/health-center-sites
  verified: {'on': '2026-07-19', method: api}
- id: la/delhi/delhi-community-health-center-sbhc-mobile-dental
  name: Delhi Community Health Center SBHC Mobile Dental Services.
  categories:
  - community-health-center
  cost: sliding-scale
  address: {street: 501 Broadway St, city: Delhi, state: la, zip: '71232'}
  place: '2220190'
  geo: {lat: 32.45295, lng: -91.49197}
  phone: 318-878-6650
  website: http://www.dchc-delhi.com
  external_ids: {bphc: BPS-H80-013701}
  sources:
  - hrsa/health-center-sites
  verified: {'on': '2026-07-19', method: api}
- id: la/delhi/delhi-elementary-high-school-based-health-center
  name: Delhi Elementary & High School-Based Health Center
  categories:
  - community-health-center
  cost: sliding-scale
  address: {street: 509 Main St, city: Delhi, state: la, zip: '71232'}
  place: '2220190'
  geo: {lat: 32.46221, lng: -91.4918}
  phone: 318-878-8965
  website: http://www.dchc-delhi.com
  external_ids: {bphc: BPS-H80-012086}
  sources:
  - hrsa/health-center-sites
  verified: {'on': '2026-07-19', method: api}
- id: la/delhi/delta-early-head-start-delhi
  name: Delta Early Head Start - Delhi
  categories:
  - child-care
  address:
    street: 210 Cuthbert St
    city: Delhi
    state: la
    zip: '71232'
  place: '2220190'
  geo:
    lat: 32.46077
    lng: -91.49467
  phone: 318-878-5417
  sources:
  - acf/head-start-locations
  verified:
    'on': '2026-07-19'
    method: api
- id: la/delhi/delta-head-start-delhi
  name: Delta Head Start - Delhi
  categories:
  - child-care
  address:
    street: 212 Cuthbert St
    city: Delhi
    state: la
    zip: '71232'
  place: '2220190'
  geo:
    lat: 32.46087
    lng: -91.49518
  phone: 318-878-3258
  sources:
  - acf/head-start-locations
  verified:
    'on': '2026-07-19'
    method: api
- id: la/delhi/housing-authority-of-the-town-of-delhi
  name: Housing Authority Of The Town Of Delhi
  categories:
  - housing-assistance
  address:
    street: 730 Louisiana St
    city: Delhi
    state: la
    zip: '71232'
  description: Housing Choice Voucher (Section 8) agency
  place: '2220190'
  geo:
    lat: 32.45433
    lng: -91.49878
  phone: 318-278-7423
  sources:
  - hud/resource-locator
  verified:
    'on': '2026-07-19'
    method: api
