- id: la/farmerville/communihealth-services-union-parish-high-school
  name: CommuniHealth Services Union Parish High School-Based Health Center
  categories:
  - community-health-center
  cost: sliding-scale
  address: {street: 1126 Marion Hwy, city: Farmerville, state: la, zip: '71241'}
  place: '2225160'
  geo: {lat: 32.79281, lng: -92.38934}
  phone: 318-974-7525
  website: https://www.communihealth.org
  external_ids: {bphc: BPS-H80-027606}
  sources:
  - hrsa/health-center-sites
  verified: {'on': '2026-07-19', method: api}
- id: la/farmerville/farmerville
  name: Farmerville
  categories:
  - family-youth
  description: Boys & Girls Club
  address: {street: 606 Bernice Street, city: Farmerville, state: la, zip: '71241'}
  geo: {lat: 32.77954, lng: -92.40798}
  place: '2225160'
  external_ids: {bgca_site: '29571', bgca_org: '10267'}
  sources:
  - bgca/find-a-club
  verified: {'on': '2026-07-21', method: api}
- id: la/farmerville/farmerville-head-start-center-union-ii
  name: Farmerville Head Start Center (Union II)
  categories:
  - child-care
  address: {street: 7199 Highway 33, city: Farmerville, state: la, zip: '71241'}
  description: Head Start early childhood program — 40 funded slots; operated by LINCOLN TOTAL COMMUNITY
    ACTION, INC..
  place: '2225160'
  geo: {lat: 32.80246, lng: -92.37984}
  phone: 318-368-0075
  sources:
  - acf/head-start-locations
  verified: {'on': '2026-07-19', method: api}
- id: la/farmerville/housing-authority-of-farmerville
  name: Housing Authority Of Farmerville
  categories:
  - housing-assistance
  address: {street: 810 Doyle St, city: Farmerville, state: la, zip: '71241'}
  description: Public housing (Low-Rent) agency
  place: '2225160'
  geo: {lat: 32.78078, lng: -92.41531}
  phone: 318-368-9677
  sources:
  - hud/resource-locator
  verified: {'on': '2026-07-19', method: api}
- id: la/farmerville/union-community-action-agency-inc
  name: Union Community Action Agency, Inc
  categories:
  - utility-assistance
  description: LIHEAP intake office serving Morehouse County
  address: {street: 100 East Bayou St. Suite 107, city: Farmerville, state: la, zip: '71241'}
  place: '2225160'
  phone: 318-368-9606
  website: https://www.ucaa.us/
  sources:
  - acf/liheap-clearinghouse
  verified: {'on': '2026-07-19', method: scrape}
  geo: {lat: 32.77398, lng: -92.4053}
- id: la/farmerville/union-community-action-agency-inc-2
  name: Union Community Action Agency, Inc.
  categories:
  - utility-assistance
  description: LIHEAP intake office serving Union County
  address: {street: '100 East Bayou St., Suite 107', city: Farmerville, state: la, zip: '71241'}
  place: '2225160'
  phone: 318-368-9606
  website: https://www.ucaa.us/
  sources:
  - acf/liheap-clearinghouse
  verified: {'on': '2026-07-19', method: scrape}
  geo: {lat: 32.77398, lng: -92.4053}
- id: la/farmerville/union-elementary-school
  name: Union Elementary School
  categories:
  - meal-program
  address: {street: 7195 Highway 33, city: Farmerville, state: la, zip: '71241'}
  description: Free summer meals for kids and teens (2026 season) — sponsored by Union Parish School Board.
  place: '2225160'
  geo: {lat: 32.81621, lng: -92.35686}
  phone: (318) 368-9542
  external_ids: {usda_master: Cycle 02_LA_SFSP_0279}
  sources:
  - usda/summer-meal-sites
  verified: {'on': '2026-07-19', method: api}
- id: la/farmerville/union-general-hospital-intensive-outpatient-prog
  name: Union General Hospital Intensive Outpatient Program (IOP)
  categories:
  - mh-treatment
  address: {street: 901 James Avenue, city: Farmerville, state: la, zip: '71241'}
  place: '2225160'
  geo: {lat: 32.78774, lng: -92.39193}
  phone: 318-368-4748
  website: https://www.uniongen.org
  services:
  - Outpatient
  - Seniors or older adults
  eligibility: Serves adults, seniors.
  cost: varies
  sources:
  - samhsa/findtreatment
  verified: {'on': '2026-07-19', method: api}
- id: la/farmerville/union-parish-high-school
  name: Union Parish High School
  categories:
  - meal-program
  address: {street: 1126 Highway 33, city: Farmerville, state: la, zip: '71241'}
  description: Free summer meals for kids and teens (2026 season) — sponsored by Union Parish School Board.
  place: '2225160'
  geo: {lat: 32.79281, lng: -92.38934}
  external_ids: {usda_master: Cycle 02_LA_SFSP_0280}
  sources:
  - usda/summer-meal-sites
  verified: {'on': '2026-07-19', method: api}
- id: la/farmerville/union-parish-police-jury
  name: Union Parish Police Jury
  categories:
  - housing-assistance
  address: {street: 303 E Water St, city: Farmerville, state: la, zip: '71241'}
  description: Housing Choice Voucher (Section 8) agency
  place: '2225160'
  geo: {lat: 32.77348, lng: -92.4027}
  phone: 318-368-1441
  sources:
  - hud/resource-locator
  verified: {'on': '2026-07-19', method: api}
