- id: la/farmerville/communihealth-services-union-parish-high-school
  name: CommuniHealth Services Union Parish High School-Based Health Center
  categories:
  - community-health-center
  address:
    street: 1126 Marion Hwy
    city: Farmerville
    state: la
    zip: '71241'
  place: '2225160'
  geo:
    lat: 32.79281
    lng: -92.38934
  phone: 318-974-7525
  website: https://www.communihealth.org
  external_ids:
    bphc: BPS-H80-027606
  sources:
  - hrsa/health-center-sites
  verified:
    'on': '2026-07-19'
    method: api
- id: la/farmerville/farmerville-head-start-center-union-ii
  name: Farmerville Head Start Center (Union II)
  categories:
  - child-care
  address:
    street: 7199 Highway 33
    city: Farmerville
    state: la
    zip: '71241'
  place: '2225160'
  geo:
    lat: 32.80246
    lng: -92.37984
  phone: 318-368-0075
  sources:
  - acf/head-start-locations
  verified:
    'on': '2026-07-19'
    method: api
- id: la/farmerville/housing-authority-of-farmerville
  name: Housing Authority Of Farmerville
  categories:
  - housing-assistance
  address: {street: 810 Doyle St, city: Farmerville, state: la, zip: '71241'}
  description: Public housing (Low-Rent) agency
  place: '2225160'
  geo: {lat: 32.78078, lng: -92.41531}
  phone: 318-368-9677
  sources:
  - hud/resource-locator
  verified: {'on': '2026-07-19', method: api}
- id: la/farmerville/union-general-hospital-intensive-outpatient-prog
  name: Union General Hospital Intensive Outpatient Program (IOP)
  categories:
  - mh-treatment
  address:
    street: 901 James Avenue
    city: Farmerville
    state: la
    zip: '71241'
  place: '2225160'
  geo:
    lat: 32.78774
    lng: -92.39193
  phone: 318-368-4748
  website: https://www.uniongen.org
  sources:
  - samhsa/findtreatment
  verified:
    'on': '2026-07-19'
    method: api
- id: la/farmerville/union-parish-police-jury
  name: Union Parish Police Jury
  categories:
  - housing-assistance
  address: {street: 303 E Water St, city: Farmerville, state: la, zip: '71241'}
  description: Housing Choice Voucher (Section 8) agency
  place: '2225160'
  geo: {lat: 32.77348, lng: -92.4027}
  phone: 318-368-1441
  sources:
  - hud/resource-locator
  verified: {'on': '2026-07-19', method: api}
