- id: la/independence/cannons-discount-pharmacy-blessing-box
  name: Cannon’s Discount Pharmacy Blessing Box
  categories:
  - food-pantry
  place: '2237025'
  geo:
    lat: 30.62356
    lng: -90.49791
  external_ids:
    lfp: '5777'
  sources:
  - littlefreepantry/map
  verified:
    'on': '2026-07-19'
    method: scrape
- id: la/independence/central-tangipahoa-head-start
  name: Central Tangipahoa Head Start
  categories:
  - child-care
  address:
    street: 728 N Railroad Ave
    city: Independence
    state: la
    zip: '70443'
  place: '2237025'
  geo:
    lat: 30.64314
    lng: -90.50286
  phone: 985-878-9856
  sources:
  - acf/head-start-locations
  verified:
    'on': '2026-07-19'
    method: api
- id: la/independence/college-and-career-center-sf
  name: College And Career Center Sf
  categories:
  - meal-program
  address: {street: 145 W. 2Nd Street, city: Independence, state: la, zip: '70443'}
  description: Free summer meals for kids and teens (2026 season) — sponsored by Tangipahoa Parish School
    Board.
  place: '2237025'
  geo: {lat: 30.63838, lng: -90.50636}
  phone: (985) 878-4376
  external_ids: {usda_master: Cycle 04_LA_SFSP_0485}
  sources:
  - usda/summer-meal-sites
  verified: {'on': '2026-07-19', method: api}
- id: la/independence/independence-leadership-academy
  name: Independence Leadership Academy
  categories:
  - meal-program
  address: {street: 221 Tiger Ave, city: Independence, state: la, zip: '70443'}
  description: Free summer meals for kids and teens (2026 season) — sponsored by Tangipahoa Parish School
    Board.
  place: '2237025'
  geo: {lat: 30.63457, lng: -90.49633}
  phone: (985) 878-4946
  external_ids: {usda_master: Cycle 04_LA_SFSP_0489}
  sources:
  - usda/summer-meal-sites
  verified: {'on': '2026-07-19', method: api}
- id: la/independence/independence-leadership-academy-partnership
  name: Independence Leadership Academy Partnership
  categories:
  - child-care
  address:
    street: 221 Tiger Ave
    city: Independence
    state: la
    zip: '70443'
  place: '2237025'
  geo:
    lat: 30.63509
    lng: -90.49637
  phone: 985-318-8800
  sources:
  - acf/head-start-locations
  verified:
    'on': '2026-07-19'
    method: api
- id: la/independence/mater-dolorosa-catholic-church-nc
  name: Mater Dolorosa Catholic Church - Nc
  categories:
  - meal-program
  address: {street: 509 Pine Street, city: Independence, state: la, zip: '70443'}
  description: Free summer meals for kids and teens (2026 season) — sponsored by The Diocese of Baton
    Rouge Child Nutrition Program.
  place: '2237025'
  geo: {lat: 30.63649, lng: -90.50358}
  phone: (225) 387-6421
  external_ids: {usda_master: Cycle 02_LA_SFSP_0262}
  sources:
  - usda/summer-meal-sites
  verified: {'on': '2026-07-19', method: api}
- id: la/independence/rkm-at-independence-high-school
  name: RKM at Independence High School
  categories:
  - community-health-center
  address:
    street: 270 Tiger Ave
    city: Independence
    state: la
    zip: '70443'
  place: '2237025'
  geo:
    lat: 30.63458
    lng: -90.49432
  phone: 225-683-5292
  external_ids:
    bphc: BPS-H80-040852
  sources:
  - hrsa/health-center-sites
  verified:
    'on': '2026-07-19'
    method: api
- id: la/independence/rkm-at-independence-leadership-academy
  name: RKM at Independence Leadership Academy
  categories:
  - community-health-center
  address:
    street: 221 Tiger Ave
    city: Independence
    state: la
    zip: '70443'
  place: '2237025'
  geo:
    lat: 30.63506
    lng: -90.49643
  phone: 225-683-5292
  external_ids:
    bphc: BPS-H80-040880
  sources:
  - hrsa/health-center-sites
  verified:
    'on': '2026-07-19'
    method: api
- id: la/independence/southeast-community-health-systems-central-tangi
  name: Southeast Community Health Systems - Central Tangipahoa Head Start
  categories:
  - community-health-center
  address:
    street: 55420 N Railroad Ave
    city: Independence
    state: la
    zip: '70443'
  place: '2237025'
  geo:
    lat: 30.66096
    lng: -90.50728
  phone: 888-414-7247
  external_ids:
    bphc: BPS-H80-017957
  sources:
  - hrsa/health-center-sites
  verified:
    'on': '2026-07-19'
    method: api
- id: la/independence/southeast-community-health-systems-coach-mobile
  name: Southeast Community Health Systems - Coach Mobile Wellness Clinic
  categories:
  - community-health-center
  address:
    street: 336 E Railroad Ave
    city: Independence
    state: la
    zip: '70443'
  place: '2237025'
  geo:
    lat: 30.63648
    lng: -90.5002
  phone: 985-517-8443
  external_ids:
    bphc: BPS-H80-032923
  sources:
  - hrsa/health-center-sites
  verified:
    'on': '2026-07-19'
    method: api
- id: la/independence/southeast-community-health-systems-independence
  name: Southeast Community Health Systems - Independence
  categories:
  - community-health-center
  address:
    street: 336 E Railroad Ave
    city: Independence
    state: la
    zip: '70443'
  place: '2237025'
  geo:
    lat: 30.63648
    lng: -90.5002
  phone: 225-306-2000
  external_ids:
    bphc: BPS-H80-030760
  sources:
  - hrsa/health-center-sites
  verified:
    'on': '2026-07-19'
    method: api
- id: la/independence/southeast-community-health-systems-independence-2
  name: Southeast Community Health Systems-Independence Administrative
  categories:
  - community-health-center
  address:
    street: 13318 Berry Bowl Rd
    city: Independence
    state: la
    zip: '70443'
  place: '2237025'
  geo:
    lat: 30.61996
    lng: -90.49977
  phone: 225-306-2000
  external_ids:
    bphc: BPS-H80-032639
  sources:
  - hrsa/health-center-sites
  verified:
    'on': '2026-07-19'
    method: api
- id: la/independence/southeast-community-health-systems-mobile-clinic
  name: Southeast Community Health Systems - Mobile  Clinic
  categories:
  - community-health-center
  address:
    street: 336 E Railroad Ave
    city: Independence
    state: la
    zip: '70443'
  place: '2237025'
  geo:
    lat: 30.63648
    lng: -90.5002
  phone: 985-517-8443
  external_ids:
    bphc: BPS-H80-031069
  sources:
  - hrsa/health-center-sites
  verified:
    'on': '2026-07-19'
    method: api
- id: la/independence/town-of-independence-ha
  name: Town Of Independence Ha
  categories:
  - housing-assistance
  address:
    street: 222 Pine St
    city: Independence
    state: la
    zip: '70443'
  description: Public housing (Low-Rent) agency
  place: '2237025'
  geo:
    lat: 30.63832
    lng: -90.50391
  phone: 985-878-9091
  sources:
  - hud/resource-locator
  verified:
    'on': '2026-07-19'
    method: api
