- id: la/kinder/housing-authority-of-the-town-of-kinder
  name: Housing Authority Of The Town Of Kinder
  categories:
  - housing-assistance
  address: {street: 514 1/2 S 17th St, city: Kinder, state: la, zip: '70648'}
  description: Public housing (Low-Rent) agency
  place: '2239755'
  geo: {lat: 30.48012, lng: -92.83916}
  phone: 337-738-2077
  sources:
  - hud/resource-locator
  verified: {'on': '2026-07-19', method: api}
- id: la/kinder/kinder-center
  name: Kinder Center
  categories:
  - child-care
  address: {street: 1409 Carver St, city: Kinder, state: la, zip: '70648'}
  description: Head Start early childhood program — 48 funded slots; operated by Allen Action Agency,
    Inc..
  place: '2239755'
  geo: {lat: 30.49454, lng: -92.84222}
  phone: 337-738-2976
  sources:
  - acf/head-start-locations
  verified: {'on': '2026-07-19', method: api}
- id: la/kinder/kinder-elementary-school
  name: Kinder Elementary School
  categories:
  - child-care
  address: {street: 412 N 12th St, city: Kinder, state: la, zip: '70648'}
  description: Head Start early childhood program — 14 funded slots; operated by Allen Action Agency,
    Inc..
  place: '2239755'
  geo: {lat: 30.48742, lng: -92.84492}
  phone: 337-738-2454
  sources:
  - acf/head-start-locations
  verified: {'on': '2026-07-19', method: api}
- id: la/kinder/kinder-elementary-school-cafeteria-nc
  name: Kinder Elementary School Cafeteria - Nc
  categories:
  - meal-program
  address: {street: 412 12Th Street, city: Kinder, state: la, zip: '70648'}
  description: Free summer meals for kids and teens (2026 season) — sponsored by Allen Parish School Board.
  place: '2239755'
  geo: {lat: 30.48785, lng: -92.84481}
  phone: (337) 738-5261
  external_ids: {usda_master: Cycle 02_LA_SFSP_0005}
  sources:
  - usda/summer-meal-sites
  verified: {'on': '2026-07-19', method: api}
- id: la/kinder/town-of-kinder
  name: Town Of Kinder
  categories:
  - housing-assistance
  address: {street: 807 3rd Ave, city: Kinder, state: la, zip: '70648'}
  description: Housing Choice Voucher (Section 8) agency
  place: '2239755'
  geo: {lat: 30.48553, lng: -92.85201}
  phone: 504-366-4424
  sources:
  - hud/resource-locator
  verified: {'on': '2026-07-19', method: api}
