- id: la/rayville/delta-head-start-early-head-start-rayville-2
  name: 'Delta Head Start/Early Head Start - Rayville #2'
  categories:
  - child-care
  address:
    street: 7 Cumpton Ln
    city: Rayville
    state: la
    zip: '71269'
  place: '2263680'
  geo:
    lat: 32.46046
    lng: -91.75099
  phone: 318-728-5721
  sources:
  - acf/head-start-locations
  verified:
    'on': '2026-07-19'
    method: api
- id: la/rayville/delta-head-start-rayville-3
  name: 'Delta Head Start Rayville #3'
  categories:
  - child-care
  address:
    street: 115 Legacy Dr
    city: Rayville
    state: la
    zip: '71269'
  place: '2263680'
  geo:
    lat: 32.47005
    lng: -91.74766
  phone: 318-728-2100
  sources:
  - acf/head-start-locations
  verified:
    'on': '2026-07-19'
    method: api
- id: la/rayville/housing-authority-of-the-town-of-rayville
  name: Housing Authority Of The Town Of Rayville
  categories:
  - housing-assistance
  address: {street: 202 Waldorf St, city: Rayville, state: la, zip: '71269'}
  description: Public housing (Low-Rent) agency
  place: '2263680'
  geo: {lat: 32.48103, lng: -91.76516}
  phone: 318-728-5217
  sources:
  - hud/resource-locator
  verified: {'on': '2026-07-19', method: api}
- id: la/rayville/northeast-la-substance-abuse-inc
  name: Northeast LA Substance Abuse Inc
  categories:
  - su-treatment
  address:
    street: 412 Madeline Street
    city: Rayville
    state: la
    zip: '71269'
  place: '2263680'
  geo:
    lat: 32.47635
    lng: -91.7567
  phone: 318-728-2057
  website: https://
  sources:
  - samhsa/findtreatment
  verified:
    'on': '2026-07-19'
    method: api
- id: la/rayville/second-chances-addiction-recovery-ctr
  name: Second Chances Addiction Recovery Ctr
  categories:
  - su-treatment
  address:
    street: 161 Comeaux Road
    city: Rayville
    state: la
    zip: '71269'
  place: '2263680'
  geo:
    lat: 32.45812
    lng: -91.86434
  phone: 833-780-3088
  website: https://www.secondchancesrehab.com
  sources:
  - samhsa/findtreatment
  verified:
    'on': '2026-07-19'
    method: api
- id: la/rayville/tender-touch-nursery-richland
  name: Tender Touch Nursery- Richland
  categories:
  - child-care
  address:
    street: 4980 Highway 80
    city: Rayville
    state: la
    zip: '71269'
  place: '2263680'
  geo:
    lat: 32.4813
    lng: -91.79648
  phone: 318-728-5666
  sources:
  - acf/head-start-locations
  verified:
    'on': '2026-07-19'
    method: api
