- id: la/springfield/rkm-at-springfield-elementary-school
  name: RKM at Springfield Elementary School
  categories:
  - community-health-center
  cost: sliding-scale
  address: {street: 25190 Blood River Rd, city: Springfield, state: la, zip: '70462'}
  place: '2272415'
  geo: {lat: 30.42893, lng: -90.55106}
  phone: 225-683-5292
  website: https://www.rkmcare.org
  external_ids: {bphc: BPS-H80-014887}
  sources:
  - hrsa/health-center-sites
  verified: {'on': '2026-07-19', method: api}
- id: la/springfield/rkm-at-springfield-middle
  name: RKM at Springfield Middle
  categories:
  - community-health-center
  cost: sliding-scale
  address: {street: 24145 Coates Rd, city: Springfield, state: la, zip: '70462'}
  place: '2272415'
  geo: {lat: 30.41718, lng: -90.56153}
  phone: 225-683-5292
  external_ids: {bphc: BPS-H80-040695}
  sources:
  - hrsa/health-center-sites
  verified: {'on': '2026-07-19', method: api}
- id: la/springfield/rkm-primary-care-springfield
  name: RKM Primary Care Springfield
  categories:
  - community-health-center
  cost: sliding-scale
  address: {street: 27124 Highway 42, city: Springfield, state: la, zip: '70462'}
  place: '2272415'
  geo: {lat: 30.43273, lng: -90.55633}
  phone: 225-683-5292
  website: https://www.rkmcare.org
  external_ids: {bphc: BPS-H80-014885}
  sources:
  - hrsa/health-center-sites
  verified: {'on': '2026-07-19', method: api}
- id: la/springfield/springfield-head-start-early-head-start
  name: Springfield Head Start/Early Head Start
  categories:
  - child-care
  address: {street: 31100 Carter Cemetery Rd, city: Springfield, state: la, zip: '70462'}
  description: Head Start early childhood program — 71 funded slots; operated by Regina Coeli Child Development
    Center, Inc..
  place: '2272415'
  geo: {lat: 30.41926, lng: -90.5669}
  phone: 225-294-5811
  sources:
  - acf/head-start-locations
  verified: {'on': '2026-07-19', method: api}
- id: la/springfield/springfield-high-school
  name: Springfield High School
  categories:
  - meal-program
  address: {street: 27322 La Hwy 42, city: Springfield, state: la, zip: '70462'}
  description: Free summer meals for kids and teens (2026 season) — sponsored by Livingston Parish School
    Board.
  place: '2272415'
  geo: {lat: 30.43037, lng: -90.55095}
  phone: (225) 294-3256
  external_ids: {usda_master: Cycle 02_LA_SFSP_0183}
  sources:
  - usda/summer-meal-sites
  verified: {'on': '2026-07-19', method: api}
