- id: la/st-joseph/oneonta-baptist-church
  name: Oneonta Baptist Church
  org: la/food-bank-of-northeast-louisiana
  categories:
  - food-pantry
  address: {street: 1209 Plank Rd, city: St. Joseph, state: la, zip: '71366'}
  place: '2267495'
  geo: {lat: 31.92528, lng: -91.24318}
  phone: 318-766-9281
  external_ids: {la-food-bank-of-northeast-louisiana: '2287'}
  sources:
  - foodbank/la-food-bank-of-northeast-louisiana
  verified: {'on': '2026-07-20', method: api}
- id: la/st-joseph/tensas-community-health-center
  name: TENSAS COMMUNITY HEALTH CENTER
  categories:
  - community-health-center
  cost: sliding-scale
  address: {street: 402 Levee Rd, city: Saint Joseph, state: la, zip: '71366'}
  place: '2267495'
  geo: {lat: 31.91423, lng: -91.2339}
  phone: 318-766-1968
  website: https://www.tensashealth.org
  external_ids: {bphc: BPS-H80-001630}
  sources:
  - hrsa/health-center-sites
  verified: {'on': '2026-07-19', method: api}
- id: la/st-joseph/tensas-dental-clinic
  name: Tensas Dental Clinic
  categories:
  - community-health-center
  cost: sliding-scale
  address: {street: 406 Levee Rd, city: Saint Joseph, state: la, zip: '71366'}
  place: '2267495'
  geo: {lat: 31.91389, lng: -91.23413}
  phone: 318-766-1967
  website: https://www.tensashealth.org
  external_ids: {bphc: BPS-H80-008710}
  sources:
  - hrsa/health-center-sites
  verified: {'on': '2026-07-19', method: api}
- id: la/st-joseph/tensas-health-mobile
  name: Tensas Health Mobile
  categories:
  - community-health-center
  cost: sliding-scale
  address: {street: 402 Levee Rd, city: Saint Joseph, state: la, zip: '71366'}
  place: '2267495'
  geo: {lat: 31.91423, lng: -91.2339}
  phone: 318-766-1967
  website: https://www.tensashealth.com
  external_ids: {bphc: BPS-H80-032018}
  sources:
  - hrsa/health-center-sites
  verified: {'on': '2026-07-19', method: api}
- id: la/st-joseph/tensas-parish-head-start
  name: Tensas Parish Head Start
  categories:
  - child-care
  address: {street: 703 Plank Rd, city: St. Joseph, state: la, zip: '71366'}
  description: Head Start early childhood program — 49 funded slots; operated by La Salle Community Action
    Association Inc.
  place: '2267495'
  geo: {lat: 31.92483, lng: -91.24171}
  phone: 318-766-2100
  sources:
  - acf/head-start-locations
  verified: {'on': '2026-07-19', method: api}
- id: la/st-joseph/tensas-parish-head-start-kitchen-nc
  name: Tensas Parish Head Start Kitchen - Nc
  categories:
  - meal-program
  address: {street: 703 Plank Road, city: St. Joseph, state: la, zip: '71366'}
  description: Free summer meals for kids and teens (2026 season) — sponsored by La Salle Community Action
    Association, Inc..
  place: '2267495'
  geo: {lat: 31.92155, lng: -91.23763}
  phone: (318) 766-2100
  external_ids: {usda_master: Cycle 02_LA_SFSP_0174}
  sources:
  - usda/summer-meal-sites
  verified: {'on': '2026-07-19', method: api}
- id: la/st-joseph/tensas-school-based-health-center
  name: Tensas School-Based Health Center
  categories:
  - community-health-center
  cost: sliding-scale
  address: {street: 720 Plank Rd, city: Saint Joseph, state: la, zip: '71366'}
  place: '2267495'
  geo: {lat: 31.92252, lng: -91.23866}
  phone: 318-766-1967
  external_ids: {bphc: BPS-H80-021903}
  sources:
  - hrsa/health-center-sites
  verified: {'on': '2026-07-19', method: api}
