- id: ky/beattyville/home-delivery-1
  name: Home Delivery 1
  categories:
  - meal-program
  address: {street: 1665 Hwy 11 South, city: Beattyville, state: ky, zip: '41311'}
  description: Free summer meals for kids and teens (2026 season) — sponsored by Lee County Board of Education.
  place: '2104546'
  geo: {lat: 37.55168, lng: -83.71852}
  external_ids: {usda_master: Cycle 02_KY_SFSP_0177}
  sources:
  - usda/summer-meal-sites
  verified: {'on': '2026-07-19', method: api}
- id: ky/beattyville/housing-authority-of-beattyville
  name: Housing Authority Of Beattyville
  categories:
  - housing-assistance
  address:
    street: 227 Boone Ave Apt 31
    city: Beattyville
    state: ky
    zip: '41311'
  description: Public housing (Low-Rent) agency
  place: '2104546'
  geo:
    lat: 37.57947
    lng: -83.71569
  phone: 606-464-8471
  sources:
  - hud/resource-locator
  verified:
    'on': '2026-07-19'
    method: api
- id: ky/beattyville/juniper-health-lee-county
  name: Juniper Health Lee County
  categories:
  - community-health-center
  address:
    street: 1025 Grand Ave
    city: Beattyville
    state: ky
    zip: '41311'
  place: '2104546'
  geo:
    lat: 37.58383
    lng: -83.69831
  phone: 606-464-2401
  external_ids:
    bphc: BPS-H80-034050
  sources:
  - hrsa/health-center-sites
  verified:
    'on': '2026-07-19'
    method: api
- id: ky/beattyville/juniper-health-lee-county-dental
  name: Juniper Health Lee County Dental
  categories:
  - community-health-center
  address:
    street: 60 Center St
    city: Beattyville
    state: ky
    zip: '41311'
  place: '2104546'
  geo:
    lat: 37.57297
    lng: -83.70989
  phone: 606-464-9262
  external_ids:
    bphc: BPS-H80-018523
  sources:
  - hrsa/health-center-sites
  verified:
    'on': '2026-07-19'
    method: api
- id: ky/beattyville/juniper-health-lee-county-elementary
  name: Juniper Health Lee County Elementary
  categories:
  - community-health-center
  address:
    street: 1665 Hwy 11 S
    city: Beattyville
    state: ky
    zip: '41311'
  place: '2104546'
  geo:
    lat: 37.55071
    lng: -83.71783
  phone: 606-464-2401
  external_ids:
    bphc: BPS-H80-037467
  sources:
  - hrsa/health-center-sites
  verified:
    'on': '2026-07-19'
    method: api
- id: ky/beattyville/juniper-health-lee-county-middle-high-school
  name: Juniper Health Lee County Middle High School
  categories:
  - community-health-center
  address:
    street: 599 Lee Ave
    city: Beattyville
    state: ky
    zip: '41311'
  place: '2104546'
  geo:
    lat: 37.58161
    lng: -83.70818
  phone: 606-464-2401
  external_ids:
    bphc: BPS-H80-037466
  sources:
  - hrsa/health-center-sites
  verified:
    'on': '2026-07-19'
    method: api
- id: ky/beattyville/kentucky-river-community-care-inc-drug-court-ser
  name: Kentucky River Community Care Inc Drug Court Services
  categories:
  - su-treatment
  - mh-treatment
  address:
    street: 1060 Grand Avenue
    city: Beattyville
    state: ky
    zip: '41311'
  place: '2104546'
  geo:
    lat: 37.58727
    lng: -83.69734
  phone: 606-464-3212
  website: https://www.krccnet.com
  sources:
  - samhsa/findtreatment
  verified:
    'on': '2026-07-19'
    method: api
- id: ky/beattyville/kentucky-river-community-care-inc-lee-outpatient
  name: Kentucky River Community Care Inc Lee Outpatient
  categories:
  - su-treatment
  - mh-treatment
  address:
    street: 1060 Grand Avenue
    city: Beattyville
    state: ky
    zip: '41311'
  place: '2104546'
  geo:
    lat: 37.58727
    lng: -83.69734
  phone: 606-464-3212 x3000
  website: https://krccnet.com
  sources:
  - samhsa/findtreatment
  verified:
    'on': '2026-07-19'
    method: api
- id: ky/beattyville/kentucky-river-community-care-inc-new-directions
  name: Kentucky River Community Care Inc New Directions/Solutions
  categories:
  - su-treatment
  - mh-treatment
  address:
    street: 1060 Grand Avenue
    city: Beattyville
    state: ky
    zip: '41311'
  place: '2104546'
  geo:
    lat: 37.58727
    lng: -83.69734
  phone: 606-464-3212
  website: https://www.krccnet.com
  sources:
  - samhsa/findtreatment
  verified:
    'on': '2026-07-19'
    method: api
- id: ky/beattyville/kentucky-river-community-care-inc-sap-lee
  name: Kentucky River Community Care Inc SAP Lee
  categories:
  - su-treatment
  address:
    street: 1060 Grand Avenue
    city: Beattyville
    state: ky
    zip: '41311'
  place: '2104546'
  geo:
    lat: 37.58727
    lng: -83.69734
  phone: 606-464-3212
  website: https://www.krccnet.com
  sources:
  - samhsa/findtreatment
  verified:
    'on': '2026-07-19'
    method: api
- id: ky/beattyville/kentucky-river-community-care-inc-us-courts-outp
  name: Kentucky River Community Care Inc US Courts Outpatient Services
  categories:
  - su-treatment
  - mh-treatment
  address:
    street: 1060 Grand Avenue
    city: Beattyville
    state: ky
    zip: '41311'
  place: '2104546'
  geo:
    lat: 37.58727
    lng: -83.69734
  phone: 606-464-3212
  website: https://www.krccnet.com
  sources:
  - samhsa/findtreatment
  verified:
    'on': '2026-07-19'
    method: api
- id: ky/beattyville/lee-county-elementary-school
  name: Lee County Elementary School
  categories:
  - meal-program
  address: {street: 1665 Hwy 11 S., city: Beattyville, state: ky, zip: '41311'}
  description: Free summer meals for kids and teens (2026 season) — sponsored by Lee County Board of Education.
  place: '2104546'
  geo: {lat: 37.55168, lng: -83.71852}
  external_ids: {usda_master: Cycle 03_KY_SFSP_0196}
  sources:
  - usda/summer-meal-sites
  verified: {'on': '2026-07-19', method: api}
- id: ky/beattyville/lee-county-head-start
  name: Lee County Head Start
  categories:
  - child-care
  address:
    street: 49 Bull Mountain Rd
    city: Beattyville
    state: ky
    zip: '41311'
  place: '2104546'
  geo:
    lat: 37.57175
    lng: -83.70686
  phone: 606-464-3140
  sources:
  - acf/head-start-locations
  verified:
    'on': '2026-07-19'
    method: api
