- id: ky/booneville/juniper-health-highland-turner-elementary
  name: Juniper Health Highland-Turner Elementary
  categories:
  - community-health-center
  address:
    street: 10355 Highway 30 W
    city: Booneville
    state: ky
    zip: '41314'
  place: '2108614'
  geo:
    lat: 37.46271
    lng: -83.5619
  phone: 606-666-9950
  website: https://www.juniperhealth.org
  external_ids:
    bphc: BPS-H80-037338
  sources:
  - hrsa/health-center-sites
  verified:
    'on': '2026-07-19'
    method: api
- id: ky/booneville/mchc-owsley-county-pharmacy
  name: MCHC Owsley County Pharmacy
  categories:
  - community-health-center
  address:
    street: 99 KY 11 S
    city: Booneville
    state: ky
    zip: '41314'
  place: '2108614'
  geo:
    lat: 37.4744
    lng: -83.67567
  phone: 606-593-6337
  website: https://www.mchcky.com
  external_ids:
    bphc: BPS-H80-038696
  sources:
  - hrsa/health-center-sites
  verified:
    'on': '2026-07-19'
    method: api
- id: ky/booneville/owsley-county-early-head-start
  name: Owsley County Early Head Start
  categories:
  - child-care
  address:
    street: 122 Baker Ln
    city: Booneville
    state: ky
    zip: '41314'
  place: '2108614'
  geo:
    lat: 37.47305
    lng: -83.6683
  phone: 606-593-5101
  sources:
  - acf/head-start-locations
  verified:
    'on': '2026-07-19'
    method: api
- id: ky/booneville/owsley-county-head-start
  name: Owsley County Head Start
  categories:
  - child-care
  address:
    street: 122 Baker Ln
    city: Booneville
    state: ky
    zip: '41314'
  place: '2108614'
  geo:
    lat: 37.47302
    lng: -83.66761
  phone: 606-593-5101
  sources:
  - acf/head-start-locations
  verified:
    'on': '2026-07-19'
    method: api
- id: ky/booneville/owsley-county-medical-clinic
  name: Owsley County Medical Clinic
  categories:
  - community-health-center
  address:
    street: 826 KY 11 N
    city: Booneville
    state: ky
    zip: '41314'
  place: '2108614'
  geo:
    lat: 37.47929
    lng: -83.68951
  phone: 606-593-6395
  website: https://www.mchcky.com
  external_ids:
    bphc: BPS-H80-003754
  sources:
  - hrsa/health-center-sites
  verified:
    'on': '2026-07-19'
    method: api
