- id: ky/burkesville/burkesville-head-start-cumberland-county-pre-k-e
  name: Burkesville Head Start/Cumberland County Pre-K Early Childhood Center
  categories:
  - child-care
  address:
    street: 46 David L Williams St
    city: Burkesville
    state: ky
    zip: '42717'
  place: '2111098'
  geo:
    lat: 36.79034
    lng: -85.37052
  phone: 270-864-2524
  sources:
  - acf/head-start-locations
  verified:
    'on': '2026-07-19'
    method: api
- id: ky/burkesville/cumberland-county-elementary-healthy-kids-clinic
  name: Cumberland County Elementary Healthy Kids Clinic
  categories:
  - community-health-center
  address:
    street: 150 Glasgow Rd
    city: Burkesville
    state: ky
    zip: '42717'
  place: '2111098'
  geo:
    lat: 36.7947
    lng: -85.36894
  phone: 270-864-4390
  external_ids:
    bphc: BPS-H80-017111
  sources:
  - hrsa/health-center-sites
  verified:
    'on': '2026-07-19'
    method: api
- id: ky/burkesville/cumberland-county-high-healthy-kids-clinic
  name: Cumberland County High Healthy Kids Clinic
  categories:
  - community-health-center
  address:
    street: 912 N Main St
    city: Burkesville
    state: ky
    zip: '42717'
  place: '2111098'
  geo:
    lat: 36.79946
    lng: -85.36198
  phone: 270-864-3451
  external_ids:
    bphc: BPS-H80-017112
  sources:
  - hrsa/health-center-sites
  verified:
    'on': '2026-07-19'
    method: api
- id: ky/burkesville/cumberland-county-middle-healthy-kids-clinic
  name: Cumberland County Middle Healthy Kids Clinic
  categories:
  - community-health-center
  address:
    street: 908 N Main St
    city: Burkesville
    state: ky
    zip: '42717'
  place: '2111098'
  geo:
    lat: 36.79856
    lng: -85.36107
  phone: 270-864-5818
  external_ids:
    bphc: BPS-H80-017210
  sources:
  - hrsa/health-center-sites
  verified:
    'on': '2026-07-19'
    method: api
- id: ky/burkesville/cumberland-family-medical-center
  name: CUMBERLAND FAMILY MEDICAL CENTER
  categories:
  - community-health-center
  address:
    street: 360 Keen St
    city: Burkesville
    state: ky
    zip: '42717'
  place: '2111098'
  geo:
    lat: 36.7853
    lng: -85.369
  phone: 270-864-2889
  website: https://www.cumberlandfamilymedical.com
  external_ids:
    bphc: BPS-H80-003993
  sources:
  - hrsa/health-center-sites
  verified:
    'on': '2026-07-19'
    method: api
- id: ky/burkesville/housing-authority-of-burkesville
  name: Housing Authority Of Burkesville
  categories:
  - housing-assistance
  address: {street: 401 Sunset Dr, city: Burkesville, state: ky, zip: '42717'}
  description: Public housing (Low-Rent) agency
  place: '2111098'
  geo: {lat: 36.79328, lng: -85.36305}
  phone: 270-864-5111
  sources:
  - hud/resource-locator
  verified: {'on': '2026-07-19', method: api}
