- id: ky/cadiz/cadiz-child-development-center
  name: Cadiz Child Development Center
  categories:
  - child-care
  address:
    street: 117 Lincoln Ave
    city: Cadiz
    state: ky
    zip: '42211'
  place: '2111692'
  geo:
    lat: 36.87137
    lng: -87.82359
  phone: 270-522-4035
  sources:
  - acf/head-start-locations
  verified:
    'on': '2026-07-19'
    method: api
- id: ky/cadiz/housing-authority-of-cadiz
  name: Housing Authority Of Cadiz
  categories:
  - housing-assistance
  address:
    street: 117 Lincoln Ave
    city: Cadiz
    state: ky
    zip: '42211'
  description: Public housing (Low-Rent) agency
  place: '2111692'
  geo:
    lat: 36.87359
    lng: -87.82364
  phone: 270-522-3916
  sources:
  - hud/resource-locator
  verified:
    'on': '2026-07-19'
    method: api
- id: ky/cadiz/trigg-co-library
  name: Trigg Co Library
  categories:
  - meal-program
  address: {street: 244 Main St, city: Cadiz, state: ky, zip: '42211'}
  description: Free summer meals for kids and teens (2026 season) — sponsored by Feeding America Kentucky's
    Heartland, Inc..
  place: '2111692'
  geo: {lat: 36.86696, lng: -87.82315}
  external_ids: {usda_master: Cycle 04_KY_SFSP_0067}
  sources:
  - usda/summer-meal-sites
  verified: {'on': '2026-07-19', method: api}
- id: ky/cadiz/trigg-county-home-based
  name: Trigg County Home Based
  categories:
  - child-care
  address:
    street: 1724 Canton Rd
    city: Cadiz
    state: ky
    zip: '42211'
  place: '2111692'
  geo:
    lat: 36.84373
    lng: -87.85692
  phone: 270-873-8311
  sources:
  - acf/head-start-locations
  verified:
    'on': '2026-07-19'
    method: api
- id: ky/cadiz/trigg-county-hospital-behavioral-health
  name: Trigg County Hospital Behavioral Health
  categories:
  - su-treatment
  - mh-treatment
  address:
    street: 11 Hospital Street
    city: Cadiz
    state: ky
    zip: '42211'
  place: '2111692'
  geo:
    lat: 36.8667
    lng: -87.82066
  phone: 270-522-0627
  website: https://www.trigghospital.org
  sources:
  - samhsa/findtreatment
  verified:
    'on': '2026-07-19'
    method: api
