- id: ky/campbellsville/adanta-group-taylor-county-clinic
  name: Adanta Group Taylor County Clinic
  categories:
  - su-treatment
  - mh-treatment
  address:
    street: 250 Water Tower Bypass
    city: Campbellsville
    state: ky
    zip: '42718'
  place: '2112160'
  geo:
    lat: 37.3361
    lng: -85.3181
  phone: 270-465-7424
  website: https://www.adanta.org
  sources:
  - samhsa/findtreatment
  verified:
    'on': '2026-07-19'
    method: api
- id: ky/campbellsville/bluegrass-professional-counseling
  name: Bluegrass Professional Counseling
  categories:
  - su-treatment
  - mh-treatment
  address:
    street: 102 Winston Way
    city: Campbellsville
    state: ky
    zip: '42718'
  place: '2112160'
  geo:
    lat: 37.35156
    lng: -85.35585
  phone: 270-465-0078
  website: https://www.bluegrassprofessionalcounseling.com/
  sources:
  - samhsa/findtreatment
  verified:
    'on': '2026-07-19'
    method: api
- id: ky/campbellsville/brightview-health
  name: BrightView Health
  categories:
  - su-treatment
  address:
    street: 830 West Broadway
    city: Campbellsville
    state: ky
    zip: '42718'
  place: '2112160'
  geo:
    lat: 37.33847
    lng: -85.35654
  phone: 844-707-7775
  website: https://www.brightviewhealth.com/
  sources:
  - samhsa/findtreatment
  verified:
    'on': '2026-07-19'
    method: api
- id: ky/campbellsville/campbellsville-housing-and-redevelopment-authori
  name: Campbellsville Housing And Redevelopment Authority
  categories:
  - housing-assistance
  address: {street: 400 Ingram Ave, city: Campbellsville, state: ky, zip: '42718'}
  description: Public housing and Housing Choice Voucher agency
  place: '2112160'
  geo: {lat: 37.35184, lng: -85.33793}
  phone: 270-465-3576
  sources:
  - hud/resource-locator
  verified: {'on': '2026-07-19', method: api}
- id: ky/campbellsville/one-cross-health
  name: One Cross Health
  categories:
  - community-health-center
  address:
    street: 106 Winston Way
    city: Campbellsville
    state: ky
    zip: '42718'
  place: '2112160'
  geo:
    lat: 37.35179
    lng: -85.35473
  phone: 270-789-0034
  external_ids:
    bphc: BPS-LAL-039932
  sources:
  - hrsa/health-center-sites
  verified:
    'on': '2026-07-19'
    method: api
- id: ky/campbellsville/taylor-co-campbellsville-hs-ehs
  name: Taylor Co/Campbellsville HS/EHS
  categories:
  - child-care
  address:
    street: 1951 Old Columbia Rd
    city: Campbellsville
    state: ky
    zip: '42718'
  place: '2112160'
  geo:
    lat: 37.31696
    lng: -85.3612
  phone: 270-343-6400
  sources:
  - acf/head-start-locations
  verified:
    'on': '2026-07-19'
    method: api
- id: ky/campbellsville/taylor-county-high-healthy-kids-clinic
  name: Taylor County High Healthy Kids Clinic
  categories:
  - community-health-center
  address:
    street: 2705 Hodgenville Rd
    city: Campbellsville
    state: ky
    zip: '42718'
  place: '2112160'
  geo:
    lat: 37.35192
    lng: -85.3758
  phone: 270-465-4431
  external_ids:
    bphc: BPS-H80-035656
  sources:
  - hrsa/health-center-sites
  verified:
    'on': '2026-07-19'
    method: api
- id: ky/campbellsville/taylor-county-intermediate-healthy-kids-clinic
  name: Taylor County Intermediate Healthy Kids Clinic
  categories:
  - community-health-center
  address:
    street: 1207 E Broadway St
    city: Campbellsville
    state: ky
    zip: '42718'
  place: '2112160'
  geo:
    lat: 37.35093
    lng: -85.33417
  phone: 270-465-5691
  external_ids:
    bphc: BPS-H80-035657
  sources:
  - hrsa/health-center-sites
  verified:
    'on': '2026-07-19'
    method: api
- id: ky/campbellsville/taylor-county-middle-healthy-kids-clinic
  name: Taylor County Middle Healthy Kids Clinic
  categories:
  - community-health-center
  address:
    street: 300 Ingram Ave
    city: Campbellsville
    state: ky
    zip: '42718'
  place: '2112160'
  geo:
    lat: 37.35126
    lng: -85.33605
  phone: 270-465-2877
  external_ids:
    bphc: BPS-H80-035658
  sources:
  - hrsa/health-center-sites
  verified:
    'on': '2026-07-19'
    method: api
- id: ky/campbellsville/taylor-county-primary-healthy-kids-clinic
  name: Taylor County Primary Healthy Kids Clinic
  categories:
  - community-health-center
  address:
    street: 106 Ingram Ave
    city: Campbellsville
    state: ky
    zip: '42718'
  place: '2112160'
  geo:
    lat: 37.3505
    lng: -85.33534
  phone: 270-465-0449
  external_ids:
    bphc: BPS-H80-035497
  sources:
  - hrsa/health-center-sites
  verified:
    'on': '2026-07-19'
    method: api
- id: ky/campbellsville/the-healing-place-campbellsville
  name: The Healing Place Campbellsville
  categories:
  - su-treatment
  address:
    street: 105 Hiestand Farm Road
    city: Campbellsville
    state: ky
    zip: '42718'
  place: '2112160'
  geo:
    lat: 37.33675
    lng: -85.33964
  phone: 270-789-0176
  website: https://www.thehealingplace.org
  sources:
  - samhsa/findtreatment
  verified:
    'on': '2026-07-19'
    method: api
