- id: ky/central-city/a-new-start-primary-care-llc
  name: A New Start Primary Care LLC
  categories:
  - su-treatment
  address:
    street: 224 Phillip Stone Way
    city: Central City
    state: ky
    zip: '42330'
  place: '2113978'
  geo:
    lat: 37.28713
    lng: -87.13961
  phone: 866-934-4611
  website: https://www.anewstartclinics.com
  sources:
  - samhsa/findtreatment
  verified:
    'on': '2026-07-19'
    method: api
- id: ky/central-city/central-city-elementary
  name: Central City Elementary
  categories:
  - child-care
  address:
    street: 1501 N 2nd St
    street2: Central City Elementary School
    city: Central City
    state: ky
    zip: '42330'
  place: '2113978'
  geo:
    lat: 37.31931
    lng: -87.12688
  phone: 270-754-3974
  sources:
  - acf/head-start-locations
  verified:
    'on': '2026-07-19'
    method: api
- id: ky/central-city/cindy-baird-dui-services-llc
  name: Cindy Baird DUI Services LLC
  categories:
  - su-treatment
  address:
    street: 109 South 3rd Street
    city: Central City
    state: ky
    zip: '42330'
  place: '2113978'
  geo:
    lat: 37.29381
    lng: -87.12217
  phone: 270-338-2280
  website: https://www.cindybairddui.com
  sources:
  - samhsa/findtreatment
  verified:
    'on': '2026-07-19'
    method: api
- id: ky/central-city/housing-authority-of-central-city
  name: Housing Authority Of Central City
  categories:
  - housing-assistance
  address: {street: 509 S 9th St, city: Central City, state: ky, zip: '42330'}
  description: Public housing (Low-Rent) agency
  place: '2113978'
  geo: {lat: 37.29336, lng: -87.11154}
  phone: 270-754-2521
  sources:
  - hud/resource-locator
  verified: {'on': '2026-07-19', method: api}
- id: ky/central-city/truenorth-treatment-center
  name: TrueNorth Treatment Center
  categories:
  - su-treatment
  - mh-treatment
  address:
    street: 114 South 2nd Street
    city: Central City
    state: ky
    zip: '42330'
  place: '2113978'
  geo:
    lat: 37.29313
    lng: -87.12275
  phone: 270-931-5018
  website: https://www.truenorthky.com
  sources:
  - samhsa/findtreatment
  verified:
    'on': '2026-07-19'
    method: api
