- id: ky/elkton/blount-rural-health-center
  name: Blount Rural Health Center
  categories:
  - community-health-center
  cost: sliding-scale
  address: {street: 810 S Main St, city: Elkton, state: ky, zip: '42220'}
  place: '2124400'
  geo: {lat: 36.79516, lng: -87.16188}
  phone: 270-265-5600
  website: https://www.blountrhc.org
  external_ids: {bphc: BPS-LAL-040945}
  sources:
  - hrsa/health-center-sites
  verified: {'on': '2026-07-19', method: api}
- id: ky/elkton/blount-rural-health-center-helping-hands-health
  name: Blount Rural Health Center (Helping Hands Health Clinic)
  categories:
  - free-clinic
  - health
  address: {street: 810 South Main Street, city: Elkton, state: ky, zip: '42220'}
  geo: {lat: 36.7952, lng: -87.16188}
  place: '2124400'
  phone: 270-265-5600
  website: https://babyhealthlexington.org
  cost: free
  external_ids: {nafc: blount-rural-health-center-helping-hands-health-clinic}
  sources:
  - nafc/find-a-clinic
  verified: {'on': '2026-07-21', method: scrape}
- id: ky/elkton/elkton-city-park
  name: Elkton City Park
  categories:
  - meal-program
  address: {street: 421 S Main Street, city: Elkton, state: ky, zip: '42220'}
  description: Free summer meals for kids and teens (2026 season) — sponsored by Todd County Board of
    Education.
  place: '2124400'
  geo: {lat: 36.80355, lng: -87.15471}
  external_ids: {usda_master: Cycle 02_KY_SFSP_0894}
  sources:
  - usda/summer-meal-sites
  verified: {'on': '2026-07-19', method: api}
- id: ky/elkton/interfaith-todd-co
  name: Interfaith, Todd Co.
  org: ky/feeding-america-kentucky-s-heartland
  categories:
  - food-pantry
  address: {street: 602 Streets Avenue, city: Elkton, state: ky}
  place: '2124400'
  geo: {lat: 36.8043, lng: -87.15984}
  external_ids: {ky-feeding-america-kentucky-s-heartland: '1563'}
  sources:
  - foodbank/ky-feeding-america-kentucky-s-heartland
  verified: {'on': '2026-07-21', method: api}
- id: ky/elkton/petrie-memorial-umc
  name: Petrie Memorial UMC
  org: ky/feeding-america-kentucky-s-heartland
  categories:
  - food-pantry
  address: {street: 203 East Main Street, city: Elkton, state: ky}
  place: '2124400'
  geo: {lat: 36.80978, lng: -87.15269}
  external_ids: {ky-feeding-america-kentucky-s-heartland: '593'}
  sources:
  - foodbank/ky-feeding-america-kentucky-s-heartland
  verified: {'on': '2026-07-21', method: api}
- id: ky/elkton/playschool-child-care-center
  name: Playschool Child Care Center
  categories:
  - child-care
  address: {street: 215 Moe Ln, city: Elkton, state: ky, zip: '42220'}
  description: Head Start early childhood program — 20 funded slots; operated by Audubon Area Community
    Services, Inc..
  place: '2124400'
  geo: {lat: 36.82306, lng: -87.19486}
  phone: 270-265-3888
  sources:
  - acf/head-start-locations
  verified: {'on': '2026-07-19', method: api}
- id: ky/elkton/playschool-day-care-ccp
  name: Playschool Day Care CCP
  categories:
  - child-care
  address: {street: 215 Moe Ln, street2: Kathy Wilson, city: Elkton, state: ky, zip: '42220'}
  description: Head Start early childhood program — 16 funded slots; operated by AUDUBON AREA COMMUNITY
    SERVICES, INC.
  place: '2124400'
  geo: {lat: 36.82309, lng: -87.19481}
  phone: 270-265-3888
  sources:
  - acf/head-start-locations
  verified: {'on': '2026-07-19', method: api}
- id: ky/elkton/todd-county-senior-center
  name: Todd County Senior Center
  org: ky/feeding-america-kentucky-s-heartland
  categories:
  - food-pantry
  address: {street: 104 Morris Weathers Street, city: Elkton, state: ky}
  place: '2124400'
  geo: {lat: 36.80244, lng: -87.15499}
  external_ids: {ky-feeding-america-kentucky-s-heartland: '797'}
  sources:
  - foodbank/ky-feeding-america-kentucky-s-heartland
  verified: {'on': '2026-07-21', method: api}
