- id: ky/flat-lick/dewitt-baptist-church
  name: Dewitt Baptist Church
  categories:
  - meal-program
  address:
    street: 78 Ky 718
    city: Flatlick
    state: ky
    zip: '40935'
  description: Free summer meals for kids and teens (2026 season) — sponsored by KCEOC Comm Action Partnership.
  place: '2127730'
  geo:
    lat: 36.87667
    lng: -83.73638
  external_ids:
    usda_master: Cycle 04_KY_SFSP_1502
  sources:
  - usda/summer-meal-sites
  verified:
    'on': '2026-07-19'
    method: api
- id: ky/flat-lick/dewitt-elementary
  name: Dewitt Elementary
  categories:
  - meal-program
  address:
    street: 138 Ky 718
    city: Flatlick
    state: ky
    zip: '40935'
  description: Free summer meals for kids and teens (2026 season) — sponsored by KCEOC Comm Action Partnership.
  place: '2127730'
  geo:
    lat: 36.87633
    lng: -83.73528
  external_ids:
    usda_master: Cycle 04_KY_SFSP_1503
  sources:
  - usda/summer-meal-sites
  verified:
    'on': '2026-07-19'
    method: api
- id: ky/flat-lick/escoe-s-market
  name: Escoe'S Market
  categories:
  - meal-program
  address:
    street: 2950 St Hwy 223
    city: Flatlick
    state: ky
    zip: '40935'
  description: Free summer meals for kids and teens (2026 season) — sponsored by KCEOC Comm Action Partnership.
  place: '2127730'
  geo:
    lat: 36.86666
    lng: -83.74735
  external_ids:
    usda_master: Cycle 04_KY_SFSP_1524
  sources:
  - usda/summer-meal-sites
  verified:
    'on': '2026-07-19'
    method: api
- id: ky/flat-lick/flat-lick-elementary
  name: Flat Lick Elementary
  categories:
  - child-care
  address:
    street: 110 KY 3085
    city: Flat Lick
    state: ky
    zip: '40935'
  place: '2127730'
  geo:
    lat: 36.83963
    lng: -83.78132
  phone: 606-542-4712
  sources:
  - acf/head-start-locations
  verified:
    'on': '2026-07-19'
    method: api
- id: ky/flat-lick/flat-lick-school
  name: Flat Lick School
  categories:
  - meal-program
  address:
    street: 110 Ky 3085
    city: Flatlick
    state: ky
    zip: '40935'
  description: Free summer meals for kids and teens (2026 season) — sponsored by KCEOC Comm Action Partnership.
  place: '2127730'
  geo:
    lat: 36.84038
    lng: -83.78073
  external_ids:
    usda_master: Cycle 05_KY_SFSP_1727
  sources:
  - usda/summer-meal-sites
  verified:
    'on': '2026-07-19'
    method: api
- id: ky/flat-lick/gchc-sbhc-dewitt-elem
  name: GCHC SBHC Dewitt Elem
  categories:
  - community-health-center
  address:
    street: 138 KY 718
    city: Flat Lick
    state: ky
    zip: '40935'
  place: '2127730'
  geo:
    lat: 36.87558
    lng: -83.73551
  phone: 606-542-4274
  website: https://gracechc.om
  external_ids:
    bphc: BPS-H80-021745
  sources:
  - hrsa/health-center-sites
  verified:
    'on': '2026-07-19'
    method: api
- id: ky/flat-lick/grace-sbhc-flat-lick-elem
  name: Grace SBHC Flat Lick Elem
  categories:
  - community-health-center
  address:
    street: 100 KY 3085
    city: Flat Lick
    state: ky
    zip: '40935'
  place: '2127730'
  geo:
    lat: 36.84003
    lng: -83.78027
  phone: 606-542-4712
  website: https://gracechc.com
  external_ids:
    bphc: BPS-H80-021748
  sources:
  - hrsa/health-center-sites
  verified:
    'on': '2026-07-19'
    method: api
- id: ky/flat-lick/patel-mobile-home-park
  name: Patel Mobile Home Park
  categories:
  - meal-program
  address:
    street: 6781 South Us Hwy 25E
    city: Flatlick
    state: ky
    zip: '40935'
  description: Free summer meals for kids and teens (2026 season) — sponsored by KCEOC Comm Action Partnership.
  place: '2127730'
  geo:
    lat: 36.85784
    lng: -83.79301
  external_ids:
    usda_master: Cycle 04_KY_SFSP_1582
  sources:
  - usda/summer-meal-sites
  verified:
    'on': '2026-07-19'
    method: api
- id: ky/flat-lick/roadfork-grill-grocery
  name: Roadfork Grill & Grocery
  categories:
  - meal-program
  address:
    street: 9667 Hwy223
    city: Flatlick
    state: ky
    zip: '40945'
  description: Free summer meals for kids and teens (2026 season) — sponsored by KCEOC Comm Action Partnership.
  place: '2127730'
  geo:
    lat: 36.94782
    lng: -83.7348
  external_ids:
    usda_master: Cycle 04_KY_SFSP_1581
  sources:
  - usda/summer-meal-sites
  verified:
    'on': '2026-07-19'
    method: api
- id: ky/flat-lick/turkey-creek-baptist-church
  name: Turkey Creek Baptist Church
  categories:
  - meal-program
  address:
    street: 1 Fortney Branch Road
    city: Flatlick
    state: ky
    zip: '40935'
  description: Free summer meals for kids and teens (2026 season) — sponsored by KCEOC Comm Action Partnership.
  place: '2127730'
  geo:
    lat: 36.86348
    lng: -83.797
  external_ids:
    usda_master: Cycle 03_KY_SFSP_1231
  sources:
  - usda/summer-meal-sites
  verified:
    'on': '2026-07-19'
    method: api
