- id: ky/flemingsburg/comprehend-inc-fleming-county-ccbhc
  name: Comprehend Inc Fleming County CCBHC
  categories:
  - su-treatment
  - mh-treatment
  address:
    street: 610 Elizaville Road
    city: Flemingsburg
    state: ky
    zip: '41041'
  place: '2127856'
  geo:
    lat: 38.42031
    lng: -83.7458
  phone: 606-849-2212
  website: https://www.comprehendinc.org
  sources:
  - samhsa/findtreatment
  verified:
    'on': '2026-07-19'
    method: api
- id: ky/flemingsburg/fleming-county-head-start
  name: Fleming County Head Start
  categories:
  - child-care
  address:
    street: 122 Frazier St
    city: Flemingsburg
    state: ky
    zip: '41041'
  place: '2127856'
  geo:
    lat: 38.41819
    lng: -83.75025
  phone: 800-927-1833
  sources:
  - acf/head-start-locations
  verified:
    'on': '2026-07-19'
    method: api
- id: ky/flemingsburg/flemingburg-county-family-h-c
  name: FLEMINGBURG COUNTY FAMILY H.C
  categories:
  - community-health-center
  address:
    street: 520 Elizaville Ave
    city: Flemingsburg
    state: ky
    zip: '41041'
  place: '2127856'
  geo:
    lat: 38.42024
    lng: -83.74415
  phone: 606-845-0028
  external_ids:
    bphc: BPS-H80-004407
  sources:
  - hrsa/health-center-sites
  verified:
    'on': '2026-07-19'
    method: api
- id: ky/flemingsburg/housing-authority-of-flemingsburg
  name: Housing Authority Of Flemingsburg
  categories:
  - housing-assistance
  address: {street: 142 Circle Dr, city: Flemingsburg, state: ky, zip: '41041'}
  description: Public housing (Low-Rent) agency
  place: '2127856'
  geo: {lat: 38.41794, lng: -83.72546}
  phone: 606-845-1651
  sources:
  - hud/resource-locator
  verified: {'on': '2026-07-19', method: api}
- id: ky/flemingsburg/mountain-comprehensive-care-center-revived-radia
  name: Mountain Comprehensive Care Center Revived Radiance Recovery
  categories:
  - su-treatment
  - mh-treatment
  address:
    street: 65 Energy Road
    city: Flemingsburg
    state: ky
    zip: '41041'
  place: '2127856'
  geo:
    lat: 38.41933
    lng: -83.75704
  phone: 606-291-5470
  website: https://www.mtcomp.org
  sources:
  - samhsa/findtreatment
  verified:
    'on': '2026-07-19'
    method: api
