- id: ky/fort-mitchell/applegate-recovery-crestview-hills
  name: AppleGate Recovery Crestview Hills
  categories:
  - su-treatment
  address:
    street: 565 Centre View Boulevard
    city: Fort Mitchell
    state: ky
    zip: '41017'
  place: '2128558'
  geo:
    lat: 39.02091
    lng: -84.55911
  phone: 859-287-3230
  website: https://applegaterecovery.com/locations/kentucky/crestview-hills/
  sources:
  - samhsa/findtreatment
  verified:
    'on': '2026-07-19'
    method: api
- id: ky/fort-mitchell/ellie-mental-health
  name: Ellie Mental Health
  categories:
  - su-treatment
  - mh-treatment
  address:
    street: 350 Thomas More Parkway
    city: Fort Mitchell
    state: ky
    zip: '41017'
  place: '2128558'
  geo:
    lat: 39.02378
    lng: -84.56453
  phone: 859-600-6990
  website: https://elliementalhealth.com/locations/crestview-hills-ky/
  sources:
  - samhsa/findtreatment
  verified:
    'on': '2026-07-19'
    method: api
- id: ky/fort-mitchell/re-group-outpatient-northern-ky
  name: Re Group Outpatient Northern KY
  categories:
  - su-treatment
  - mh-treatment
  address:
    street: 10 Town Center Boulevard
    city: Fort Mitchell
    state: ky
    zip: '41017'
  place: '2128558'
  geo:
    lat: 39.02439
    lng: -84.57225
  phone: 859-360-6120
  website: https://www.rameyestep.com
  sources:
  - samhsa/findtreatment
  verified:
    'on': '2026-07-19'
    method: api
- id: ky/fort-mitchell/transitions
  name: Transitions
  categories:
  - community-health-center
  address:
    street: 313 Madison Pike
    city: Ft Mitchell
    state: ky
    zip: '41017'
  place: '2128558'
  geo:
    lat: 38.98897
    lng: -84.53368
  phone: 859-655-6100
  external_ids:
    bphc: BPS-H80-024617
  sources:
  - hrsa/health-center-sites
  verified:
    'on': '2026-07-19'
    method: api
- id: ky/fort-mitchell/transitions-inc-intensive-outpatient-outpatient
  name: Transitions Inc Intensive Outpatient/Outpatient
  categories:
  - su-treatment
  address:
    street: 313 Madison Pike
    city: Fort Mitchell
    state: ky
    zip: '41017'
  place: '2128558'
  geo:
    lat: 38.98893
    lng: -84.53361
  phone: 859-491-4435 x1
  website: https://www.transitionsky.org
  sources:
  - samhsa/findtreatment
  verified:
    'on': '2026-07-19'
    method: api
- id: ky/fort-mitchell/transitions-inc-residential-treatment-center
  name: Transitions Inc Residential Treatment Center
  categories:
  - su-treatment
  address:
    street: 313 Madison Pike
    city: Fort Mitchell
    state: ky
    zip: '41017'
  place: '2128558'
  geo:
    lat: 38.98893
    lng: -84.53361
  phone: 859-491-4435 x1
  website: https://www.transitionsky.org
  sources:
  - samhsa/findtreatment
  verified:
    'on': '2026-07-19'
    method: api
