- id: ky/hazard/arh-regional-medical-center-psychiatric-center
  name: ARH Regional Medical Center Psychiatric Center
  categories:
  - su-treatment
  - mh-treatment
  address:
    street: 102 Medical Center Drive
    city: Hazard
    state: ky
    zip: '41701'
  place: '2135362'
  geo:
    lat: 37.27735
    lng: -83.22701
  phone: 606-439-6600
  website: https://www.arh.org/Default.aspx
  sources:
  - samhsa/findtreatment
  verified:
    'on': '2026-07-19'
    method: api
- id: ky/hazard/beacons-of-hope
  name: Beacons of Hope
  categories:
  - su-treatment
  - mh-treatment
  address:
    street: 194 BOH Lane
    city: Hazard
    state: ky
    zip: '41701'
  place: '2135362'
  geo:
    lat: 37.23603
    lng: -83.25812
  phone: 606-551-1140
  website: https://beaconsofhope.net
  sources:
  - samhsa/findtreatment
  verified:
    'on': '2026-07-19'
    method: api
- id: ky/hazard/beacons-of-hope-hazard
  name: Beacons of  Hope Hazard
  categories:
  - su-treatment
  address:
    street: 101 Town And Country Lane
    city: Hazard
    state: ky
    zip: '41701'
  place: '2135362'
  geo:
    lat: 37.27506
    lng: -83.19359
  phone: 606-435-7557
  website: https://beaconsofhope.net
  sources:
  - samhsa/findtreatment
  verified:
    'on': '2026-07-19'
    method: api
- id: ky/hazard/bhg-hazard-treatment-center
  name: BHG Hazard Treatment Center
  categories:
  - su-treatment
  address:
    street: 118 Grand Vue Plaza
    city: Hazard
    state: ky
    zip: '41701'
  place: '2135362'
  geo:
    lat: 37.28936
    lng: -83.20844
  phone: 606-487-1646
  website: https://visit.bhgrecovery.com
  sources:
  - samhsa/findtreatment
  verified:
    'on': '2026-07-19'
    method: api
- id: ky/hazard/hazard-medical-clinic
  name: Hazard Medical Clinic
  categories:
  - community-health-center
  address:
    street: 30 S KY Highway 15
    city: Hazard
    state: ky
    zip: '41701'
  place: '2135362'
  geo:
    lat: 37.2547
    lng: -83.19735
  phone: 606-629-5299
  website: https://www.mchcky.com
  external_ids:
    bphc: BPS-H80-040936
  sources:
  - hrsa/health-center-sites
  verified:
    'on': '2026-07-19'
    method: api
- id: ky/hazard/housing-authority-of-hazard
  name: Housing Authority Of Hazard
  categories:
  - housing-assistance
  address: {street: 100 Campbell St Rm A, city: Hazard, state: ky, zip: '41701'}
  description: Public housing (Low-Rent) agency
  place: '2135362'
  geo: {lat: 37.25037, lng: -83.19553}
  phone: 606-436-5741
  sources:
  - hud/resource-locator
  verified: {'on': '2026-07-19', method: api}
- id: ky/hazard/kentucky-mountain-health-alliance-inc
  name: Kentucky Mountain Health Alliance Inc.
  categories:
  - community-health-center
  address:
    street: 279 E Main St
    city: Hazard
    state: ky
    zip: '41701'
  place: '2135362'
  geo:
    lat: 37.24588
    lng: -83.18696
  phone: 606-487-9505
  external_ids:
    bphc: BPS-H80-032302
  sources:
  - hrsa/health-center-sites
  verified:
    'on': '2026-07-19'
    method: api
- id: ky/hazard/kentucky-river-community-care-inc-crossroads-cri
  name: Kentucky River Community Care Inc Crossroads Crisis Services
  categories:
  - su-treatment
  - mh-treatment
  address:
    street: 310 Roy Campbell Drive
    city: Hazard
    state: ky
    zip: '41701'
  place: '2135362'
  geo:
    lat: 37.2719
    lng: -83.2317
  phone: 800-262-7491 x7313
  website: https://www.krccnet.com
  sources:
  - samhsa/findtreatment
  verified:
    'on': '2026-07-19'
    method: api
- id: ky/hazard/kentucky-river-community-care-inc-drug-court-ser
  name: Kentucky River Community Care Inc Drug Court Services
  categories:
  - su-treatment
  - mh-treatment
  address:
    street: 115 Rockwood Lane
    city: Hazard
    state: ky
    zip: '41701'
  place: '2135362'
  geo:
    lat: 37.28038
    lng: -83.22864
  phone: 606-436-5761
  website: https://www.krccnet.com
  sources:
  - samhsa/findtreatment
  verified:
    'on': '2026-07-19'
    method: api
- id: ky/hazard/kentucky-river-community-care-inc-new-directions
  name: Kentucky River Community Care Inc New Directions Perry
  categories:
  - su-treatment
  - mh-treatment
  address:
    street: 115 Rockwood Lane
    city: Hazard
    state: ky
    zip: '41701'
  place: '2135362'
  geo:
    lat: 37.28038
    lng: -83.22864
  phone: 606-436-5761
  website: https://www.krccnet.com
  sources:
  - samhsa/findtreatment
  verified:
    'on': '2026-07-19'
    method: api
- id: ky/hazard/kentucky-river-community-care-inc-perry-dui
  name: Kentucky River Community Care Inc Perry DUI
  categories:
  - su-treatment
  address:
    street: 115 Rockwood Lane
    city: Hazard
    state: ky
    zip: '41701'
  place: '2135362'
  geo:
    lat: 37.28038
    lng: -83.22864
  phone: 606-436-5761
  website: https://www.krccnet.com
  sources:
  - samhsa/findtreatment
  verified:
    'on': '2026-07-19'
    method: api
- id: ky/hazard/kentucky-river-community-care-inc-perry-outpatie
  name: Kentucky River Community Care Inc Perry Outpatient Services
  categories:
  - su-treatment
  - mh-treatment
  address:
    street: 115 Rockwood Lane
    city: Hazard
    state: ky
    zip: '41701'
  place: '2135362'
  geo:
    lat: 37.28038
    lng: -83.22864
  phone: 606-436-5761 x7226
  website: https://krccnet.com
  sources:
  - samhsa/findtreatment
  verified:
    'on': '2026-07-19'
    method: api
- id: ky/hazard/kentucky-river-community-care-inc-project-addvan
  name: Kentucky River Community Care Inc Project ADDVANCE
  categories:
  - su-treatment
  - mh-treatment
  address:
    street: 91 Little Grapevine Creek Road
    city: Hazard
    state: ky
    zip: '41701'
  place: '2135362'
  geo:
    lat: 37.32348
    lng: -83.24744
  phone: 606-435-2839
  website: https://www.krccnet.com
  sources:
  - samhsa/findtreatment
  verified:
    'on': '2026-07-19'
    method: api
- id: ky/hazard/kentucky-river-community-care-inc-sap-perry
  name: Kentucky River Community Care Inc SAP Perry
  categories:
  - su-treatment
  address:
    street: 115 Rockwood Lane
    city: Hazard
    state: ky
    zip: '41701'
  place: '2135362'
  geo:
    lat: 37.28038
    lng: -83.22864
  phone: 606-436-5761
  website: https://www.krccnet.com
  sources:
  - samhsa/findtreatment
  verified:
    'on': '2026-07-19'
    method: api
- id: ky/hazard/kentucky-river-community-care-inc-us-courts-outp
  name: Kentucky River Community Care Inc US Courts Outpatient Services
  categories:
  - su-treatment
  - mh-treatment
  address:
    street: 115 Rockwood Lane
    city: Hazard
    state: ky
    zip: '41701'
  place: '2135362'
  geo:
    lat: 37.28038
    lng: -83.22864
  phone: 606-436-5761
  website: https://www.krccnet.com
  sources:
  - samhsa/findtreatment
  verified:
    'on': '2026-07-19'
    method: api
- id: ky/hazard/kmha-medical-billing-and-quality-office
  name: KMHA Medical Billing and Quality Office
  categories:
  - community-health-center
  address:
    street: 150 E Main St
    city: Hazard
    state: ky
    zip: '41701'
  place: '2135362'
  geo:
    lat: 37.24601
    lng: -83.18886
  phone: 606-487-9505
  external_ids:
    bphc: BPS-H80-039448
  sources:
  - hrsa/health-center-sites
  verified:
    'on': '2026-07-19'
    method: api
- id: ky/hazard/kmha-quick-response-team-prevention-center
  name: KMHA Quick Response Team_Prevention Center
  categories:
  - community-health-center
  address:
    street: 148 Taylor Ridge Rd
    city: Hazard
    state: ky
    zip: '41701'
  place: '2135362'
  geo:
    lat: 37.2811
    lng: -83.2196
  phone: 606-487-9505
  external_ids:
    bphc: BPS-H80-041560
  sources:
  - hrsa/health-center-sites
  verified:
    'on': '2026-07-19'
    method: api
- id: ky/hazard/little-flower-clinic
  name: Little Flower Clinic
  categories:
  - community-health-center
  address:
    street: 279 E Main St
    city: Hazard
    state: ky
    zip: '41701'
  place: '2135362'
  geo:
    lat: 37.24588
    lng: -83.18696
  phone: 606-487-9505
  external_ids:
    bphc: BPS-H80-021949
  sources:
  - hrsa/health-center-sites
  verified:
    'on': '2026-07-19'
    method: api
- id: ky/hazard/mobile-dental-unit-2
  name: Mobile Dental Unit 2
  categories:
  - community-health-center
  address:
    street: 750 Morton Blvd
    city: Hazard
    state: ky
    zip: '41701'
  place: '2135362'
  geo:
    lat: 37.27819
    lng: -83.2273
  phone: 606-439-1559
  external_ids:
    bphc: BPS-H80-038088
  sources:
  - hrsa/health-center-sites
  verified:
    'on': '2026-07-19'
    method: api
- id: ky/hazard/mountain-comprehensive-care-center-hazard-iop
  name: Mountain Comprehensive Care Center Hazard IOP
  categories:
  - su-treatment
  address:
    street: 1565 Combs Road
    city: Hazard
    state: ky
    zip: '41701'
  place: '2135362'
  geo:
    lat: 37.28597
    lng: -83.20682
  phone: 606-910-0025
  website: https://www.mtcomp.org
  sources:
  - samhsa/findtreatment
  verified:
    'on': '2026-07-19'
    method: api
- id: ky/hazard/north-fork-valley-community-health-center
  name: North Fork Valley Community Health Center
  categories:
  - community-health-center
  address:
    street: 750 Morton Blvd
    city: Hazard
    state: ky
    zip: '41701'
  place: '2135362'
  geo:
    lat: 37.27819
    lng: -83.2273
  phone: 606-439-1559
  website: https://ukhealthcare.uky.edu/hospitals-clinics/north-fork-valley-community-health-center
  external_ids:
    bphc: BPS-H80-035170
  sources:
  - hrsa/health-center-sites
  verified:
    'on': '2026-07-19'
    method: api
- id: ky/hazard/perry-county-head-start-early-head-start
  name: Perry County Head Start/Early Head Start
  categories:
  - child-care
  address:
    street: 145 Citizens Ln
    city: Hazard
    state: ky
    zip: '41701'
  place: '2135362'
  geo:
    lat: 37.2584
    lng: -83.19881
  phone: 606-435-1888
  sources:
  - acf/head-start-locations
  verified:
    'on': '2026-07-19'
    method: api
- id: ky/hazard/quantum-healthcare-associates-inc
  name: Quantum Healthcare Associates, Inc.
  categories:
  - community-health-center
  address:
    street: 210 Black Gold Blvd
    city: Hazard
    state: ky
    zip: '41701'
  place: '2135362'
  geo:
    lat: 37.25227
    lng: -83.20144
  phone: 606-436-0711
  external_ids:
    bphc: BPS-H80-036829
  sources:
  - hrsa/health-center-sites
  verified:
    'on': '2026-07-19'
    method: api
- id: ky/hazard/ronald-mcdonald-care-mobile
  name: Ronald McDonald Care Mobile
  categories:
  - community-health-center
  address:
    street: 750 Morton Blvd
    city: Hazard
    state: ky
    zip: '41701'
  place: '2135362'
  geo:
    lat: 37.27819
    lng: -83.2273
  phone: 606-439-1559
  website: https://ukhealthcare.uky.edu/hospitals-clinics/north-fork-valley-community-health-center
  external_ids:
    bphc: BPS-H80-035169
  sources:
  - hrsa/health-center-sites
  verified:
    'on': '2026-07-19'
    method: api
- id: ky/hazard/spero-health
  name: Spero Health
  categories:
  - su-treatment
  address:
    street: 182 Roy Campbell Drive
    city: Hazard
    state: ky
    zip: '41701'
  place: '2135362'
  geo:
    lat: 37.27446
    lng: -83.22527
  phone: 606-435-0888
  website: https://www.sperohealth.com
  sources:
  - samhsa/findtreatment
  verified:
    'on': '2026-07-19'
    method: api
