- id: ky/hyden/grace-chc-mountain-view-elementary-school
  name: Grace CHC Mountain View Elementary School
  categories:
  - community-health-center
  address:
    street: 170 Bear Trail Rd
    city: Hyden
    state: ky
    zip: '41749'
  place: '2138908'
  geo:
    lat: 37.16439
    lng: -83.40009
  phone: 606-672-1606
  external_ids:
    bphc: BPS-H80-017260
  sources:
  - hrsa/health-center-sites
  verified:
    'on': '2026-07-19'
    method: api
- id: ky/hyden/grace-community-health-center-inc-hyden
  name: Grace Community Health Center, Inc. - Hyden
  categories:
  - community-health-center
  address:
    street: 21154 United States Highway 421
    city: Hyden
    state: ky
    zip: '41749'
  place: '2138908'
  geo:
    lat: 37.15157
    lng: -83.37303
  phone: 606-672-1208
  external_ids:
    bphc: BPS-H80-018611
  sources:
  - hrsa/health-center-sites
  verified:
    'on': '2026-07-19'
    method: api
- id: ky/hyden/grace-sbhc-leslie-co-high-school
  name: Grace SBHC Leslie Co High School
  categories:
  - community-health-center
  address:
    street: 25 Eagle Ln
    city: Hyden
    state: ky
    zip: '41749'
  place: '2138908'
  geo:
    lat: 37.14578
    lng: -83.37975
  phone: 606-672-2337
  external_ids:
    bphc: BPS-H80-028278
  sources:
  - hrsa/health-center-sites
  verified:
    'on': '2026-07-19'
    method: api
- id: ky/hyden/kentucky-river-community-care-inc-drug-court-ser
  name: Kentucky River Community Care Inc Drug Court Services
  categories:
  - su-treatment
  - mh-treatment
  address:
    street: 28 Firehouse Lane
    city: Hyden
    state: ky
    zip: '41749'
  place: '2138908'
  geo:
    lat: 37.15482
    lng: -83.36849
  phone: 606-672-4215
  website: https://www.krccnet.com
  sources:
  - samhsa/findtreatment
  verified:
    'on': '2026-07-19'
    method: api
- id: ky/hyden/kentucky-river-community-care-inc-leslie-county
  name: Kentucky River Community Care Inc Leslie County Outpatient
  categories:
  - su-treatment
  - mh-treatment
  address:
    street: 28 Firehouse Lane
    city: Hyden
    state: ky
    zip: '41749'
  place: '2138908'
  geo:
    lat: 37.15487
    lng: -83.36827
  phone: 606-672-4215 x4000
  website: https://krccnet.com
  sources:
  - samhsa/findtreatment
  verified:
    'on': '2026-07-19'
    method: api
- id: ky/hyden/kentucky-river-community-care-inc-leslie-dui
  name: Kentucky River Community Care Inc Leslie DUI
  categories:
  - su-treatment
  address:
    street: 28 Fire House Lane
    city: Hyden
    state: ky
    zip: '41749'
  place: '2138908'
  geo:
    lat: 37.15482
    lng: -83.36849
  phone: 606-672-4215
  website: https://www.krccnet.com
  sources:
  - samhsa/findtreatment
  verified:
    'on': '2026-07-19'
    method: api
- id: ky/hyden/kentucky-river-community-care-inc-leslie-iop
  name: Kentucky River Community Care Inc Leslie IOP
  categories:
  - su-treatment
  - mh-treatment
  address:
    street: 31 Firehouse Lane
    city: Hyden
    state: ky
    zip: '41749'
  place: '2138908'
  geo:
    lat: 37.15462
    lng: -83.36698
  phone: 606-672-4215
  website: https://www.krccnet.com
  sources:
  - samhsa/findtreatment
  verified:
    'on': '2026-07-19'
    method: api
- id: ky/hyden/kentucky-river-community-care-inc-sap-leslie
  name: Kentucky River Community Care Inc SAP Leslie
  categories:
  - su-treatment
  address:
    street: 28 Firehouse Lane
    city: Hyden
    state: ky
    zip: '41749'
  place: '2138908'
  geo:
    lat: 37.15483
    lng: -83.36816
  phone: 606-672-4215
  website: https://www.krccnet.com
  sources:
  - samhsa/findtreatment
  verified:
    'on': '2026-07-19'
    method: api
- id: ky/hyden/kentucky-river-community-care-inc-us-courts-outp
  name: Kentucky River Community Care Inc US Courts Outpatient Services
  categories:
  - su-treatment
  - mh-treatment
  address:
    street: 28 Fire House Lane
    city: Hyden
    state: ky
    zip: '41749'
  place: '2138908'
  geo:
    lat: 37.15483
    lng: -83.36816
  phone: 606-672-4215
  website: https://www.krccnet.com
  sources:
  - samhsa/findtreatment
  verified:
    'on': '2026-07-19'
    method: api
- id: ky/hyden/leslie-early-start
  name: Leslie Early Start
  categories:
  - child-care
  address:
    street: 22728 Highway 421
    city: Hyden
    state: ky
    zip: '41749'
  place: '2138908'
  geo:
    lat: 37.15209
    lng: -83.39029
  phone: 606-672-3990
  sources:
  - acf/head-start-locations
  verified:
    'on': '2026-07-19'
    method: api
- id: ky/hyden/mountain-view-head-start
  name: Mountain View Head Start
  categories:
  - child-care
  address:
    street: 170 Bear Trail
    city: Hyden
    state: ky
    zip: '41749'
  place: '2138908'
  geo:
    lat: 37.16093
    lng: -83.37324
  phone: 606-672-3186
  sources:
  - acf/head-start-locations
  verified:
    'on': '2026-07-19'
    method: api
