- id: ky/liberty/adanta-group-casey-county-clinic
  name: Adanta Group Casey County Clinic
  categories:
  - su-treatment
  - mh-treatment
  address: {street: 322 Middleburg Street, city: Liberty, state: ky, zip: '42539'}
  place: '2146072'
  geo: {lat: 37.31704, lng: -84.93733}
  phone: 606-787-9472
  website: https://www.adanta.org
  services:
  - Outpatient
  - Young adults
  - Seniors or older adults
  - Veterans
  - Active duty military
  - Members of military families
  - Clients with co-occurring mental and substance use disorders
  - Clients with HIV or AIDS
  - Clients who have experienced trauma
  - Persons with traumatic brain injury (TBI)
  - Persons with eating disorders
  - Persons with post-traumatic stress disorder (PTSD)
  - Children/adolescents with serious emotional disturbance (SED)
  - Persons  18 and older with serious mental illness (SMI)
  eligibility: Serves children/adolescents, young adults, adults, seniors.
  cost: varies
  sources:
  - samhsa/findtreatment
  verified: {'on': '2026-07-19', method: api}
- id: ky/liberty/casey-co-community-action
  name: Casey Co. Community Action
  org: ky/feeding-america-kentucky-s-heartland
  categories:
  - food-pantry
  address: {street: 85 Beldon Avenue, city: Liberty, state: ky}
  place: '2146072'
  geo: {lat: 37.31832, lng: -84.93814}
  external_ids: {ky-feeding-america-kentucky-s-heartland: '514'}
  sources:
  - foodbank/ky-feeding-america-kentucky-s-heartland
  verified: {'on': '2026-07-21', method: api}
- id: ky/liberty/casey-county-food-pantry
  name: Casey County Food Pantry
  categories:
  - meal-program
  address: {street: 289 Wallace Wilkerson Blvd, city: Liberty, state: ky, zip: '42539'}
  description: Free summer meals for kids and teens (2026 season) — sponsored by Feeding America Kentucky's
    Heartland, Inc..
  place: '2146072'
  geo: {lat: 37.31231, lng: -84.93671}
  external_ids: {usda_master: Cycle 04_KY_SFSP_0065}
  sources:
  - usda/summer-meal-sites
  verified: {'on': '2026-07-19', method: api}
- id: ky/liberty/casey-county-food-pantry-inc
  name: Casey County Food Pantry, Inc
  org: ky/feeding-america-kentucky-s-heartland
  categories:
  - food-pantry
  address: {street: 289 S Wallace Wilkinson Blvd, city: Liberty, state: ky}
  place: '2146072'
  geo: {lat: 37.31219, lng: -84.93704}
  external_ids: {ky-feeding-america-kentucky-s-heartland: '614'}
  sources:
  - foodbank/ky-feeding-america-kentucky-s-heartland
  verified: {'on': '2026-07-21', method: api}
- id: ky/liberty/casey-county-food-pantry-inc-2
  name: Casey County Food Pantry, Inc
  org: ky/feeding-america-kentucky-s-heartland
  categories:
  - food-pantry
  address: {street: 289 Wallace Wilkinson Blvd, city: Liberty, state: ky}
  place: '2146072'
  geo: {lat: 37.31171, lng: -84.93655}
  external_ids: {ky-feeding-america-kentucky-s-heartland: '1696'}
  sources:
  - foodbank/ky-feeding-america-kentucky-s-heartland
  verified: {'on': '2026-07-21', method: api}
- id: ky/liberty/casey-county-high-healthy-kids-clinic
  name: Casey County High Healthy Kids Clinic
  categories:
  - community-health-center
  cost: sliding-scale
  address: {street: 1841 E KY 70, city: Liberty, state: ky, zip: '42539'}
  place: '2146072'
  geo: {lat: 37.32659, lng: -84.90543}
  phone: 606-787-8654
  external_ids: {bphc: BPS-H80-017114}
  sources:
  - hrsa/health-center-sites
  verified: {'on': '2026-07-19', method: api}
- id: ky/liberty/casey-county-high-school
  name: Casey County High School
  categories:
  - meal-program
  address: {street: 1841 East Ky Hwy 70, city: Liberty, state: ky, zip: '42539'}
  description: Free summer meals for kids and teens (2026 season) — sponsored by Casey County Board of
    Education.
  place: '2146072'
  geo: {lat: 37.32604, lng: -84.90495}
  external_ids: {usda_master: Cycle 03_KY_SFSP_0106}
  sources:
  - usda/summer-meal-sites
  verified: {'on': '2026-07-19', method: api}
- id: ky/liberty/casey-county-middle-healthy-kids-clinic
  name: Casey County Middle Healthy Kids Clinic
  categories:
  - community-health-center
  cost: sliding-scale
  address: {street: 1673 E KY 70, city: Liberty, state: ky, zip: '42539'}
  place: '2146072'
  geo: {lat: 37.32531, lng: -84.90731}
  phone: 606-787-6769
  external_ids: {bphc: BPS-H80-017050}
  sources:
  - hrsa/health-center-sites
  verified: {'on': '2026-07-19', method: api}
- id: ky/liberty/casey-county-senior-center-lcadd
  name: Casey County Senior Center – (LCADD)
  org: ky/feeding-america-kentucky-s-heartland
  categories:
  - food-pantry
  place: '2146072'
  geo: {lat: 37.31832, lng: -84.93814}
  external_ids: {ky-feeding-america-kentucky-s-heartland: '1235'}
  sources:
  - foodbank/ky-feeding-america-kentucky-s-heartland
  verified: {'on': '2026-07-21', method: api}
- id: ky/liberty/casey-early-head-start
  name: Casey Early Head Start
  categories:
  - child-care
  address: {street: 1673 E State Hwy 70, street2: Bldg. 306, city: Liberty, state: ky, zip: '42539'}
  description: Head Start early childhood program — 12 funded slots; operated by Lake Cumberland Community
    Action Agency, Inc.
  place: '2146072'
  geo: {lat: 37.32558, lng: -84.90731}
  phone: 606-787-1879
  sources:
  - acf/head-start-locations
  verified: {'on': '2026-07-19', method: api}
- id: ky/liberty/casey-family-medical-center
  name: Casey Family Medical Center
  categories:
  - community-health-center
  cost: sliding-scale
  address: {street: 428 Hustonville St, city: Liberty, state: ky, zip: '42539'}
  place: '2146072'
  geo: {lat: 37.3225, lng: -84.93445}
  phone: 270-858-6655
  external_ids: {bphc: BPS-H80-037814}
  sources:
  - hrsa/health-center-sites
  verified: {'on': '2026-07-19', method: api}
- id: ky/liberty/casey-liberty-head-start-center
  name: Casey - Liberty Head Start Center
  categories:
  - child-care
  address: {street: 630 Whipp Ave, city: Liberty, state: ky, zip: '42539'}
  description: Head Start early childhood program — 40 funded slots; operated by Lake Cumberland Community
    Action Agency, Inc.
  place: '2146072'
  geo: {lat: 37.32418, lng: -84.92865}
  phone: 606-787-9207
  sources:
  - acf/head-start-locations
  verified: {'on': '2026-07-19', method: api}
- id: ky/liberty/housing-authority-of-liberty
  name: Housing Authority Of Liberty
  categories:
  - housing-assistance
  address: {street: 75 Riverdale Dr, city: Liberty, state: ky, zip: '42539'}
  description: Public housing (Low-Rent) agency
  place: '2146072'
  geo: {lat: 37.32383, lng: -84.9271}
  phone: 606-787-7821
  sources:
  - hud/resource-locator
  verified: {'on': '2026-07-19', method: api}
- id: ky/liberty/jones-park-early-childhood-center
  name: Jones Park Early Childhood Center
  categories:
  - child-care
  address: {street: 6295 E KY 70, city: Liberty, state: ky, zip: '42539'}
  description: Head Start early childhood program — 8 funded slots; operated by Lake Cumberland Community
    Action Agency, Inc.
  place: '2146072'
  geo: {lat: 37.34982, lng: -84.84091}
  phone: 606-787-1249
  sources:
  - acf/head-start-locations
  verified: {'on': '2026-07-19', method: api}
- id: ky/liberty/jones-park-healthy-kids-clinic
  name: Jones Park Healthy Kids Clinic
  categories:
  - community-health-center
  cost: sliding-scale
  address: {street: 6295 E KY 70, city: Liberty, state: ky, zip: '42539'}
  place: '2146072'
  geo: {lat: 37.34977, lng: -84.84082}
  phone: 606-787-1217
  external_ids: {bphc: BPS-H80-017052}
  sources:
  - hrsa/health-center-sites
  verified: {'on': '2026-07-19', method: api}
- id: ky/liberty/lake-cumberland-community-action-agency
  name: Lake Cumberland Community Action Agency
  categories:
  - utility-assistance
  description: LIHEAP intake office serving Casey County
  address: {street: 85 Beldon Ave., city: Liberty, state: ky, zip: '42539'}
  place: '2146072'
  phone: 606-787-9209
  email: casey@lc-caa.org
  website: http://www.lc-caa.org/
  sources:
  - acf/liheap-clearinghouse
  verified: {'on': '2026-07-19', method: scrape}
  geo: {lat: 37.31852, lng: -84.93774}
- id: ky/liberty/liberty-healthy-kids-clinic
  name: Liberty Healthy Kids Clinic
  categories:
  - community-health-center
  cost: sliding-scale
  address: {street: 75 College St, city: Liberty, state: ky, zip: '42539'}
  place: '2146072'
  geo: {lat: 37.31701, lng: -84.93479}
  phone: 606-787-6961
  external_ids: {bphc: BPS-H80-017053}
  sources:
  - hrsa/health-center-sites
  verified: {'on': '2026-07-19', method: api}
- id: ky/liberty/walnut-hill-healthy-kids-clinic
  name: Walnut Hill Healthy Kids Clinic
  categories:
  - community-health-center
  cost: sliding-scale
  address: {street: 2834 S US 127, city: Liberty, state: ky, zip: '42539'}
  place: '2146072'
  geo: {lat: 37.28144, lng: -84.96023}
  phone: 606-787-0045
  external_ids: {bphc: BPS-H80-017115}
  sources:
  - hrsa/health-center-sites
  verified: {'on': '2026-07-19', method: api}
