- id: ky/marion/caldwell-springs-fire-dept
  name: Caldwell Springs Fire Dept
  categories:
  - meal-program
  address: {street: 100 Elementary Circle, city: Marion, state: ky, zip: '42064'}
  description: Free summer meals for kids and teens (2026 season) — sponsored by Crittenden County Board
    of Education.
  place: '2150034'
  geo: {lat: 37.21859, lng: -88.14376}
  external_ids: {usda_master: Cycle 02_KY_SFSP_0095}
  sources:
  - usda/summer-meal-sites
  verified: {'on': '2026-07-19', method: api}
- id: ky/marion/chapel-hill-head-start
  name: Chapel Hill Head Start
  categories:
  - child-care
  address: {street: 733 Chapel Hill Rd, city: Marion, state: ky, zip: '42064'}
  description: Head Start early childhood program — 51 funded slots; operated by AUDUBON AREA COMMUNITY
    SERVICES, INC.
  place: '2150034'
  geo: {lat: 37.31893, lng: -88.09128}
  phone: 270-686-1649
  sources:
  - acf/head-start-locations
  verified: {'on': '2026-07-19', method: api}
- id: ky/marion/crittenden-county-elementary-early-head-start
  name: Crittenden County Elementary Early Head Start
  categories:
  - child-care
  address: {street: 122 Autumn Ln, city: Marion, state: ky, zip: '42064'}
  description: Head Start early childhood program — 1 funded slots; operated by AUDUBON AREA COMMUNITY
    SERVICES, INC.
  place: '2150034'
  geo: {lat: 37.31714, lng: -88.09565}
  phone: 270-965-3966
  sources:
  - acf/head-start-locations
  verified: {'on': '2026-07-19', method: api}
- id: ky/marion/crittenden-county-elementary-school
  name: Crittenden County Elementary School
  categories:
  - meal-program
  address: {street: 120 Autumn Lane, city: Marion, state: ky, zip: '42064'}
  description: Free summer meals for kids and teens (2026 season) — sponsored by Crittenden County Board
    of Education.
  place: '2150034'
  geo: {lat: 37.31638, lng: -88.09653}
  external_ids: {usda_master: Cycle 02_KY_SFSP_0092}
  sources:
  - usda/summer-meal-sites
  verified: {'on': '2026-07-19', method: api}
- id: ky/marion/crittenden-county-middle-school
  name: Crittenden County Middle School
  categories:
  - meal-program
  address: {street: 519 1/2 West Gum Street, city: Marion, state: ky, zip: '42064'}
  description: Free summer meals for kids and teens (2026 season) — sponsored by Crittenden County Board
    of Education.
  place: '2150034'
  geo: {lat: 37.32956, lng: -88.09117}
  external_ids: {usda_master: Cycle 02_KY_SFSP_0094}
  sources:
  - usda/summer-meal-sites
  verified: {'on': '2026-07-19', method: api}
- id: ky/marion/mattoon-fire-dept
  name: Mattoon Fire Dept
  categories:
  - meal-program
  address: {street: 100 Sr 365, city: Marion, state: ky, zip: '42064'}
  description: Free summer meals for kids and teens (2026 season) — sponsored by Crittenden County Board
    of Education.
  place: '2150034'
  geo: {lat: 37.42584, lng: -88.0125}
  external_ids: {usda_master: Cycle 02_KY_SFSP_0096}
  sources:
  - usda/summer-meal-sites
  verified: {'on': '2026-07-19', method: api}
- id: ky/marion/pennyrile-allied-community-services
  name: Pennyrile Allied Community Services
  categories:
  - utility-assistance
  description: LIHEAP intake office serving Crittenden County
  address: {street: 402 N. Walker St., city: Marion, state: ky, zip: '42064'}
  place: '2150034'
  phone: 270-956-4763
  website: http://www.pacs-ky.org/
  sources:
  - acf/liheap-clearinghouse
  verified: {'on': '2026-07-19', method: scrape}
  geo: {lat: 37.33645, lng: -88.07794}
- id: ky/marion/shady-grove-volunteer-fire-dept
  name: Shady Grove Volunteer Fire Dept
  categories:
  - meal-program
  address: {street: 35 Shady Grove-Providence Rd, city: Marion, state: ky, zip: '42064'}
  description: Free summer meals for kids and teens (2026 season) — sponsored by Crittenden County Board
    of Education.
  place: '2150034'
  geo: {lat: 37.33949, lng: -87.87669}
  external_ids: {usda_master: Cycle 02_KY_SFSP_0093}
  sources:
  - usda/summer-meal-sites
  verified: {'on': '2026-07-19', method: api}
- id: ky/marion/tolu-fire-dept
  name: Tolu Fire Dept
  categories:
  - meal-program
  address: {street: 6367 Sr 135, city: Marion, state: ky, zip: '42064'}
  description: Free summer meals for kids and teens (2026 season) — sponsored by Crittenden County Board
    of Education.
  place: '2150034'
  geo: {lat: 37.43186, lng: -88.24432}
  external_ids: {usda_master: Cycle 02_KY_SFSP_0097}
  sources:
  - usda/summer-meal-sites
  verified: {'on': '2026-07-19', method: api}
