- id: ky/maysville/comprehend-inc-mason-county-ccbhc
  name: Comprehend Inc Mason County CCBHC
  categories:
  - su-treatment
  - mh-treatment
  address:
    street: 611 Forest Avenue
    city: Maysville
    state: ky
    zip: '41056'
  place: '2151024'
  geo:
    lat: 38.64242
    lng: -83.75108
  phone: 606-564-4016
  website: https://www.comprehendinc.org
  sources:
  - samhsa/findtreatment
  verified:
    'on': '2026-07-19'
    method: api
- id: ky/maysville/epic-behavior-health
  name: Epic Behavior Health
  categories:
  - su-treatment
  address:
    street: 906 U.S. Highway 68
    city: Maysville
    state: ky
    zip: '41056'
  place: '2151024'
  geo:
    lat: 38.64276
    lng: -83.77986
  phone: 606-584-7055
  website: https://www.nhcs-ky.com/
  sources:
  - samhsa/findtreatment
  verified:
    'on': '2026-07-19'
    method: api
- id: ky/maysville/housing-authority-of-maysville
  name: Housing Authority Of Maysville
  categories:
  - housing-assistance
  address: {street: 600 Clark St, city: Maysville, state: ky, zip: '41056'}
  description: Public housing and Housing Choice Voucher agency
  place: '2151024'
  geo: {lat: 38.63632, lng: -83.74093}
  phone: 606-564-4409
  sources:
  - hud/resource-locator
  verified: {'on': '2026-07-19', method: api}
- id: ky/maysville/mason-county-head-start
  name: Mason County Head Start
  categories:
  - child-care
  address:
    street: 627 Parker Rd
    city: Maysville
    state: ky
    zip: '41056'
  place: '2151024'
  geo:
    lat: 38.6371
    lng: -83.79372
  phone: 800-927-1833
  sources:
  - acf/head-start-locations
  verified:
    'on': '2026-07-19'
    method: api
- id: ky/maysville/maysville-medical-pinnacle-treatment
  name: Maysville Medical Pinnacle Treatment
  categories:
  - su-treatment
  address:
    street: 152 East 2nd Street
    city: Maysville
    state: ky
    zip: '41056'
  place: '2151024'
  geo:
    lat: 38.6458
    lng: -83.76086
  phone: 859-360-0250
  website: https://www.pinnacletreatment.com
  sources:
  - samhsa/findtreatment
  verified:
    'on': '2026-07-19'
    method: api
- id: ky/maysville/maysville-ob-gyn-family-hlth
  name: MAYSVILLE OB/GYN FAMILY HLTH
  categories:
  - community-health-center
  address:
    street: 927 Kenton Station Dr
    city: Maysville
    state: ky
    zip: '41056'
  place: '2151024'
  geo:
    lat: 38.63967
    lng: -83.80577
  phone: 606-759-5331
  external_ids:
    bphc: BPS-H80-005115
  sources:
  - hrsa/health-center-sites
  verified:
    'on': '2026-07-19'
    method: api
- id: ky/maysville/mountain-comprehensive-care-center-maysville-out
  name: Mountain Comprehensive Care Center Maysville Outpatient Clinic
  categories:
  - su-treatment
  - mh-treatment
  address:
    street: 224 Market Street
    city: Maysville
    state: ky
    zip: '41056'
  place: '2151024'
  geo:
    lat: 38.64704
    lng: -83.76471
  phone: 606-407-6100
  website: https://www.mtcomp.org
  sources:
  - samhsa/findtreatment
  verified:
    'on': '2026-07-19'
    method: api
- id: ky/maysville/primaryplus-annex
  name: PrimaryPlus Annex
  categories:
  - community-health-center
  address:
    street: 1350 Medical Park Dr
    city: Maysville
    state: ky
    zip: '41056'
  place: '2151024'
  geo:
    lat: 38.64112
    lng: -83.80749
  phone: 606-796-3029
  external_ids:
    bphc: BPS-H80-030528
  sources:
  - hrsa/health-center-sites
  verified:
    'on': '2026-07-19'
    method: api
- id: ky/maysville/primaryplus-denham-clinic
  name: PrimaryPlus - Denham Clinic
  categories:
  - community-health-center
  address:
    street: 525 Tucker Dr
    city: Maysville
    state: ky
    zip: '41056'
  place: '2151024'
  geo:
    lat: 38.6268
    lng: -83.79838
  phone: 606-796-3029
  external_ids:
    bphc: BPS-H80-032032
  sources:
  - hrsa/health-center-sites
  verified:
    'on': '2026-07-19'
    method: api
- id: ky/maysville/primaryplus-kidcare
  name: PrimaryPlus KidCare
  categories:
  - community-health-center
  address:
    street: 910 Kenton Station Dr
    city: Maysville
    state: ky
    zip: '41056'
  place: '2151024'
  geo:
    lat: 38.63865
    lng: -83.80558
  phone: 606-759-5331
  external_ids:
    bphc: BPS-H80-030142
  sources:
  - hrsa/health-center-sites
  verified:
    'on': '2026-07-19'
    method: api
- id: ky/maysville/primaryplus-medical-specialties-residency
  name: PrimaryPlus Medical Specialties & Residency
  categories:
  - community-health-center
  address:
    street: 1 W McDonald Pkwy
    city: Maysville
    state: ky
    zip: '41056'
  place: '2151024'
  geo:
    lat: 38.64853
    lng: -83.76439
  phone: 606-956-0136
  external_ids:
    bphc: BPS-H80-038811
  sources:
  - hrsa/health-center-sites
  verified:
    'on': '2026-07-19'
    method: api
- id: ky/maysville/primaryplus-mobile-unit-2
  name: PrimaryPlus Mobile Unit 2
  categories:
  - community-health-center
  address:
    street: 927 Kenton Station Dr
    city: Maysville
    state: ky
    zip: '41056'
  place: '2151024'
  geo:
    lat: 38.63967
    lng: -83.80577
  phone: 606-759-0433
  external_ids:
    bphc: BPS-H80-040357
  sources:
  - hrsa/health-center-sites
  verified:
    'on': '2026-07-19'
    method: api
- id: ky/maysville/primaryplus-pharmacy
  name: PrimaryPlus Pharmacy
  categories:
  - community-health-center
  address:
    street: 555 Tucker Dr
    city: Maysville
    state: ky
    zip: '41056'
  place: '2151024'
  geo:
    lat: 38.62738
    lng: -83.79948
  phone: 606-956-0160
  website: https://primaryplus.net/locations/maysville/
  external_ids:
    bphc: BPS-H80-040527
  sources:
  - hrsa/health-center-sites
  verified:
    'on': '2026-07-19'
    method: api
