- id: ky/morehead/family-healing-center-inc
  name: Family Healing Center Inc
  categories:
  - su-treatment
  - mh-treatment
  address:
    street: 746 West Main Street
    city: Morehead
    state: ky
    zip: '40351'
  place: '2153418'
  geo:
    lat: 38.17327
    lng: -83.43976
  phone: 606-548-1502
  website: https://
  sources:
  - samhsa/findtreatment
  verified:
    'on': '2026-07-19'
    method: api
- id: ky/morehead/housing-authority-of-morehead
  name: Housing Authority Of Morehead
  categories:
  - housing-assistance
  address:
    street: 200 Heritage Pl
    city: Morehead
    state: ky
    zip: '40351'
  description: Public housing (Low-Rent) agency
  place: '2153418'
  geo:
    lat: 38.17618
    lng: -83.44424
  phone: 606-784-4314
  sources:
  - hud/resource-locator
  verified:
    'on': '2026-07-19'
    method: api
- id: ky/morehead/lakeside-christian-academy
  name: Lakeside Christian Academy
  categories:
  - meal-program
  address:
    street: 2535 Us 60 West
    city: Morehead
    state: ky
    zip: '40351'
  description: Free summer meals for kids and teens (2026 season) — sponsored by Rowan County Board of
    Education.
  place: '2153418'
  geo:
    lat: 38.15679
    lng: -83.46305
  external_ids:
    usda_master: Cycle 02_KY_SFSP_0878
  sources:
  - usda/summer-meal-sites
  verified:
    'on': '2026-07-19'
    method: api
- id: ky/morehead/lakeside-christian-academy-2
  name: Lakeside Christian Academy
  categories:
  - meal-program
  address:
    street: 2535 Us Highway 60 W
    city: Morehead
    state: ky
    zip: '40351'
  description: Free summer meals for kids and teens (2026 season) — sponsored by Carter County Board of
    Education.
  place: '2153418'
  geo:
    lat: 38.15679
    lng: -83.46305
  external_ids:
    usda_master: Cycle 06_KY_SFSP_0871
  sources:
  - usda/summer-meal-sites
  verified:
    'on': '2026-07-19'
    method: api
- id: ky/morehead/morehead-gateway-helping-hands
  name: Morehead Gateway Helping Hands
  categories:
  - meal-program
  address:
    street: 204 Morehead Plaza
    city: Morehead
    state: ky
    zip: '40351'
  description: Free summer meals for kids and teens (2026 season) — sponsored by God's Pantry Food Bank
    Inc.
  place: '2153418'
  geo:
    lat: 38.17935
    lng: -83.43514
  external_ids:
    usda_master: Cycle 03_KY_SFSP_1290
  sources:
  - usda/summer-meal-sites
  verified:
    'on': '2026-07-19'
    method: api
- id: ky/morehead/morehead-va-clinic
  name: Morehead VA Clinic
  categories:
  - va-facility
  - health
  description: Multi-Specialty CBOC
  address: {street: 333 Beacon Hill Road, city: Morehead, state: ky, zip: '40351'}
  place: '2153418'
  geo: {lat: 38.18653, lng: -83.48047}
  phone: 606-784-3004
  website: https://www.va.gov/lexington-health-care/locations/morehead-va-clinic/
  hours:
  - {days: [mon, tue, wed, thu, fri], open: '08:00', close: '16:30'}
  services:
  - Audiology and speech
  - Dermatology
  - Gastroenterology
  - Mental health care
  - My HealtheVet coordinator
  - Pharmacy
  - Primary care
  external_ids: {va: vha_596GB}
  sources:
  - va/facilities-api
  verified: {'on': '2026-07-19', method: api}
- id: ky/morehead/mountain-comprehensive-care-3-5-revived-essence
  name: Mountain Comprehensive Care (3 5) Revived Essence Recovery
  categories:
  - su-treatment
  address:
    street: 3620 Flemingsburg Road
    city: Morehead
    state: ky
    zip: '40351'
  place: '2153418'
  geo:
    lat: 38.21468
    lng: -83.47857
  phone: 606-548-5552
  website: https://www.mtcomp.org
  sources:
  - samhsa/findtreatment
  verified:
    'on': '2026-07-19'
    method: api
- id: ky/morehead/mountain-comprehensive-care-center-revived-essen
  name: Mountain Comprehensive Care Center Revived Essence Recovery
  categories:
  - su-treatment
  - mh-treatment
  address:
    street: 3620 Flemingsburg Road
    city: Morehead
    state: ky
    zip: '40351'
  place: '2153418'
  geo:
    lat: 38.21468
    lng: -83.47857
  phone: 606-548-5552
  website: https://www.mtcomp.org
  sources:
  - samhsa/findtreatment
  verified:
    'on': '2026-07-19'
    method: api
- id: ky/morehead/mountain-comprehensive-care-center-revived-recov
  name: Mountain Comprehensive Care Center Revived Recovery
  categories:
  - su-treatment
  - mh-treatment
  address:
    street: 2710 East U.S. Highway 60
    city: Morehead
    state: ky
    zip: '40351'
  place: '2153418'
  geo:
    lat: 38.20897
    lng: -83.40171
  phone: 606-548-5850
  website: https://www.mtcomp.org
  sources:
  - samhsa/findtreatment
  verified:
    'on': '2026-07-19'
    method: api
- id: ky/morehead/mountain-comprehensive-care-center-revived-recov-2
  name: Mountain Comprehensive Care Center Revived Recovery IOP
  categories:
  - su-treatment
  - mh-treatment
  address:
    street: 505 Morgan Fork Road
    city: Morehead
    state: ky
    zip: '40351'
  place: '2153418'
  geo:
    lat: 38.15243
    lng: -83.4207
  phone: 606-548-5551
  website: https://www.mtcomp.org
  sources:
  - samhsa/findtreatment
  verified:
    'on': '2026-07-19'
    method: api
- id: ky/morehead/mountain-comprehensive-care-center-revived-recov-3
  name: Mountain Comprehensive Care Center Revived Recovery Transitional Care
  categories:
  - su-treatment
  - mh-treatment
  address:
    street: 1709 Highway 519
    city: Morehead
    state: ky
    zip: '40351'
  place: '2153418'
  geo:
    lat: 38.15208
    lng: -83.42037
  phone: 606-548-5551
  website: https://www.mtcomp.org
  sources:
  - samhsa/findtreatment
  verified:
    'on': '2026-07-19'
    method: api
- id: ky/morehead/mountain-comprehensive-care-center-revived-women
  name: Mountain Comprehensive Care Center Revived Womens IOP
  categories:
  - su-treatment
  - mh-treatment
  address:
    street: 3640 Flemingsburg Road
    city: Morehead
    state: ky
    zip: '40351'
  place: '2153418'
  geo:
    lat: 38.2152
    lng: -83.47905
  phone: 606-548-5552
  website: https://www.mtcomp.org
  sources:
  - samhsa/findtreatment
  verified:
    'on': '2026-07-19'
    method: api
- id: ky/morehead/pathways-inc-rowan-county-outpatient
  name: Pathways Inc Rowan County Outpatient
  categories:
  - su-treatment
  - mh-treatment
  address:
    street: 321 East Main Street
    city: Morehead
    state: ky
    zip: '40351'
  place: '2153418'
  geo:
    lat: 38.18588
    lng: -83.43226
  phone: 606-784-4161 x4074
  website: https://www.pathways-ky.org
  sources:
  - samhsa/findtreatment
  verified:
    'on': '2026-07-19'
    method: api
- id: ky/morehead/primaryplus-morehead
  name: PrimaryPlus - Morehead
  categories:
  - community-health-center
  address:
    street: 2300 KY Highway 801 N
    city: Morehead
    state: ky
    zip: '40351'
  place: '2153418'
  geo:
    lat: 38.17164
    lng: -83.55537
  phone: 606-548-5550
  website: https://primaryplus.net
  external_ids:
    bphc: BPS-H80-033894
  sources:
  - hrsa/health-center-sites
  verified:
    'on': '2026-07-19'
    method: api
- id: ky/morehead/rowan-county-early-head-start
  name: Rowan County Early Head Start
  categories:
  - child-care
  address:
    street: 289 Old Flemingsburg Rd
    city: Morehead
    state: ky
    zip: '40351'
  place: '2153418'
  geo:
    lat: 38.17874
    lng: -83.44313
  phone: 800-927-1833
  sources:
  - acf/head-start-locations
  verified:
    'on': '2026-07-19'
    method: api
- id: ky/morehead/rowan-county-head-start
  name: Rowan County Head Start
  categories:
  - child-care
  address:
    street: 551 Viking Dr
    city: Morehead
    state: ky
    zip: '40351'
  place: '2153418'
  geo:
    lat: 38.20635
    lng: -83.4786
  phone: 800-927-1833
  sources:
  - acf/head-start-locations
  verified:
    'on': '2026-07-19'
    method: api
- id: ky/morehead/rowan-county-preschool
  name: Rowan County Preschool
  categories:
  - meal-program
  address:
    street: 551 Viking Drive
    city: Morehead
    state: ky
    zip: '40351'
  description: Free summer meals for kids and teens (2026 season) — sponsored by Rowan County Board of
    Education.
  place: '2153418'
  geo:
    lat: 38.20545
    lng: -83.47799
  external_ids:
    usda_master: Cycle 02_KY_SFSP_0877
  sources:
  - usda/summer-meal-sites
  verified:
    'on': '2026-07-19'
    method: api
- id: ky/morehead/spero-health
  name: Spero Health
  categories:
  - su-treatment
  address:
    street: 505 Hecks Plaza Drive
    city: Morehead
    state: ky
    zip: '40351'
  place: '2153418'
  geo:
    lat: 38.19101
    lng: -83.47513
  phone: 606-462-1327
  website: https://www.sperohealth.com
  sources:
  - samhsa/findtreatment
  verified:
    'on': '2026-07-19'
    method: api
