- id: ky/morehead/family-healing-center-inc
  name: Family Healing Center Inc
  categories:
  - su-treatment
  - mh-treatment
  address:
    street: 746 West Main Street
    city: Morehead
    state: ky
    zip: '40351'
  place: '2153418'
  geo:
    lat: 38.17327
    lng: -83.43976
  phone: 606-548-1502
  website: https://
  sources:
  - samhsa/findtreatment
  verified:
    'on': '2026-07-19'
    method: api
- id: ky/morehead/housing-authority-of-morehead
  name: Housing Authority Of Morehead
  categories:
  - housing-assistance
  address: {street: 200 Heritage Pl, city: Morehead, state: ky, zip: '40351'}
  description: Public housing (Low-Rent) agency
  place: '2153418'
  geo: {lat: 38.17618, lng: -83.44424}
  phone: 606-784-4314
  sources:
  - hud/resource-locator
  verified: {'on': '2026-07-19', method: api}
- id: ky/morehead/mountain-comprehensive-care-3-5-revived-essence
  name: Mountain Comprehensive Care (3 5) Revived Essence Recovery
  categories:
  - su-treatment
  address:
    street: 3620 Flemingsburg Road
    city: Morehead
    state: ky
    zip: '40351'
  place: '2153418'
  geo:
    lat: 38.21468
    lng: -83.47857
  phone: 606-548-5552
  website: https://www.mtcomp.org
  sources:
  - samhsa/findtreatment
  verified:
    'on': '2026-07-19'
    method: api
- id: ky/morehead/mountain-comprehensive-care-center-revived-essen
  name: Mountain Comprehensive Care Center Revived Essence Recovery
  categories:
  - su-treatment
  - mh-treatment
  address:
    street: 3620 Flemingsburg Road
    city: Morehead
    state: ky
    zip: '40351'
  place: '2153418'
  geo:
    lat: 38.21468
    lng: -83.47857
  phone: 606-548-5552
  website: https://www.mtcomp.org
  sources:
  - samhsa/findtreatment
  verified:
    'on': '2026-07-19'
    method: api
- id: ky/morehead/mountain-comprehensive-care-center-revived-recov
  name: Mountain Comprehensive Care Center Revived Recovery
  categories:
  - su-treatment
  - mh-treatment
  address:
    street: 2710 East U.S. Highway 60
    city: Morehead
    state: ky
    zip: '40351'
  place: '2153418'
  geo:
    lat: 38.20897
    lng: -83.40171
  phone: 606-548-5850
  website: https://www.mtcomp.org
  sources:
  - samhsa/findtreatment
  verified:
    'on': '2026-07-19'
    method: api
- id: ky/morehead/mountain-comprehensive-care-center-revived-recov-2
  name: Mountain Comprehensive Care Center Revived Recovery IOP
  categories:
  - su-treatment
  - mh-treatment
  address:
    street: 505 Morgan Fork Road
    city: Morehead
    state: ky
    zip: '40351'
  place: '2153418'
  geo:
    lat: 38.15243
    lng: -83.4207
  phone: 606-548-5551
  website: https://www.mtcomp.org
  sources:
  - samhsa/findtreatment
  verified:
    'on': '2026-07-19'
    method: api
- id: ky/morehead/mountain-comprehensive-care-center-revived-recov-3
  name: Mountain Comprehensive Care Center Revived Recovery Transitional Care
  categories:
  - su-treatment
  - mh-treatment
  address:
    street: 1709 Highway 519
    city: Morehead
    state: ky
    zip: '40351'
  place: '2153418'
  geo:
    lat: 38.15208
    lng: -83.42037
  phone: 606-548-5551
  website: https://www.mtcomp.org
  sources:
  - samhsa/findtreatment
  verified:
    'on': '2026-07-19'
    method: api
- id: ky/morehead/mountain-comprehensive-care-center-revived-women
  name: Mountain Comprehensive Care Center Revived Womens IOP
  categories:
  - su-treatment
  - mh-treatment
  address:
    street: 3640 Flemingsburg Road
    city: Morehead
    state: ky
    zip: '40351'
  place: '2153418'
  geo:
    lat: 38.2152
    lng: -83.47905
  phone: 606-548-5552
  website: https://www.mtcomp.org
  sources:
  - samhsa/findtreatment
  verified:
    'on': '2026-07-19'
    method: api
- id: ky/morehead/pathways-inc-rowan-county-outpatient
  name: Pathways Inc Rowan County Outpatient
  categories:
  - su-treatment
  - mh-treatment
  address:
    street: 321 East Main Street
    city: Morehead
    state: ky
    zip: '40351'
  place: '2153418'
  geo:
    lat: 38.18588
    lng: -83.43226
  phone: 606-784-4161 x4074
  website: https://www.pathways-ky.org
  sources:
  - samhsa/findtreatment
  verified:
    'on': '2026-07-19'
    method: api
- id: ky/morehead/primaryplus-morehead
  name: PrimaryPlus - Morehead
  categories:
  - community-health-center
  address:
    street: 2300 KY Highway 801 N
    city: Morehead
    state: ky
    zip: '40351'
  place: '2153418'
  geo:
    lat: 38.17164
    lng: -83.55537
  phone: 606-548-5550
  website: https://primaryplus.net
  external_ids:
    bphc: BPS-H80-033894
  sources:
  - hrsa/health-center-sites
  verified:
    'on': '2026-07-19'
    method: api
- id: ky/morehead/rowan-county-early-head-start
  name: Rowan County Early Head Start
  categories:
  - child-care
  address:
    street: 289 Old Flemingsburg Rd
    city: Morehead
    state: ky
    zip: '40351'
  place: '2153418'
  geo:
    lat: 38.17874
    lng: -83.44313
  phone: 800-927-1833
  sources:
  - acf/head-start-locations
  verified:
    'on': '2026-07-19'
    method: api
- id: ky/morehead/rowan-county-head-start
  name: Rowan County Head Start
  categories:
  - child-care
  address:
    street: 551 Viking Dr
    city: Morehead
    state: ky
    zip: '40351'
  place: '2153418'
  geo:
    lat: 38.20635
    lng: -83.4786
  phone: 800-927-1833
  sources:
  - acf/head-start-locations
  verified:
    'on': '2026-07-19'
    method: api
- id: ky/morehead/spero-health
  name: Spero Health
  categories:
  - su-treatment
  address:
    street: 505 Hecks Plaza Drive
    city: Morehead
    state: ky
    zip: '40351'
  place: '2153418'
  geo:
    lat: 38.19101
    lng: -83.47513
  phone: 606-462-1327
  website: https://www.sperohealth.com
  sources:
  - samhsa/findtreatment
  verified:
    'on': '2026-07-19'
    method: api
