- id: ky/morgantown/butler-county-head-start
  name: Butler County Head Start
  categories:
  - child-care
  address:
    street: 210 Cemetery St
    city: Morgantown
    state: ky
    zip: '42261'
  place: '2153490'
  geo:
    lat: 37.23036
    lng: -86.68039
  phone: 270-526-3002
  sources:
  - acf/head-start-locations
  verified:
    'on': '2026-07-19'
    method: api
- id: ky/morgantown/housing-authority-of-morgantown
  name: Housing Authority Of Morgantown
  categories:
  - housing-assistance
  address: {street: 300 Kent Manor Dr, city: Morgantown, state: ky, zip: '42261'}
  description: Public housing (Low-Rent) agency
  place: '2153490'
  geo: {lat: 37.22933, lng: -86.69487}
  phone: 270-526-3873
  sources:
  - hud/resource-locator
  verified: {'on': '2026-07-19', method: api}
- id: ky/morgantown/kentucky-christian-recovery
  name: Kentucky Christian Recovery
  categories:
  - su-treatment
  address:
    street: 263 Huntsville Quality Road
    city: Morgantown
    state: ky
    zip: '42261'
  place: '2153490'
  geo:
    lat: 37.18066
    lng: -86.8766
  phone: 270-516-1601
  website: https://
  sources:
  - samhsa/findtreatment
  verified:
    'on': '2026-07-19'
    method: api
- id: ky/morgantown/lifeskills-inc-butler-county-service-center
  name: LifeSkills Inc Butler County Service Center
  categories:
  - su-treatment
  - mh-treatment
  address:
    street: 210 North Main Street
    city: Morgantown
    state: ky
    zip: '42261'
  place: '2153490'
  geo:
    lat: 37.22666
    lng: -86.68212
  phone: 270-526-3877
  website: https://www.lifeskills.com
  sources:
  - samhsa/findtreatment
  verified:
    'on': '2026-07-19'
    method: api
- id: ky/morgantown/north-butler-head-start
  name: North Butler Head Start
  categories:
  - child-care
  address:
    street: 5539 Brownsville Rd
    city: Morgantown
    state: ky
    zip: '42261'
  place: '2153490'
  geo:
    lat: 37.26366
    lng: -86.6018
  phone: 270-526-8936
  sources:
  - acf/head-start-locations
  verified:
    'on': '2026-07-19'
    method: api
