- id: ky/morganfield/housing-authority-of-morganfield
  name: Housing Authority Of Morganfield
  categories:
  - housing-assistance
  address:
    street: 703 Culver Ct
    city: Morganfield
    state: ky
    zip: '42437'
  description: Public housing (Low-Rent) agency
  place: '2153472'
  geo:
    lat: 37.6877
    lng: -87.92725
  phone: 270-631-0733
  sources:
  - hud/resource-locator
  verified:
    'on': '2026-07-19'
    method: api
- id: ky/morganfield/morganfield-elementary-school
  name: Morganfield Elementary School
  categories:
  - meal-program
  address: {street: 511 S Mart St, city: Morganfield, state: ky, zip: '42437'}
  description: Free summer meals for kids and teens (2026 season) — sponsored by Union County Board of
    Education.
  place: '2153472'
  geo: {lat: 37.6768, lng: -87.91716}
  external_ids: {usda_master: Cycle 02_KY_SFSP_0287}
  sources:
  - usda/summer-meal-sites
  verified: {'on': '2026-07-19', method: api}
- id: ky/morganfield/morganfield-park
  name: Morganfield Park
  categories:
  - meal-program
  address: {street: 201 Park Street, city: Morganfield, state: ky, zip: '42437'}
  description: Free summer meals for kids and teens (2026 season) — sponsored by Union County Board of
    Education.
  place: '2153472'
  geo: {lat: 37.67932, lng: -87.90911}
  external_ids: {usda_master: Cycle 02_KY_SFSP_0288}
  sources:
  - usda/summer-meal-sites
  verified: {'on': '2026-07-19', method: api}
- id: ky/morganfield/regional-health-care-affiliates-inc-dba-health-f
  name: Regional Health Care Affiliates, Inc. dba Health First Community Health Center- Union County
  categories:
  - community-health-center
  address:
    street: 220 N Morgan St
    city: Morganfield
    state: ky
    zip: '42437'
  place: '2153472'
  geo:
    lat: 37.68567
    lng: -87.91525
  phone: 270-285-1318
  website: http://healthfirstchc.net/
  external_ids:
    bphc: BPS-H80-029701
  sources:
  - hrsa/health-center-sites
  verified:
    'on': '2026-07-19'
    method: api
- id: ky/morganfield/rivervalley-behavioral-health-union-county-outpa
  name: RiverValley Behavioral Health Union County Outpatient Clinic
  categories:
  - su-treatment
  - mh-treatment
  address:
    street: 233 North Townsend Street
    city: Morganfield
    state: ky
    zip: '42437'
  place: '2153472'
  geo:
    lat: 37.68697
    lng: -87.91706
  phone: 270-389-3240
  website: https://www.rvbh.com
  sources:
  - samhsa/findtreatment
  verified:
    'on': '2026-07-19'
    method: api
- id: ky/morganfield/st-ann-catholic-church
  name: St Ann Catholic Church
  categories:
  - meal-program
  address: {street: 304 S. Church Street, city: Morganfield, state: ky, zip: '42437'}
  description: Free summer meals for kids and teens (2026 season) — sponsored by Diocese of Owensboro
    Division of School & Comm Nutrition.
  place: '2153472'
  geo: {lat: 37.68246, lng: -87.92125}
  external_ids: {usda_master: Cycle 11_KY_SFSP_0858}
  sources:
  - usda/summer-meal-sites
  verified: {'on': '2026-07-19', method: api}
- id: ky/morganfield/union-county-child-care-center
  name: Union County Child Care Center
  categories:
  - child-care
  address:
    street: 4464 US Highway 60 E
    city: Morganfield
    state: ky
    zip: '42437'
  place: '2153472'
  geo:
    lat: 37.62977
    lng: -87.94456
  phone: 270-389-9734
  sources:
  - acf/head-start-locations
  verified:
    'on': '2026-07-19'
    method: api
- id: ky/morganfield/union-county-child-development-center
  name: Union County Child Development Center
  categories:
  - child-care
  address:
    street: 515 S Mart St
    street2: Union Co. Child Development Center
    city: Morganfield
    state: ky
    zip: '42437'
  place: '2153472'
  geo:
    lat: 37.6769
    lng: -87.91707
  phone: 270-389-2802
  sources:
  - acf/head-start-locations
  verified:
    'on': '2026-07-19'
    method: api
- id: ky/morganfield/union-county-high-school
  name: Union County High School
  categories:
  - child-care
  address:
    street: 4464 US Highway 60 E
    city: Morganfield
    state: ky
    zip: '42437'
  place: '2153472'
  geo:
    lat: 37.62977
    lng: -87.94456
  phone: 270-389-1454
  sources:
  - acf/head-start-locations
  verified:
    'on': '2026-07-19'
    method: api
- id: ky/morganfield/union-county-high-school-2
  name: Union County High School
  categories:
  - meal-program
  address: {street: 4464 Us Hwy 60 W, city: Morganfield, state: ky, zip: '42437'}
  description: Free summer meals for kids and teens (2026 season) — sponsored by Union County Board of
    Education.
  place: '2153472'
  geo: {lat: 37.62901, lng: -87.94246}
  external_ids: {usda_master: Cycle 03_KY_SFSP_0338}
  sources:
  - usda/summer-meal-sites
  verified: {'on': '2026-07-19', method: api}
- id: ky/morganfield/whispering-meadows-fire-department
  name: Whispering Meadows Fire Department
  categories:
  - meal-program
  address: {street: 60 Rd. 6, city: Morganfield, state: ky, zip: '42437'}
  description: Free summer meals for kids and teens (2026 season) — sponsored by Union County Board of
    Education.
  place: '2153472'
  geo: {lat: 37.67099, lng: -87.86887}
  external_ids: {usda_master: Cycle 05_KY_SFSP_0663}
  sources:
  - usda/summer-meal-sites
  verified: {'on': '2026-07-19', method: api}
- id: ky/morganfield/ymca
  name: Ymca
  categories:
  - meal-program
  address: {street: 238 N. Brady Street, city: Morganfield, state: ky, zip: '42437'}
  description: Free summer meals for kids and teens (2026 season) — sponsored by Union County Board of
    Education.
  place: '2153472'
  geo: {lat: 37.68452, lng: -87.91255}
  external_ids: {usda_master: Cycle 03_KY_SFSP_0344}
  sources:
  - usda/summer-meal-sites
  verified: {'on': '2026-07-19', method: api}
