- id: ky/mount-sterling/addiction-recovery-care-arc-mount-sterling-outpa
  name: Addiction Recovery Care (ARC) Mount Sterling Outpatient Center
  categories:
  - su-treatment
  address:
    street: 260 Evans Drive
    city: Mount Sterling
    state: ky
    zip: '40353'
  place: '2154084'
  geo:
    lat: 38.07492
    lng: -83.95336
  phone: 606-638-0938
  website: https://www.arccenters.com
  sources:
  - samhsa/findtreatment
  verified:
    'on': '2026-07-19'
    method: api
- id: ky/mount-sterling/camargo-community-health-center
  name: Camargo Community Health Center
  categories:
  - community-health-center
  address:
    street: 4307 Camargo Rd
    city: Mount Sterling
    state: ky
    zip: '40353'
  place: '2154084'
  geo:
    lat: 37.99521
    lng: -83.88864
  phone: 859-404-7686
  external_ids:
    bphc: BPS-H80-018023
  sources:
  - hrsa/health-center-sites
  verified:
    'on': '2026-07-19'
    method: api
- id: ky/mount-sterling/camargo-head-start
  name: Camargo Head Start
  categories:
  - child-care
  address:
    street: 4307 Camargo Rd
    city: Mt Sterling
    state: ky
    zip: '40353'
  place: '2154084'
  geo:
    lat: 37.99945
    lng: -83.8973
  phone: 800-927-1833
  sources:
  - acf/head-start-locations
  verified:
    'on': '2026-07-19'
    method: api
- id: ky/mount-sterling/housing-authority-of-mount-sterling
  name: Housing Authority Of Mount Sterling
  categories:
  - housing-assistance
  address: {street: 335 Barnard Ave, city: Mount Sterling, state: ky, zip: '40353'}
  description: Public housing (Low-Rent) agency
  place: '2154084'
  geo: {lat: 38.0471, lng: -83.95502}
  phone: 859-498-5592
  sources:
  - hud/resource-locator
  verified: {'on': '2026-07-19', method: api}
- id: ky/mount-sterling/mapleton-community-health-center
  name: Mapleton Community Health Center
  categories:
  - community-health-center
  address:
    street: 809 Indian Mound Dr
    city: Mount Sterling
    state: ky
    zip: '40353'
  place: '2154084'
  geo:
    lat: 38.06163
    lng: -83.95841
  phone: 859-404-7686
  external_ids:
    bphc: BPS-H80-018025
  sources:
  - hrsa/health-center-sites
  verified:
    'on': '2026-07-19'
    method: api
- id: ky/mount-sterling/mcis-community-health-center
  name: MCIS Community Health Center
  categories:
  - community-health-center
  address:
    street: 1040 Maysville Rd
    city: Mount Sterling
    state: ky
    zip: '40353'
  place: '2154084'
  geo:
    lat: 38.08274
    lng: -83.95321
  phone: 859-404-7686
  external_ids:
    bphc: BPS-H80-018021
  sources:
  - hrsa/health-center-sites
  verified:
    'on': '2026-07-19'
    method: api
- id: ky/mount-sterling/mcnabb-community-health-center
  name: McNabb Community Health Center
  categories:
  - community-health-center
  address:
    street: 3570 Indian Mound Dr
    city: Mount Sterling
    state: ky
    zip: '40353'
  place: '2154084'
  geo:
    lat: 38.04205
    lng: -83.93974
  phone: 859-404-7686
  website: https://www.sterlinghealthky.org
  external_ids:
    bphc: BPS-H80-018007
  sources:
  - hrsa/health-center-sites
  verified:
    'on': '2026-07-19'
    method: api
- id: ky/mount-sterling/montgomery-county-community-health-center
  name: Montgomery County Community Health Center
  categories:
  - community-health-center
  address:
    street: 724 Woodford Dr
    city: Mt Sterling
    state: ky
    zip: '40353'
  place: '2154084'
  geo:
    lat: 38.04518
    lng: -83.94064
  phone: 859-404-7686
  external_ids:
    bphc: BPS-H80-018024
  sources:
  - hrsa/health-center-sites
  verified:
    'on': '2026-07-19'
    method: api
- id: ky/mount-sterling/montgomery-county-early-head-start
  name: Montgomery County Early Head Start
  categories:
  - child-care
  address:
    street: 118 Maloney Way
    street2: Ste 4
    city: Mt Sterling
    state: ky
    zip: '40353'
  place: '2154084'
  geo:
    lat: 38.04878
    lng: -83.94363
  phone: 800-927-1833
  sources:
  - acf/head-start-locations
  verified:
    'on': '2026-07-19'
    method: api
- id: ky/mount-sterling/montgomery-dental-center
  name: Montgomery Dental Center
  categories:
  - community-health-center
  address:
    street: 635 Maysville Rd
    city: Mount Sterling
    state: ky
    zip: '40353'
  place: '2154084'
  geo:
    lat: 38.07321
    lng: -83.94764
  phone: 859-498-2323
  external_ids:
    bphc: BPS-H80-019292
  sources:
  - hrsa/health-center-sites
  verified:
    'on': '2026-07-19'
    method: api
- id: ky/mount-sterling/mse-community-health-center
  name: MSE Community Health Center
  categories:
  - community-health-center
  address:
    street: 6601 Indian Mound Rd
    city: Mount Sterling
    state: ky
    zip: '40353'
  place: '2154084'
  geo:
    lat: 38.06102
    lng: -83.91292
  phone: 859-404-7686
  external_ids:
    bphc: BPS-H80-018022
  sources:
  - hrsa/health-center-sites
  verified:
    'on': '2026-07-19'
    method: api
- id: ky/mount-sterling/mt-sterling-head-start
  name: Mt. Sterling Head Start
  categories:
  - child-care
  address:
    street: 6601 Indian Mound Rd
    city: Mt Sterling
    state: ky
    zip: '40353'
  place: '2154084'
  geo:
    lat: 38.06075
    lng: -83.91297
  phone: 800-927-1833
  sources:
  - acf/head-start-locations
  verified:
    'on': '2026-07-19'
    method: api
- id: ky/mount-sterling/northview-head-start
  name: Northview Head Start
  categories:
  - child-care
  address:
    street: 1040 Maysville Rd
    city: Mt Sterling
    state: ky
    zip: '40353'
  place: '2154084'
  geo:
    lat: 38.08506
    lng: -83.95254
  phone: 800-927-1833
  sources:
  - acf/head-start-locations
  verified:
    'on': '2026-07-19'
    method: api
- id: ky/mount-sterling/pathways-inc-crisis-residential-and-recov-unit-w
  name: Pathways Inc Crisis Residential and Recov Unit West
  categories:
  - su-treatment
  - mh-treatment
  address:
    street: 209 Davis Road
    city: Mount Sterling
    state: ky
    zip: '40353'
  place: '2154084'
  geo:
    lat: 37.995
    lng: -83.92186
  phone: 606-329-8588 x4074
  website: https://www.pathways-ky.org
  sources:
  - samhsa/findtreatment
  verified:
    'on': '2026-07-19'
    method: api
- id: ky/mount-sterling/pathways-inc-montgomery-county-outpatient
  name: Pathways Inc Montgomery County Outpatient
  categories:
  - su-treatment
  - mh-treatment
  address:
    street: 529 North Maysville Street
    city: Mount Sterling
    state: ky
    zip: '40353'
  place: '2154084'
  geo:
    lat: 38.06974
    lng: -83.94617
  phone: 859-498-2135 x4074
  website: https://www.pathways-ky.org
  sources:
  - samhsa/findtreatment
  verified:
    'on': '2026-07-19'
    method: api
- id: ky/mount-sterling/shepherds-shelter-ross-rehab
  name: Shepherds Shelter/Ross Rehab
  categories:
  - su-treatment
  address:
    street: 236 Bridget Drive
    city: Mount Sterling
    state: ky
    zip: '40353'
  place: '2154084'
  geo:
    lat: 38.0524
    lng: -83.93071
  phone: 859-498-7111
  website: https://shepherdsshelter.com
  sources:
  - samhsa/findtreatment
  verified:
    'on': '2026-07-19'
    method: api
- id: ky/mount-sterling/sterling-health-care-administration
  name: Sterling Health Care - Administration
  categories:
  - community-health-center
  address:
    street: 236 W Main St
    city: Mt Sterling
    state: ky
    zip: '40353'
  place: '2154084'
  geo:
    lat: 38.05444
    lng: -83.94668
  phone: 859-404-7686
  external_ids:
    bphc: BPS-H80-027019
  sources:
  - hrsa/health-center-sites
  verified:
    'on': '2026-07-19'
    method: api
- id: ky/mount-sterling/sterling-health-care-indian-mound
  name: Sterling Health Care - Indian Mound
  categories:
  - community-health-center
  address:
    street: 103 Commonwealth Dr
    city: Mount Sterling
    state: ky
    zip: '40353'
  place: '2154084'
  geo:
    lat: 38.06705
    lng: -83.95686
  phone: 859-404-7686
  external_ids:
    bphc: BPS-H80-027691
  sources:
  - hrsa/health-center-sites
  verified:
    'on': '2026-07-19'
    method: api
- id: ky/mount-sterling/sterling-health-care-mobile-unit
  name: Sterling Health Care - Mobile Unit
  categories:
  - community-health-center
  address:
    street: 633 Maysville Rd
    city: Mount Sterling
    state: ky
    zip: '40353'
  place: '2154084'
  geo:
    lat: 38.07315
    lng: -83.94645
  phone: 859-404-7686
  external_ids:
    bphc: BPS-H80-039272
  sources:
  - hrsa/health-center-sites
  verified:
    'on': '2026-07-19'
    method: api
- id: ky/mount-sterling/sterling-health-care-mt-sterling
  name: Sterling Health Care - Mt. Sterling
  categories:
  - community-health-center
  address:
    street: 633 Maysville Rd
    city: Mount Sterling
    state: ky
    zip: '40353'
  place: '2154084'
  geo:
    lat: 38.07315
    lng: -83.94645
  phone: 859-404-7686
  external_ids:
    bphc: BPS-H80-036517
  sources:
  - hrsa/health-center-sites
  verified:
    'on': '2026-07-19'
    method: api
- id: ky/mount-sterling/sterling-women-s-care
  name: Sterling Women's Care
  categories:
  - community-health-center
  address:
    street: 635 Maysville Rd
    city: Mount Sterling
    state: ky
    zip: '40353'
  place: '2154084'
  geo:
    lat: 38.07321
    lng: -83.94764
  phone: 859-498-1215
  external_ids:
    bphc: BPS-H80-019386
  sources:
  - hrsa/health-center-sites
  verified:
    'on': '2026-07-19'
    method: api
