- id: ky/newport/brightdays-brighton-center
  name: BrightDays ( Brighton Center)
  categories:
  - child-care
  address:
    street: 706 Park Ave
    city: Newport
    state: ky
    zip: '41071'
  place: '2155884'
  geo:
    lat: 39.09299
    lng: -84.4868
  phone: 859-491-8303
  sources:
  - acf/head-start-locations
  verified:
    'on': '2026-07-19'
    method: api
- id: ky/newport/campbell-county-department-of-housing
  name: Campbell County Department Of Housing
  categories:
  - housing-assistance
  address:
    street: 1098 Monmouth St Ste 235
    city: Newport
    state: ky
    zip: '41071'
  description: Housing Choice Voucher (Section 8) agency
  place: '2155884'
  geo:
    lat: 39.08616
    lng: -84.48779
  phone: 859-261-5200
  sources:
  - hud/resource-locator
  verified:
    'on': '2026-07-19'
    method: api
- id: ky/newport/commonwealth-substance-abuse-services
  name: Commonwealth Substance Abuse Services
  categories:
  - su-treatment
  address:
    street: 4150 Alexandria Pike
    city: Newport
    state: ky
    zip: '41076'
  place: '2155884'
  geo:
    lat: 39.0201
    lng: -84.43854
  phone: 859-442-7700
  website: https://kyduiclasses.com
  sources:
  - samhsa/findtreatment
  verified:
    'on': '2026-07-19'
    method: api
- id: ky/newport/ehs-child-develpoment-center-newport-location-nk
  name: EHS Child Develpoment Center- Newport Location (NKCAC)
  categories:
  - child-care
  address:
    street: 437 W 9th St
    city: Newport
    state: ky
    zip: '41071'
  place: '2155884'
  geo:
    lat: 39.08402
    lng: -84.49856
  phone: 859-431-4177
  sources:
  - acf/head-start-locations
  verified:
    'on': '2026-07-19'
    method: api
- id: ky/newport/healthpoint-newport
  name: HealthPoint Newport
  categories:
  - community-health-center
  address:
    street: 215 E 11th St
    city: Newport
    state: ky
    zip: '41071'
  place: '2155884'
  geo:
    lat: 39.08696
    lng: -84.48653
  phone: 859-655-6100
  website: https://www.healthpointfc.org
  external_ids:
    bphc: BPS-H80-030936
  sources:
  - hrsa/health-center-sites
  verified:
    'on': '2026-07-19'
    method: api
- id: ky/newport/housing-authority-of-newport
  name: Housing Authority Of Newport
  categories:
  - housing-assistance
  address:
    street: 30 E 8th St
    city: Newport
    state: ky
    zip: '41071'
  description: Public housing and Housing Choice Voucher agency
  place: '2155884'
  geo:
    lat: 39.08904
    lng: -84.49181
  phone: 859-581-2533
  sources:
  - hud/resource-locator
  verified:
    'on': '2026-07-19'
    method: api
- id: ky/newport/newport-high-school
  name: Newport High School
  categories:
  - community-health-center
  address:
    street: 900 E 6th St
    city: Newport
    state: ky
    zip: '41071'
  place: '2155884'
  geo:
    lat: 39.09672
    lng: -84.48415
  phone: 859-655-6100
  external_ids:
    bphc: BPS-H80-040528
  sources:
  - hrsa/health-center-sites
  verified:
    'on': '2026-07-19'
    method: api
- id: ky/newport/newport-high-school-2
  name: Newport High School
  categories:
  - meal-program
  address:
    street: 900 East 6Th Street
    city: Newport
    state: ky
    zip: '41071'
  description: Free summer meals for kids and teens (2026 season) — sponsored by Newport Independent School
    District.
  place: '2155884'
  geo:
    lat: 39.0966
    lng: -84.48434
  external_ids:
    usda_master: Cycle 02_KY_SFSP_0087
  sources:
  - usda/summer-meal-sites
  verified:
    'on': '2026-07-19'
    method: api
- id: ky/newport/newport-innovation-intermediate-school
  name: Newport Innovation/Intermediate School
  categories:
  - community-health-center
  address:
    street: 30 W 8th St
    city: Newport
    state: ky
    zip: '41071'
  place: '2155884'
  geo:
    lat: 39.08779
    lng: -84.49363
  phone: 859-655-6100
  external_ids:
    bphc: BPS-H80-040530
  sources:
  - hrsa/health-center-sites
  verified:
    'on': '2026-07-19'
    method: api
- id: ky/newport/newport-intermediate-school
  name: Newport Intermediate School
  categories:
  - meal-program
  address:
    street: 95 West 9Th St.
    city: Newport
    state: ky
    zip: '41071'
  description: Free summer meals for kids and teens (2026 season) — sponsored by Newport Independent School
    District.
  place: '2155884'
  geo:
    lat: 39.08674
    lng: -84.49309
  external_ids:
    usda_master: Cycle 02_KY_SFSP_0085
  sources:
  - usda/summer-meal-sites
  verified:
    'on': '2026-07-19'
    method: api
- id: ky/newport/newport-primary-school
  name: Newport Primary School
  categories:
  - community-health-center
  address:
    street: 1102 York St
    city: Newport
    state: ky
    zip: '41071'
  place: '2155884'
  geo:
    lat: 39.08443
    lng: -84.48937
  phone: 859-655-6100
  external_ids:
    bphc: BPS-H80-040660
  sources:
  - hrsa/health-center-sites
  verified:
    'on': '2026-07-19'
    method: api
- id: ky/newport/newport-primary-school-2
  name: Newport Primary School
  categories:
  - meal-program
  address:
    street: 1102 York Street
    city: Newport
    state: ky
    zip: '41071'
  description: Free summer meals for kids and teens (2026 season) — sponsored by Newport Independent School
    District.
  place: '2155884'
  geo:
    lat: 39.08457
    lng: -84.48921
  external_ids:
    usda_master: Cycle 02_KY_SFSP_0086
  sources:
  - usda/summer-meal-sites
  verified:
    'on': '2026-07-19'
    method: api
- id: ky/newport/nkcac-newport-center
  name: NKCAC- Newport Center
  categories:
  - child-care
  address:
    street: 437 W 9th St
    city: Newport
    state: ky
    zip: '41071'
  place: '2155884'
  geo:
    lat: 39.08402
    lng: -84.49856
  phone: 859-431-4177
  sources:
  - acf/head-start-locations
  verified:
    'on': '2026-07-19'
    method: api
- id: ky/newport/northern-kentucky-community-action-commission
  name: Northern Kentucky Community Action Commission
  categories:
  - utility-assistance
  description: LIHEAP intake office serving Campbell County
  address: {street: 437 West Ninth Street, city: Newport, state: ky, zip: '41071'}
  place: '2155884'
  phone: 859-300-0439
  website: http://www.nkcac.org/
  sources:
  - acf/liheap-clearinghouse
  verified: {'on': '2026-07-19', method: scrape}
- id: ky/newport/northkey-community-care-wirtz-center
  name: NorthKey Community Care Wirtz Center
  categories:
  - su-treatment
  - mh-treatment
  address:
    street: 12 East 5th Street
    city: Newport
    state: ky
    zip: '41071'
  place: '2155884'
  geo:
    lat: 39.09167
    lng: -84.49514
  phone: 859-578-3200
  website: https://www.northkey.org
  sources:
  - samhsa/findtreatment
  verified:
    'on': '2026-07-19'
    method: api
- id: ky/newport/scholar-house
  name: Scholar House
  categories:
  - child-care
  address:
    street: 473 W 9th St
    city: Newport
    state: ky
    zip: '41071'
  place: '2155884'
  geo:
    lat: 39.08377
    lng: -84.49842
  phone: 859-431-4177
  sources:
  - acf/head-start-locations
  verified:
    'on': '2026-07-19'
    method: api
