- id: ky/parkway-village/beechmont-community-center
  name: Beechmont Community Center
  org: ky/dare-to-care-food-bank
  categories:
  - food-pantry
  place: '2159322'
  geo: {lat: 38.18398, lng: -85.76459}
  website: https://daretocare.org/location/beechmont-community-center/
  external_ids: {ky-dare-to-care-food-bank: '11456'}
  sources:
  - foodbank/ky-dare-to-care-food-bank
  verified: {'on': '2026-07-21', method: api}
- id: ky/parkway-village/father-jack-jones-food-pantry
  name: Father Jack Jones Food Pantry
  org: ky/dare-to-care-food-bank
  categories:
  - food-pantry
  place: '2159322'
  geo: {lat: 38.20689, lng: -85.76479}
  website: https://daretocare.org/location/father-jack-jones-food-pantry/
  external_ids: {ky-dare-to-care-food-bank: '1199'}
  sources:
  - foodbank/ky-dare-to-care-food-bank
  verified: {'on': '2026-07-21', method: api}
- id: ky/parkway-village/holy-name-mobile-pantry
  name: Holy Name Mobile Pantry
  org: ky/dare-to-care-food-bank
  categories:
  - food-pantry
  place: '2159322'
  geo: {lat: 38.20541, lng: -85.76542}
  website: https://daretocare.org/location/holy-name-mobile-pantry/
  external_ids: {ky-dare-to-care-food-bank: '1408'}
  sources:
  - foodbank/ky-dare-to-care-food-bank
  verified: {'on': '2026-07-21', method: api}
- id: ky/parkway-village/kids-cafe-americana
  name: Kids Café Americana
  org: ky/dare-to-care-food-bank
  categories:
  - food-pantry
  place: '2159322'
  geo: {lat: 38.17873, lng: -85.76424}
  website: https://daretocare.org/location/kids-cafe-americana/
  external_ids: {ky-dare-to-care-food-bank: '1385'}
  sources:
  - foodbank/ky-dare-to-care-food-bank
  verified: {'on': '2026-07-21', method: api}
- id: ky/parkway-village/kids-cafe-beechmont-community-center
  name: Kids Café Beechmont Community Center
  org: ky/dare-to-care-food-bank
  categories:
  - food-pantry
  place: '2159322'
  geo: {lat: 38.18399, lng: -85.76466}
  website: https://daretocare.org/location/kids-cafe-beechmont-community-center/
  external_ids: {ky-dare-to-care-food-bank: '1397'}
  sources:
  - foodbank/ky-dare-to-care-food-bank
  verified: {'on': '2026-07-21', method: api}
- id: ky/parkway-village/kids-cafe-south-louisville-community-center
  name: Kids Café South Louisville Community Center
  org: ky/dare-to-care-food-bank
  categories:
  - food-pantry
  place: '2159322'
  geo: {lat: 38.20784, lng: -85.77329}
  website: https://daretocare.org/location/kids-cafe-south-louisville-community-center/
  external_ids: {ky-dare-to-care-food-bank: '1398'}
  sources:
  - foodbank/ky-dare-to-care-food-bank
  verified: {'on': '2026-07-21', method: api}
- id: ky/parkway-village/muscl
  name: MUSCL
  org: ky/dare-to-care-food-bank
  categories:
  - food-pantry
  place: '2159322'
  geo: {lat: 38.20569, lng: -85.73746}
  website: https://daretocare.org/location/muscl/
  external_ids: {ky-dare-to-care-food-bank: '1238'}
  sources:
  - foodbank/ky-dare-to-care-food-bank
  verified: {'on': '2026-07-21', method: api}
- id: ky/parkway-village/south-louisville-community-ministries
  name: South Louisville Community Ministries
  org: ky/dare-to-care-food-bank
  categories:
  - food-pantry
  place: '2159322'
  geo: {lat: 38.18579, lng: -85.76838}
  website: https://daretocare.org/location/south-louisville-community-ministries/
  external_ids: {ky-dare-to-care-food-bank: '1360'}
  sources:
  - foodbank/ky-dare-to-care-food-bank
  verified: {'on': '2026-07-21', method: api}
