- id: ky/prestonsburg/addiction-recovery-care-arc-prestonsburg-outpati
  name: Addiction Recovery Care (ARC) Prestonsburg Outpatient
  categories:
  - su-treatment
  address:
    street: 207 West Court Street
    city: Prestonsburg
    state: ky
    zip: '41653'
  place: '2162940'
  geo:
    lat: 37.6674
    lng: -82.77425
  phone: 606-638-0938
  website: https://www.arccenters.com
  sources:
  - samhsa/findtreatment
  verified:
    'on': '2026-07-19'
    method: api
- id: ky/prestonsburg/appalred-legal-aid
  name: AppalReD Legal Aid
  categories:
  - food-pantry
  place: '2162940'
  geo:
    lat: 37.66816
    lng: -82.77601
  external_ids:
    lfp: '486'
  sources:
  - littlefreepantry/map
  verified:
    'on': '2026-07-19'
    method: scrape
- id: ky/prestonsburg/big-sandy-health-care-inc
  name: BIG SANDY HEALTH CARE, INC.
  categories:
  - community-health-center
  address:
    street: 1709 Ky Route 321
    city: Prestonsburg
    state: ky
    zip: '41653'
  place: '2162940'
  geo:
    lat: 37.69462
    lng: -82.77108
  phone: 606-886-8546
  website: https://www.bshc.org
  external_ids:
    bphc: BPS-H80-002323
  sources:
  - hrsa/health-center-sites
  verified:
    'on': '2026-07-19'
    method: api
- id: ky/prestonsburg/commonwealth-counseling-centers
  name: Commonwealth Counseling Centers
  categories:
  - su-treatment
  - mh-treatment
  address:
    street: 156 North Lake Drive
    city: Prestonsburg
    state: ky
    zip: '41653'
  place: '2162940'
  geo:
    lat: 37.66859
    lng: -82.77361
  phone: 606-506-5077
  website: https://cccentersky.com
  sources:
  - samhsa/findtreatment
  verified:
    'on': '2026-07-19'
    method: api
- id: ky/prestonsburg/drug-alcohol-recovery-treatment
  name: Drug Alcohol Recovery Treatment
  categories:
  - su-treatment
  - mh-treatment
  address:
    street: P.O. Box 92
    city: Prestonsburg
    state: ky
    zip: '41653'
  place: '2162940'
  geo:
    lat: 37.68986
    lng: -82.71313
  phone: 606-886-9989
  website: https://
  sources:
  - samhsa/findtreatment
  verified:
    'on': '2026-07-19'
    method: api
- id: ky/prestonsburg/east-kentucky-rehabilitation-center
  name: East Kentucky Rehabilitation Center
  categories:
  - su-treatment
  - mh-treatment
  address:
    street: 290 East Court Street
    city: Prestonsburg
    state: ky
    zip: '41653'
  place: '2162940'
  geo:
    lat: 37.66828
    lng: -82.77343
  phone: 606-263-4714
  website: https://
  sources:
  - samhsa/findtreatment
  verified:
    'on': '2026-07-19'
    method: api
- id: ky/prestonsburg/east-kentucky-rehabilitation-center-2
  name: East Kentucky Rehabilitation Center
  categories:
  - su-treatment
  - mh-treatment
  address:
    street: 921 South Lake Drive
    city: Prestonsburg
    state: ky
    zip: '41653'
  place: '2162940'
  geo:
    lat: 37.66592
    lng: -82.76369
  phone: 606-506-5040
  website: https://
  sources:
  - samhsa/findtreatment
  verified:
    'on': '2026-07-19'
    method: api
- id: ky/prestonsburg/highlands-regional-medical-center-behavioral-hea
  name: Highlands Regional Medical Center Behavioral Health
  categories:
  - su-treatment
  - mh-treatment
  address:
    street: 5000 KY Route 321
    city: Prestonsburg
    state: ky
    zip: '41653'
  place: '2162940'
  geo:
    lat: 37.72943
    lng: -82.76716
  phone: 606-889-6295
  website: https://arh.org
  sources:
  - samhsa/findtreatment
  verified:
    'on': '2026-07-19'
    method: api
- id: ky/prestonsburg/homeplace-clinic-prestonsburg
  name: HomePlace Clinic - Prestonsburg
  categories:
  - community-health-center
  address:
    street: 456 S Lake Dr
    city: Prestonsburg
    state: ky
    zip: '41653'
  place: '2162940'
  geo:
    lat: 37.66583
    lng: -82.7696
  phone: 606-886-4346
  website: https://www.mtcomp.org
  external_ids:
    bphc: BPS-H80-033788
  sources:
  - hrsa/health-center-sites
  verified:
    'on': '2026-07-19'
    method: api
- id: ky/prestonsburg/homeplace-clinic-prestonsburg-2
  name: HomePlace Clinic - Prestonsburg
  categories:
  - community-health-center
  address:
    street: 104 South Front Avenue
    city: Prestonsburg
    state: ky
    zip: '41653'
  place: '2162940'
  geo:
    lat: 37.66696
    lng: -82.77528
  phone: 606-886-4346
  website: https://www.mtcomp.org/homeplace
  external_ids:
    bphc: BPS-H80-014502
  sources:
  - hrsa/health-center-sites
  verified:
    'on': '2026-07-19'
    method: api
- id: ky/prestonsburg/homeplace-dental
  name: HomePlace Dental
  categories:
  - community-health-center
  address:
    street: 781 S Lake Dr
    city: Prestonsburg
    state: ky
    zip: '41653'
  place: '2162940'
  geo:
    lat: 37.66559
    lng: -82.76453
  phone: 606-886-2676
  website: https://www.mtcomp.org/homeplace
  external_ids:
    bphc: BPS-H80-039934
  sources:
  - hrsa/health-center-sites
  verified:
    'on': '2026-07-19'
    method: api
- id: ky/prestonsburg/homeplace-ob-gyn
  name: HomePlace OB/GYN
  categories:
  - community-health-center
  address:
    street: 22 Harbor Ln
    city: Prestonsburg
    state: ky
    zip: '41653'
  place: '2162940'
  geo:
    lat: 37.72808
    lng: -82.77226
  phone: 606-506-1610
  website: https://www.mtcomp.org/homeplace
  external_ids:
    bphc: BPS-H80-035776
  sources:
  - hrsa/health-center-sites
  verified:
    'on': '2026-07-19'
    method: api
- id: ky/prestonsburg/housing-authority-of-prestonsburg
  name: Housing Authority Of Prestonsburg
  categories:
  - housing-assistance
  address: {street: 12 Blaine Hall St, city: Prestonsburg, state: ky, zip: '41653'}
  description: Public housing and Housing Choice Voucher agency
  place: '2162940'
  geo: {lat: 37.68551, lng: -82.77743}
  phone: 606-886-2717
  sources:
  - hud/resource-locator
  verified: {'on': '2026-07-19', method: api}
- id: ky/prestonsburg/mountain-center-for-recovery-and-hope-rising-poi
  name: Mountain Center for Recovery and Hope Rising Point Mountain Comp Care Center
  categories:
  - su-treatment
  - mh-treatment
  address:
    street: 575 Sugar Camp Mountain Road
    city: Prestonsburg
    state: ky
    zip: '41653'
  place: '2162940'
  geo:
    lat: 37.70312
    lng: -82.74863
  phone: 606-886-1266 x4907
  website: https://www.mtcomp.org
  sources:
  - samhsa/findtreatment
  verified:
    'on': '2026-07-19'
    method: api
- id: ky/prestonsburg/mountain-comprehensive-care-center-floyd-county
  name: Mountain Comprehensive Care Center Floyd County OP Clinic
  categories:
  - su-treatment
  - mh-treatment
  address:
    street: 104 South Front Avenue
    city: Prestonsburg
    state: ky
    zip: '41653'
  place: '2162940'
  geo:
    lat: 37.66683
    lng: -82.77487
  phone: 606-886-4350
  website: https://mtcomp.org
  sources:
  - samhsa/findtreatment
  verified:
    'on': '2026-07-19'
    method: api
- id: ky/prestonsburg/prestonsburg-head-start
  name: Prestonsburg Head Start
  categories:
  - child-care
  address:
    street: 140 Clark Dr
    city: Prestonsburg
    state: ky
    zip: '41653'
  place: '2162940'
  geo:
    lat: 37.65427
    lng: -82.82309
  phone: 606-886-3891
  sources:
  - acf/head-start-locations
  verified:
    'on': '2026-07-19'
    method: api
- id: ky/prestonsburg/vanark-behavioral-mangement-inc
  name: VanArk Behavioral Mangement Inc
  categories:
  - su-treatment
  address:
    street: 193 East Court Street
    city: Prestonsburg
    state: ky
    zip: '41653'
  place: '2162940'
  geo:
    lat: 37.66848
    lng: -82.77241
  phone: 606-886-9989
  website: https://
  sources:
  - samhsa/findtreatment
  verified:
    'on': '2026-07-19'
    method: api
