- id: ky/south-park-view/antioch-church-of-louisville-new-heights
  name: Antioch Church Of Louisville (New Heights)
  org: ky/dare-to-care-food-bank
  categories:
  - food-pantry
  place: '2172138'
  geo: {lat: 38.14697, lng: -85.7706}
  website: https://daretocare.org/location/antioch-church-of-louisville-new-heights/
  external_ids: {ky-dare-to-care-food-bank: '1152'}
  sources:
  - foodbank/ky-dare-to-care-food-bank
  verified: {'on': '2026-07-20', method: api}
- id: ky/south-park-view/mp-meadow-hill-baptist
  name: MP Meadow Hill Baptist
  org: ky/dare-to-care-food-bank
  categories:
  - food-pantry
  place: '2172138'
  geo: {lat: 38.1409, lng: -85.69986}
  website: https://daretocare.org/location/mp-meadow-hill-baptist/
  external_ids: {ky-dare-to-care-food-bank: '1415'}
  sources:
  - foodbank/ky-dare-to-care-food-bank
  verified: {'on': '2026-07-20', method: api}
- id: ky/south-park-view/mp-yorktown-grace
  name: MP Yorktown Grace
  org: ky/dare-to-care-food-bank
  categories:
  - food-pantry
  place: '2172138'
  geo: {lat: 38.1416, lng: -85.75541}
  website: https://daretocare.org/location/mp-yorktown-grace/
  external_ids: {ky-dare-to-care-food-bank: '1416'}
  sources:
  - foodbank/ky-dare-to-care-food-bank
  verified: {'on': '2026-07-20', method: api}
- id: ky/south-park-view/wee-care-little-pantry
  name: Wee Care Little Pantry
  categories:
  - food-pantry
  place: '2172138'
  geo: {lat: 38.14627, lng: -85.77411}
  website: https://mapping.littlefreepantry.org/pantry/760
  external_ids: {lfp: '760'}
  sources:
  - littlefreepantry/map
  verified: {'on': '2026-07-19', method: scrape}
- id: ky/south-park-view/wilderness-road-senior-club
  name: Wilderness Road Senior Club
  org: ky/dare-to-care-food-bank
  categories:
  - food-pantry
  place: '2172138'
  geo: {lat: 38.13219, lng: -85.68647}
  website: https://daretocare.org/location/wilderness-road-senior-club/
  external_ids: {ky-dare-to-care-food-bank: '11549'}
  sources:
  - foodbank/ky-dare-to-care-food-bank
  verified: {'on': '2026-07-20', method: api}
