- id: ky/stanton/bowen-blessing-box
  name: Bowen Blessing Box
  categories:
  - food-pantry
  place: '2173164'
  geo:
    lat: 37.83735
    lng: -83.78133
  external_ids:
    lfp: '2793'
  sources:
  - littlefreepantry/map
  verified:
    'on': '2026-07-19'
    method: scrape
- id: ky/stanton/bowen-elementary-school-based-health
  name: Bowen Elementary School Based Health
  categories:
  - community-health-center
  address:
    street: 5099 Campton Rd
    city: Stanton
    state: ky
    zip: '40380'
  place: '2173164'
  geo:
    lat: 37.83175
    lng: -83.78416
  phone: 859-404-7686
  external_ids:
    bphc: BPS-H80-031101
  sources:
  - hrsa/health-center-sites
  verified:
    'on': '2026-07-19'
    method: api
- id: ky/stanton/mountain-comprehensive-care-center-powell-county
  name: Mountain Comprehensive Care Center Powell County IOP
  categories:
  - su-treatment
  address:
    street: 369 North Main Street
    city: Stanton
    state: ky
    zip: '40380'
  place: '2173164'
  geo:
    lat: 37.85093
    lng: -83.85755
  phone: 606-663-3336
  website: https://www.mtcomp.org
  sources:
  - samhsa/findtreatment
  verified:
    'on': '2026-07-19'
    method: api
- id: ky/stanton/new-vista-powell-county-outpatient-clinic
  name: New Vista Powell County Outpatient Clinic
  categories:
  - su-treatment
  - mh-treatment
  address:
    street: 438 Washington Street
    city: Stanton
    state: ky
    zip: '40380'
  place: '2173164'
  geo:
    lat: 37.85194
    lng: -83.85951
  phone: 606-663-2274
  website: https://www.newvista.org
  sources:
  - samhsa/findtreatment
  verified:
    'on': '2026-07-19'
    method: api
- id: ky/stanton/powell-county-academy-school-based-health
  name: Powell County Academy School Based Health
  categories:
  - community-health-center
  address:
    street: 691 Breckenridge St
    city: Stanton
    state: ky
    zip: '40380'
  place: '2173164'
  geo:
    lat: 37.85233
    lng: -83.8609
  phone: 859-585-2061
  external_ids:
    bphc: BPS-H80-038113
  sources:
  - hrsa/health-center-sites
  verified:
    'on': '2026-07-19'
    method: api
- id: ky/stanton/powell-county-high-school-based-health
  name: Powell County High School Based Health
  categories:
  - community-health-center
  address:
    street: 700 W College Ave
    city: Stanton
    state: ky
    zip: '40380'
  place: '2173164'
  geo:
    lat: 37.84742
    lng: -83.87302
  phone: 859-404-7686
  external_ids:
    bphc: BPS-H80-031097
  sources:
  - hrsa/health-center-sites
  verified:
    'on': '2026-07-19'
    method: api
- id: ky/stanton/powell-county-middle-school-based-health
  name: Powell County Middle School Based Health
  categories:
  - community-health-center
  address:
    street: 770 W College Ave
    city: Stanton
    state: ky
    zip: '40380'
  place: '2173164'
  geo:
    lat: 37.84649
    lng: -83.8736
  phone: 859-404-7686
  external_ids:
    bphc: BPS-H80-031096
  sources:
  - hrsa/health-center-sites
  verified:
    'on': '2026-07-19'
    method: api
- id: ky/stanton/stanton-blessing-box
  name: Stanton Blessing Box
  categories:
  - food-pantry
  place: '2173164'
  geo:
    lat: 37.85316
    lng: -83.85977
  external_ids:
    lfp: '2794'
  sources:
  - littlefreepantry/map
  verified:
    'on': '2026-07-19'
    method: scrape
- id: ky/stanton/stanton-elementary-2-school-based-health
  name: Stanton Elementary 2 School Based Health
  categories:
  - community-health-center
  address:
    street: 776 W College Ave
    city: Stanton
    state: ky
    zip: '40380'
  place: '2173164'
  geo:
    lat: 37.84503
    lng: -83.87546
  phone: 859-585-2061
  external_ids:
    bphc: BPS-H80-041055
  sources:
  - hrsa/health-center-sites
  verified:
    'on': '2026-07-19'
    method: api
- id: ky/stanton/stanton-elementary-school-based-health
  name: Stanton Elementary School Based Health
  categories:
  - community-health-center
  address:
    street: 651 Breckenridge St
    city: Stanton
    state: ky
    zip: '40380'
  place: '2173164'
  geo:
    lat: 37.85193
    lng: -83.86147
  phone: 859-404-7686
  external_ids:
    bphc: BPS-H80-031095
  sources:
  - hrsa/health-center-sites
  verified:
    'on': '2026-07-19'
    method: api
- id: ky/stanton/sterling-health-care-stanton
  name: Sterling Health Care - Stanton
  categories:
  - community-health-center
  address:
    street: 68 E Elkins St
    city: Stanton
    state: ky
    zip: '40380'
  place: '2173164'
  geo:
    lat: 37.84285
    lng: -83.85693
  phone: 606-663-2511
  external_ids:
    bphc: BPS-H80-031875
  sources:
  - hrsa/health-center-sites
  verified:
    'on': '2026-07-19'
    method: api
