- id: ky/stanton/bowen-blessing-box
  name: Bowen Blessing Box
  categories:
  - food-pantry
  place: '2173164'
  geo: {lat: 37.83735, lng: -83.78133}
  website: https://mapping.littlefreepantry.org/pantry/2793
  external_ids: {lfp: '2793'}
  sources:
  - littlefreepantry/map
  verified: {'on': '2026-07-19', method: scrape}
- id: ky/stanton/bowen-elementary
  name: Bowen Elementary
  categories:
  - meal-program
  address: {street: 5099 Campton Road, city: Stanton, state: ky, zip: '40380'}
  description: Free summer meals for kids and teens (2026 season) — sponsored by Powell County Board of
    Education.
  place: '2173164'
  geo: {lat: 37.83207, lng: -83.78504}
  external_ids: {usda_master: Cycle 04_KY_SFSP_1308}
  sources:
  - usda/summer-meal-sites
  verified: {'on': '2026-07-19', method: api}
- id: ky/stanton/bowen-elementary-school-based-health
  name: Bowen Elementary School Based Health
  categories:
  - community-health-center
  cost: sliding-scale
  address: {street: 5099 Campton Rd, city: Stanton, state: ky, zip: '40380'}
  place: '2173164'
  geo: {lat: 37.83175, lng: -83.78416}
  phone: 859-404-7686
  external_ids: {bphc: BPS-H80-031101}
  sources:
  - hrsa/health-center-sites
  verified: {'on': '2026-07-19', method: api}
- id: ky/stanton/bowen-first-church-of-god
  name: Bowen First Church Of God
  categories:
  - meal-program
  address: {street: 5555 Campton Road, city: Stanton, state: ky, zip: '40380'}
  description: Free summer meals for kids and teens (2026 season) — sponsored by Powell County Board of
    Education.
  place: '2173164'
  geo: {lat: 37.83732, lng: -83.78157}
  external_ids: {usda_master: Cycle 04_KY_SFSP_1306}
  sources:
  - usda/summer-meal-sites
  verified: {'on': '2026-07-19', method: api}
- id: ky/stanton/emanuel-baptist-church
  name: Emanuel Baptist Church
  categories:
  - meal-program
  address: {street: 755 West College Avenue, city: Stanton, state: ky, zip: '40380'}
  description: Free summer meals for kids and teens (2026 season) — sponsored by Powell County Board of
    Education.
  place: '2173164'
  geo: {lat: 37.84408, lng: -83.87339}
  external_ids: {usda_master: Cycle 07_KY_SFSP_1506}
  sources:
  - usda/summer-meal-sites
  verified: {'on': '2026-07-19', method: api}
- id: ky/stanton/mountain-comprehensive-care-center-powell-county
  name: Mountain Comprehensive Care Center Powell County IOP
  categories:
  - su-treatment
  address: {street: 369 North Main Street, city: Stanton, state: ky, zip: '40380'}
  place: '2173164'
  geo: {lat: 37.85093, lng: -83.85755}
  phone: 606-663-3336
  website: https://www.mtcomp.org
  services:
  - Outpatient
  - Intensive outpatient treatment
  - Regular outpatient treatment
  eligibility: Serves young adults, adults, seniors.
  cost: varies
  sources:
  - samhsa/findtreatment
  verified: {'on': '2026-07-19', method: api}
- id: ky/stanton/new-vista-powell-county-outpatient-clinic
  name: New Vista Powell County Outpatient Clinic
  categories:
  - su-treatment
  - mh-treatment
  address: {street: 438 Washington Street, city: Stanton, state: ky, zip: '40380'}
  place: '2173164'
  geo: {lat: 37.85194, lng: -83.85951}
  phone: 606-663-2274
  website: https://www.newvista.org
  services:
  - Outpatient
  - Regular outpatient treatment
  - Adolescents
  - Criminal justice (other than DUI/DWI)/Forensic clients
  - Clients who have experienced trauma
  eligibility: Serves children/adolescents, young adults, adults, seniors.
  cost: sliding-scale
  sources:
  - samhsa/findtreatment
  verified: {'on': '2026-07-19', method: api}
- id: ky/stanton/powell-county-academy-school-based-health
  name: Powell County Academy School Based Health
  categories:
  - community-health-center
  cost: sliding-scale
  address: {street: 691 Breckenridge St, city: Stanton, state: ky, zip: '40380'}
  place: '2173164'
  geo: {lat: 37.85233, lng: -83.8609}
  phone: 859-585-2061
  external_ids: {bphc: BPS-H80-038113}
  sources:
  - hrsa/health-center-sites
  verified: {'on': '2026-07-19', method: api}
- id: ky/stanton/powell-county-high-school
  name: Powell County High School
  categories:
  - meal-program
  address: {street: 700 West College Avenue, city: Stanton, state: ky, zip: '40380'}
  description: Free summer meals for kids and teens (2026 season) — sponsored by Powell County Board of
    Education.
  place: '2173164'
  geo: {lat: 37.84609, lng: -83.87193}
  external_ids: {usda_master: Cycle 02_KY_SFSP_0873}
  sources:
  - usda/summer-meal-sites
  verified: {'on': '2026-07-19', method: api}
- id: ky/stanton/powell-county-high-school-based-health
  name: Powell County High School Based Health
  categories:
  - community-health-center
  cost: sliding-scale
  address: {street: 700 W College Ave, city: Stanton, state: ky, zip: '40380'}
  place: '2173164'
  geo: {lat: 37.84742, lng: -83.87302}
  phone: 859-404-7686
  external_ids: {bphc: BPS-H80-031097}
  sources:
  - hrsa/health-center-sites
  verified: {'on': '2026-07-19', method: api}
- id: ky/stanton/powell-county-middle-school-based-health
  name: Powell County Middle School Based Health
  categories:
  - community-health-center
  cost: sliding-scale
  address: {street: 770 W College Ave, city: Stanton, state: ky, zip: '40380'}
  place: '2173164'
  geo: {lat: 37.84649, lng: -83.8736}
  phone: 859-404-7686
  external_ids: {bphc: BPS-H80-031096}
  sources:
  - hrsa/health-center-sites
  verified: {'on': '2026-07-19', method: api}
- id: ky/stanton/shiloh-community-church
  name: Shiloh Community Church
  categories:
  - meal-program
  address: {street: 2652 Campton Road, city: Stanton, state: ky, zip: '40380'}
  description: Free summer meals for kids and teens (2026 season) — sponsored by Powell County Board of
    Education.
  place: '2173164'
  geo: {lat: 37.84155, lng: -83.81285}
  external_ids: {usda_master: Cycle 07_KY_SFSP_1510}
  sources:
  - usda/summer-meal-sites
  verified: {'on': '2026-07-19', method: api}
- id: ky/stanton/stanton-blessing-box
  name: Stanton Blessing Box
  categories:
  - food-pantry
  place: '2173164'
  geo: {lat: 37.85316, lng: -83.85977}
  website: https://mapping.littlefreepantry.org/pantry/2794
  external_ids: {lfp: '2794'}
  sources:
  - littlefreepantry/map
  verified: {'on': '2026-07-19', method: scrape}
- id: ky/stanton/stanton-christian-church
  name: Stanton Christian Church
  categories:
  - meal-program
  address: {street: 100 West Church Street, city: Stanton, state: ky, zip: '40380'}
  description: Free summer meals for kids and teens (2026 season) — sponsored by Powell County Board of
    Education.
  place: '2173164'
  geo: {lat: 37.85449, lng: -83.85733}
  external_ids: {usda_master: Cycle 05_KY_SFSP_1534}
  sources:
  - usda/summer-meal-sites
  verified: {'on': '2026-07-19', method: api}
- id: ky/stanton/stanton-elementary-2-school-based-health
  name: Stanton Elementary 2 School Based Health
  categories:
  - community-health-center
  cost: sliding-scale
  address: {street: 776 W College Ave, city: Stanton, state: ky, zip: '40380'}
  place: '2173164'
  geo: {lat: 37.84503, lng: -83.87546}
  phone: 859-585-2061
  external_ids: {bphc: BPS-H80-041055}
  sources:
  - hrsa/health-center-sites
  verified: {'on': '2026-07-19', method: api}
- id: ky/stanton/stanton-elementary-school-based-health
  name: Stanton Elementary School Based Health
  categories:
  - community-health-center
  cost: sliding-scale
  address: {street: 651 Breckenridge St, city: Stanton, state: ky, zip: '40380'}
  place: '2173164'
  geo: {lat: 37.85193, lng: -83.86147}
  phone: 859-404-7686
  external_ids: {bphc: BPS-H80-031095}
  sources:
  - hrsa/health-center-sites
  verified: {'on': '2026-07-19', method: api}
- id: ky/stanton/stanton-first-church-of-god
  name: Stanton First Church Of God
  categories:
  - meal-program
  address: {street: 980 East College Avenue, city: Stanton, state: ky, zip: '40380'}
  description: Free summer meals for kids and teens (2026 season) — sponsored by Powell County Board of
    Education.
  place: '2173164'
  geo: {lat: 37.8438, lng: -83.84025}
  external_ids: {usda_master: Cycle 02_KY_SFSP_0875}
  sources:
  - usda/summer-meal-sites
  verified: {'on': '2026-07-19', method: api}
- id: ky/stanton/sterling-health-care-stanton
  name: Sterling Health Care - Stanton
  categories:
  - community-health-center
  cost: sliding-scale
  address: {street: 68 E Elkins St, city: Stanton, state: ky, zip: '40380'}
  place: '2173164'
  geo: {lat: 37.84285, lng: -83.85693}
  phone: 606-663-2511
  external_ids: {bphc: BPS-H80-031875}
  sources:
  - hrsa/health-center-sites
  verified: {'on': '2026-07-19', method: api}
- id: ky/stanton/the-baby-ranch
  name: The Baby Ranch
  categories:
  - meal-program
  address: {street: 797 North Bend Road, city: Stanton, state: ky, zip: '40380'}
  description: Free summer meals for kids and teens (2026 season) — sponsored by Powell County Board of
    Education.
  place: '2173164'
  geo: {lat: 37.86505, lng: -83.84274}
  external_ids: {usda_master: Cycle 04_KY_SFSP_1309}
  sources:
  - usda/summer-meal-sites
  verified: {'on': '2026-07-19', method: api}
