- id: ky/stanford/bluegrass-community-action-partnership
  name: Bluegrass Community Action Partnership
  categories:
  - utility-assistance
  description: LIHEAP intake office serving Lincoln County
  address: {street: 201 East Main Street, city: Stanford, state: ky, zip: '40484'}
  place: '2173110'
  phone: 606-365-2312
  website: http://www.bluegrasscommunityaction.org/
  sources:
  - acf/liheap-clearinghouse
  verified: {'on': '2026-07-19', method: scrape}
  geo: {lat: 37.52945, lng: -84.66023}
- id: ky/stanford/calvary-baptist-church
  name: Calvary Baptist Church
  categories:
  - meal-program
  address: {street: 100 John Street, city: Stanford, state: ky, zip: '40484'}
  description: Free summer meals for kids and teens (2026 season) — sponsored by Lincoln County Board
    of Education.
  place: '2173110'
  geo: {lat: 37.53383, lng: -84.64449}
  external_ids: {usda_master: Cycle 04_KY_SFSP_1119}
  sources:
  - usda/summer-meal-sites
  verified: {'on': '2026-07-19', method: api}
- id: ky/stanford/first-choice-lincoln
  name: First Choice Lincoln
  categories:
  - community-health-center
  cost: sliding-scale
  address: {street: 135 Owens Rd, city: Stanford, state: ky, zip: '40484'}
  place: '2173110'
  geo: {lat: 37.44631, lng: -84.74979}
  phone: 270-858-6655
  website: https://www.cumberlandfamilymedical.com
  external_ids: {bphc: BPS-H80-033433}
  sources:
  - hrsa/health-center-sites
  verified: {'on': '2026-07-19', method: api}
- id: ky/stanford/ft-logan-healthy-kids-clinic
  name: Ft. Logan Healthy Kids Clinic
  categories:
  - community-health-center
  cost: sliding-scale
  address: {street: 305 Danville Ave, city: Stanford, state: ky, zip: '40484'}
  place: '2173110'
  geo: {lat: 37.53216, lng: -84.6695}
  phone: 606-365-1333
  external_ids: {bphc: BPS-H80-019667}
  sources:
  - hrsa/health-center-sites
  verified: {'on': '2026-07-19', method: api}
- id: ky/stanford/grace-fellowship-lincoln
  name: Grace Fellowship LINCOLN
  org: ky/gods-pantry-food-bank-inc
  categories:
  - food-pantry
  address: {street: 2294 U.S. Hwy 27 South, city: Stanford, state: ky, zip: '40484'}
  place: '2173110'
  geo: {lat: 37.50019, lng: -84.64894}
  phone: 606-365-0502
  hours:
  - {days: [thu], open: '08:00', close: '09:30'}
  external_ids: {ky-gods-pantry-food-bank-inc: grace-fellowship-lincoln-gpfb-slug}
  sources:
  - foodbank/ky-gods-pantry-food-bank-inc
  verified: {'on': '2026-07-21', method: scrape}
- id: ky/stanford/lchd-little-food-pantry
  name: LCHD Little Food Pantry
  categories:
  - food-pantry
  place: '2173110'
  geo: {lat: 37.53467, lng: -84.65551}
  website: https://mapping.littlefreepantry.org/pantry/4508
  external_ids: {lfp: '4508'}
  sources:
  - littlefreepantry/map
  verified: {'on': '2026-07-19', method: scrape}
- id: ky/stanford/lincoln-county-high-healthy-kids-clinic
  name: Lincoln County High Healthy Kids Clinic
  categories:
  - community-health-center
  cost: sliding-scale
  address: {street: 60 Education Way, city: Stanford, state: ky, zip: '40484'}
  place: '2173110'
  geo: {lat: 37.51248, lng: -84.65531}
  phone: 606-365-9111
  external_ids: {bphc: BPS-H80-019704}
  sources:
  - hrsa/health-center-sites
  verified: {'on': '2026-07-19', method: api}
- id: ky/stanford/lincoln-county-high-school
  name: Lincoln County High School
  categories:
  - meal-program
  address: {street: 60 Education Way, city: Stanford, state: ky, zip: '40484'}
  description: Free summer meals for kids and teens (2026 season) — sponsored by Lincoln County Board
    of Education.
  place: '2173110'
  geo: {lat: 37.51173, lng: -84.65512}
  external_ids: {usda_master: Cycle 03_KY_SFSP_0951}
  sources:
  - usda/summer-meal-sites
  verified: {'on': '2026-07-19', method: api}
- id: ky/stanford/lincoln-county-middle-healthy-kids-clinic
  name: Lincoln County Middle Healthy Kids Clinic
  categories:
  - community-health-center
  cost: sliding-scale
  address: {street: 285 Education Way, city: Stanford, state: ky, zip: '40484'}
  place: '2173110'
  geo: {lat: 37.51294, lng: -84.65452}
  phone: 606-365-8600
  external_ids: {bphc: BPS-H80-019663}
  sources:
  - hrsa/health-center-sites
  verified: {'on': '2026-07-19', method: api}
- id: ky/stanford/lincoln-county-middle-school
  name: Lincoln County Middle School
  categories:
  - meal-program
  address: {street: 265 Education Way, city: Stanford, state: ky, zip: '40484'}
  description: Free summer meals for kids and teens (2026 season) — sponsored by Lincoln County Board
    of Education.
  place: '2173110'
  geo: {lat: 37.51246, lng: -84.65664}
  external_ids: {usda_master: Cycle 02_KY_SFSP_0782}
  sources:
  - usda/summer-meal-sites
  verified: {'on': '2026-07-19', method: api}
- id: ky/stanford/lincoln-county-senior-center-csfp
  name: Lincoln County Senior Center CSFP
  org: ky/gods-pantry-food-bank-inc
  categories:
  - food-pantry
  address: {street: 100 Senior Way, city: Stanford, state: ky, zip: '40484'}
  place: '2173110'
  geo: {lat: 37.55054, lng: -84.64015}
  phone: 606-365-9016
  external_ids: {ky-gods-pantry-food-bank-inc: lincoln-county-senior-center-csfp-gpfb-slug}
  sources:
  - foodbank/ky-gods-pantry-food-bank-inc
  verified: {'on': '2026-07-21', method: scrape}
- id: ky/stanford/new-vista-lincoln-county-outpatient-clinic
  name: New Vista Lincoln County Outpatient Clinic
  categories:
  - su-treatment
  - mh-treatment
  address: {street: 322 Frontier Boulevard, city: Stanford, state: ky, zip: '40484'}
  place: '2173110'
  geo: {lat: 37.54718, lng: -84.67754}
  phone: 606-365-2197
  website: https://www.newvista.org
  services:
  - Outpatient
  - Criminal justice (other than DUI/DWI)/Forensic clients
  - Persons experiencing first-episode psychosis
  - Children/adolescents with serious emotional disturbance (SED)
  - Persons  18 and older with serious mental illness (SMI)
  eligibility: Serves children/adolescents, young adults, adults, seniors.
  cost: sliding-scale
  sources:
  - samhsa/findtreatment
  verified: {'on': '2026-07-19', method: api}
- id: ky/stanford/stanford-baptist-church
  name: Stanford Baptist Church
  categories:
  - meal-program
  address: {street: 204 Church Street, city: Stanford, state: ky, zip: '40484'}
  description: Free summer meals for kids and teens (2026 season) — sponsored by Lincoln County Board
    of Education.
  place: '2173110'
  geo: {lat: 37.53038, lng: -84.65972}
  external_ids: {usda_master: Cycle 02_KY_SFSP_0780}
  sources:
  - usda/summer-meal-sites
  verified: {'on': '2026-07-19', method: api}
- id: ky/stanford/stanford-elementary-early-childhood-center
  name: Stanford Elementary - Early Childhood Center
  categories:
  - child-care
  address: {street: 903 Danville Ave, city: Stanford, state: ky, zip: '40484'}
  description: Head Start early childhood program — 80 funded slots; operated by Lincoln County Board
    Of Education.
  place: '2173110'
  geo: {lat: 37.54467, lng: -84.6723}
  phone: 606-365-9371
  sources:
  - acf/head-start-locations
  verified: {'on': '2026-07-19', method: api}
- id: ky/stanford/stanford-healthy-kids-clinic
  name: Stanford Healthy Kids Clinic
  categories:
  - community-health-center
  cost: sliding-scale
  address: {street: 101 Old Fort Rd, city: Stanford, state: ky, zip: '40484'}
  place: '2173110'
  geo: {lat: 37.54434, lng: -84.67254}
  phone: 606-365-2191
  external_ids: {bphc: BPS-H80-019705}
  sources:
  - hrsa/health-center-sites
  verified: {'on': '2026-07-19', method: api}
- id: ky/stanford/stanford-housing-authority
  name: Stanford Housing Authority
  categories:
  - housing-assistance
  address: {street: 100 Lacy St, city: Stanford, state: ky, zip: '40484'}
  description: Public housing (Low-Rent) agency
  place: '2173110'
  geo: {lat: 37.5318, lng: -84.6513}
  phone: 606-365-7874
  sources:
  - hud/resource-locator
  verified: {'on': '2026-07-19', method: api}
