- id: ky/warsaw/gallatin-co-middle-school
  name: Gallatin Co Middle School
  categories:
  - community-health-center
  address:
    street: 88 Pawprint Path
    city: Warsaw
    state: ky
    zip: '41095'
  place: '2180706'
  geo:
    lat: 38.78494
    lng: -84.89256
  phone: 859-567-5860
  external_ids:
    bphc: BPS-H80-013506
  sources:
  - hrsa/health-center-sites
  verified:
    'on': '2026-07-19'
    method: api
- id: ky/warsaw/gallatin-county-head-start-early-head-start
  name: Gallatin County Head Start / Early Head Start
  categories:
  - child-care
  address:
    street: 25 Boaz Dr
    city: Warsaw
    state: ky
    zip: '41095'
  place: '2180706'
  geo:
    lat: 38.78395
    lng: -84.89356
  phone: 859-567-2228
  sources:
  - acf/head-start-locations
  verified:
    'on': '2026-07-19'
    method: api
- id: ky/warsaw/gallatin-county-high-school
  name: Gallatin County High School
  categories:
  - community-health-center
  address:
    street: 70 Wildcat Cir
    city: Warsaw
    state: ky
    zip: '41095'
  place: '2180706'
  geo:
    lat: 38.78607
    lng: -84.88907
  phone: 859-567-1720
  external_ids:
    bphc: BPS-H80-027213
  sources:
  - hrsa/health-center-sites
  verified:
    'on': '2026-07-19'
    method: api
- id: ky/warsaw/gallatin-county-lower-elemetary
  name: Gallatin County Lower Elemetary
  categories:
  - community-health-center
  address:
    street: 25 Boaz Dr
    city: Warsaw
    state: ky
    zip: '41095'
  place: '2180706'
  geo:
    lat: 38.78346
    lng: -84.894
  phone: 859-567-1720
  external_ids:
    bphc: BPS-H80-027212
  sources:
  - hrsa/health-center-sites
  verified:
    'on': '2026-07-19'
    method: api
- id: ky/warsaw/gallatin-county-middle-school
  name: Gallatin County Middle School
  categories:
  - meal-program
  address:
    street: 88 Paw Print Path
    city: Warsaw
    state: ky
    zip: '41095'
  description: Free summer meals for kids and teens (2026 season) — sponsored by Gallatin County Board
    of Education.
  place: '2180706'
  geo:
    lat: 38.7857
    lng: -84.89088
  external_ids:
    usda_master: Cycle 02_KY_SFSP_0535
  sources:
  - usda/summer-meal-sites
  verified:
    'on': '2026-07-19'
    method: api
- id: ky/warsaw/gallatin-county-upper-elementary
  name: Gallatin County Upper Elementary
  categories:
  - community-health-center
  address:
    street: 50 Pawprint Path
    city: Warsaw
    state: ky
    zip: '41095'
  place: '2180706'
  geo:
    lat: 38.7843
    lng: -84.89245
  phone: 859-567-1720
  external_ids:
    bphc: BPS-H80-027211
  sources:
  - hrsa/health-center-sites
  verified:
    'on': '2026-07-19'
    method: api
- id: ky/warsaw/gallatin-scheduling-center
  name: Gallatin Scheduling Center
  categories:
  - community-health-center
  address:
    street: 107 E High St
    city: Warsaw
    state: ky
    zip: '41095'
  place: '2180706'
  geo:
    lat: 38.78484
    lng: -84.9016
  phone: 859-567-1720
  external_ids:
    bphc: BPS-H80-035465
  sources:
  - hrsa/health-center-sites
  verified:
    'on': '2026-07-19'
    method: api
- id: ky/warsaw/northern-kentucky-community-action-commission
  name: Northern Kentucky Community Action Commission
  categories:
  - utility-assistance
  description: LIHEAP intake office serving Gallatin County
  address: {street: '100 Davis Dr,', city: Warsaw, state: ky, zip: '41095'}
  place: '2180706'
  phone: 859-567-4660
  website: http://www.nkcac.org/
  sources:
  - acf/liheap-clearinghouse
  verified: {'on': '2026-07-19', method: scrape}
- id: ky/warsaw/northkey-community-care-gallatin-county-outpatie
  name: NorthKey Community Care Gallatin County Outpatient Office
  categories:
  - su-treatment
  - mh-treatment
  address:
    street: 203 West Main Street
    city: Warsaw
    state: ky
    zip: '41095'
  place: '2180706'
  geo:
    lat: 38.78297
    lng: -84.90322
  phone: 859-578-3200
  website: https://www.northkey.org
  sources:
  - samhsa/findtreatment
  verified:
    'on': '2026-07-19'
    method: api
- id: ky/warsaw/triad-health-systems-chc
  name: TRIAD HEALTH SYSTEMS CHC
  categories:
  - community-health-center
  address:
    street: 441 US Highway 42 W
    city: Warsaw
    state: ky
    zip: '41095'
  place: '2180706'
  geo:
    lat: 38.77516
    lng: -84.9188
  phone: 859-567-1271
  external_ids:
    bphc: BPS-H80-014372
  sources:
  - hrsa/health-center-sites
  verified:
    'on': '2026-07-19'
    method: api
