- id: ky/west-liberty/east-valley-head-start
  name: East Valley Head Start
  categories:
  - child-care
  address:
    street: 7585 Highway 172
    city: West Liberty
    state: ky
    zip: '41472'
  place: '2181858'
  geo:
    lat: 37.95195
    lng: -83.16206
  phone: 800-927-1833
  sources:
  - acf/head-start-locations
  verified:
    'on': '2026-07-19'
    method: api
- id: ky/west-liberty/juniper-health-administration-4
  name: 'Juniper Health Administration #4'
  categories:
  - community-health-center
  address:
    street: 1217 W Main St
    city: West Liberty
    state: ky
    zip: '41472'
  place: '2181858'
  geo:
    lat: 37.90233
    lng: -83.28033
  phone: 606-743-4808
  website: https://www.juniperhealth.org
  external_ids:
    bphc: BPS-H80-033382
  sources:
  - hrsa/health-center-sites
  verified:
    'on': '2026-07-19'
    method: api
- id: ky/west-liberty/juniper-health-morgan-county
  name: Juniper Health Morgan County
  categories:
  - community-health-center
  address:
    street: 1219 W Main St
    city: West Liberty
    state: ky
    zip: '41472'
  place: '2181858'
  geo:
    lat: 37.91345
    lng: -83.26406
  phone: 606-743-4808
  external_ids:
    bphc: BPS-H80-033487
  sources:
  - hrsa/health-center-sites
  verified:
    'on': '2026-07-19'
    method: api
- id: ky/west-liberty/juniper-health-morgan-county-2
  name: Juniper Health Morgan County
  categories:
  - community-health-center
  address:
    street: 905 Main St
    city: West Liberty
    state: ky
    zip: '41472'
  place: '2181858'
  geo:
    lat: 37.92693
    lng: -83.25793
  phone: 606-743-4808
  external_ids:
    bphc: BPS-H80-019437
  sources:
  - hrsa/health-center-sites
  verified:
    'on': '2026-07-19'
    method: api
- id: ky/west-liberty/juniper-health-morgan-county-dental
  name: Juniper Health Morgan County Dental
  categories:
  - community-health-center
  address:
    street: 672 Main St
    city: West Liberty
    state: ky
    zip: '41472'
  place: '2181858'
  geo:
    lat: 37.92321
    lng: -83.2591
  phone: 606-743-3030
  external_ids:
    bphc: BPS-H80-024793
  sources:
  - hrsa/health-center-sites
  verified:
    'on': '2026-07-19'
    method: api
- id: ky/west-liberty/morgan-central-head-start
  name: Morgan Central Head Start
  categories:
  - child-care
  address:
    street: 3201 Highway 460 W
    city: West Liberty
    state: ky
    zip: '41472'
  place: '2181858'
  geo:
    lat: 37.92064
    lng: -83.25075
  phone: 800-927-1833
  sources:
  - acf/head-start-locations
  verified:
    'on': '2026-07-19'
    method: api
- id: ky/west-liberty/morgan-county-early-head-start
  name: Morgan County Early Head Start
  categories:
  - child-care
  address:
    street: 450 Prestonsburg St
    city: West Liberty
    state: ky
    zip: '41472'
  place: '2181858'
  geo:
    lat: 37.92181
    lng: -83.25992
  phone: 800-927-1833
  sources:
  - acf/head-start-locations
  verified:
    'on': '2026-07-19'
    method: api
- id: ky/west-liberty/mountain-comprehensive-care-center-morgan-co-out
  name: Mountain Comprehensive Care Center Morgan Co Outpatient
  categories:
  - su-treatment
  - mh-treatment
  address:
    street: 7698 Liberty Road
    city: West Liberty
    state: ky
    zip: '41472'
  place: '2181858'
  geo:
    lat: 37.89749
    lng: -83.28595
  phone: 606-743-4184
  website: https://www.mtcomp.org
  sources:
  - samhsa/findtreatment
  verified:
    'on': '2026-07-19'
    method: api
- id: ky/west-liberty/pathways-inc-morgan-county-outpatient
  name: Pathways Inc Morgan County Outpatient
  categories:
  - su-treatment
  - mh-treatment
  address:
    street: 767 North Main Steet
    city: West Liberty
    state: ky
    zip: '41472'
  place: '2181858'
  geo:
    lat: 37.92485
    lng: -83.25898
  phone: 606-743-3139 x4074
  website: https://www.pathways-ky.org
  sources:
  - samhsa/findtreatment
  verified:
    'on': '2026-07-19'
    method: api
- id: ky/west-liberty/wrigley-head-start
  name: Wrigley Head Start
  categories:
  - child-care
  address:
    street: 7490 Highway 7
    city: West Liberty
    state: ky
    zip: '41472'
  place: '2181858'
  geo:
    lat: 38.01848
    lng: -83.27136
  phone: 800-927-1833
  sources:
  - acf/head-start-locations
  verified:
    'on': '2026-07-19'
    method: api
