- id: ky/williamsburg/boston
  name: Boston
  categories:
  - child-care
  address:
    street: 3291 Highway 1804
    city: Williamsburg
    state: ky
    zip: '40769'
  place: '2183334'
  geo:
    lat: 36.60467
    lng: -84.09395
  phone: 606-549-7872
  sources:
  - acf/head-start-locations
  verified:
    'on': '2026-07-19'
    method: api
- id: ky/williamsburg/boston-elementary-school
  name: Boston Elementary School
  categories:
  - meal-program
  address: {street: 3291 Hwy 1804, city: Williamsburg, state: ky, zip: '40769'}
  description: Free summer meals for kids and teens (2026 season) — sponsored by Whitley County Board
    of Education.
  place: '2183334'
  geo: {lat: 36.60511, lng: -84.09285}
  external_ids: {usda_master: Cycle 02_KY_SFSP_0943}
  sources:
  - usda/summer-meal-sites
  verified: {'on': '2026-07-19', method: api}
- id: ky/williamsburg/cumberland-mountain-behavioral
  name: Cumberland Mountain Behavioral
  categories:
  - su-treatment
  - mh-treatment
  address:
    street: 323 Main Street
    city: Williamsburg
    state: ky
    zip: '40769'
  place: '2183334'
  geo:
    lat: 36.74219
    lng: -84.16031
  phone: 606-825-6011
  website: https://
  sources:
  - samhsa/findtreatment
  verified:
    'on': '2026-07-19'
    method: api
- id: ky/williamsburg/cumberland-river-behavioral-health
  name: Cumberland River Behavioral Health
  categories:
  - su-treatment
  - mh-treatment
  address:
    street: 285 Cemetery Road
    city: Williamsburg
    state: ky
    zip: '40769'
  place: '2183334'
  geo:
    lat: 36.7504
    lng: -84.1639
  phone: 606-549-1440
  website: https://www.crbhky.org
  sources:
  - samhsa/findtreatment
  verified:
    'on': '2026-07-19'
    method: api
- id: ky/williamsburg/dayspring-health
  name: Dayspring Health
  categories:
  - su-treatment
  - mh-treatment
  address:
    street: 1047 South U.S. 25 West
    city: Williamsburg
    state: ky
    zip: '40769'
  place: '2183334'
  geo:
    lat: 36.74342
    lng: -84.15966
  phone: 606-549-2656
  website: https://www.dayspringhealth.org/
  sources:
  - samhsa/findtreatment
  verified:
    'on': '2026-07-19'
    method: api
- id: ky/williamsburg/dayspring-mobile-clinic-1
  name: Dayspring Mobile Clinic (1)
  categories:
  - community-health-center
  address:
    street: 1047 US-25W S
    city: Williamsburg
    state: ky
    zip: '40769'
  place: '2183334'
  geo:
    lat: 36.7315
    lng: -84.15581
  phone: 606-549-2656
  external_ids:
    bphc: BPS-H80-040570
  sources:
  - hrsa/health-center-sites
  verified:
    'on': '2026-07-19'
    method: api
- id: ky/williamsburg/dayspring-regional-health-center
  name: Dayspring Regional Health Center
  categories:
  - community-health-center
  address:
    street: 1047 US-25W S
    city: Williamsburg
    state: ky
    zip: '40769'
  place: '2183334'
  geo:
    lat: 36.7315
    lng: -84.15581
  phone: 423-492-8492
  external_ids:
    bphc: BPS-H80-035843
  sources:
  - hrsa/health-center-sites
  verified:
    'on': '2026-07-19'
    method: api
- id: ky/williamsburg/dayspring-williamsburg-independent-school
  name: Dayspring Williamsburg Independent School
  categories:
  - community-health-center
  address:
    street: 1000 Main St
    city: Williamsburg
    state: ky
    zip: '40769'
  place: '2183334'
  geo:
    lat: 36.7355
    lng: -84.16838
  phone: 606-549-6044
  external_ids:
    bphc: BPS-H80-024504
  sources:
  - hrsa/health-center-sites
  verified:
    'on': '2026-07-19'
    method: api
- id: ky/williamsburg/grace-health-uc-clinic
  name: Grace Health UC Clinic
  categories:
  - community-health-center
  address:
    street: 49 W Sycamore St
    city: Williamsburg
    state: ky
    zip: '40769'
  place: '2183334'
  geo:
    lat: 36.74021
    lng: -84.16346
  phone: 606-526-9005
  external_ids:
    bphc: BPS-H80-032616
  sources:
  - hrsa/health-center-sites
  verified:
    'on': '2026-07-19'
    method: api
- id: ky/williamsburg/horizon-health
  name: Horizon Health
  categories:
  - su-treatment
  - mh-treatment
  address:
    street: 114 North 2nd Street
    city: Williamsburg
    state: ky
    zip: '40769'
  place: '2183334'
  geo:
    lat: 36.74418
    lng: -84.16053
  phone: 606-657-2030
  website: https://www.horizonhealthky.org
  sources:
  - samhsa/findtreatment
  verified:
    'on': '2026-07-19'
    method: api
- id: ky/williamsburg/housing-authority-brush-arbor
  name: Housing Authority-Brush Arbor
  categories:
  - meal-program
  address: {street: 600 Brush Arbor Road, city: Williamsburg, state: ky, zip: '40769'}
  description: Free summer meals for kids and teens (2026 season) — sponsored by Williamsburg Independent
    School District.
  place: '2183334'
  geo: {lat: 36.73425, lng: -84.18162}
  external_ids: {usda_master: Cycle 02_KY_SFSP_0307}
  sources:
  - usda/summer-meal-sites
  verified: {'on': '2026-07-19', method: api}
- id: ky/williamsburg/housing-authority-of-williamsburg
  name: Housing Authority Of Williamsburg
  categories:
  - housing-assistance
  address:
    street: 600 Brush Arbor Rd
    city: Williamsburg
    state: ky
    zip: '40769'
  description: Public housing (Low-Rent) agency
  place: '2183334'
  geo:
    lat: 36.73511
    lng: -84.18197
  phone: 606-549-0282
  sources:
  - hud/resource-locator
  verified:
    'on': '2026-07-19'
    method: api
- id: ky/williamsburg/immanuel-baptist-church
  name: Immanuel Baptist Church
  categories:
  - meal-program
  address: {street: '965 S. Hwy 965 S Highway 25W, Unit 2', city: Williamsburg, state: ky, zip: '40769'}
  description: Free summer meals for kids and teens (2026 season) — sponsored by Whitley County Board
    of Education.
  place: '2183334'
  geo: {lat: 36.73058, lng: -84.15654}
  external_ids: {usda_master: Cycle 04_KY_SFSP_1402}
  sources:
  - usda/summer-meal-sites
  verified: {'on': '2026-07-19', method: api}
- id: ky/williamsburg/moore-street
  name: Moore Street
  categories:
  - meal-program
  address: {street: 895 Moore Lane, city: Williamsburg, state: ky, zip: '40769'}
  description: Free summer meals for kids and teens (2026 season) — sponsored by Williamsburg Independent
    School District.
  place: '2183334'
  geo: {lat: 36.75489, lng: -84.16109}
  external_ids: {usda_master: Cycle 02_KY_SFSP_0308}
  sources:
  - usda/summer-meal-sites
  verified: {'on': '2026-07-19', method: api}
- id: ky/williamsburg/moore-street-2
  name: Moore Street
  categories:
  - meal-program
  address: {street: Moore Avenue/ Community Garden Shelter, city: Williamsburg, state: ky, zip: '40769'}
  description: Free summer meals for kids and teens (2026 season) — sponsored by Williamsburg Independent
    School District.
  place: '2183334'
  geo: {lat: 36.73311, lng: -84.1547}
  external_ids: {usda_master: Cycle 05_KY_SFSP_0686}
  sources:
  - usda/summer-meal-sites
  verified: {'on': '2026-07-19', method: api}
- id: ky/williamsburg/pleasant-view
  name: Pleasant View
  categories:
  - child-care
  address:
    street: 5554 Highway 25W South
    city: Williamsburg
    state: ky
    zip: '40769'
  place: '2183334'
  geo:
    lat: 36.67449
    lng: -84.12783
  phone: 606-549-7085
  sources:
  - acf/head-start-locations
  verified:
    'on': '2026-07-19'
    method: api
- id: ky/williamsburg/pleasant-view-elementary-school
  name: Pleasant View Elementary School
  categories:
  - meal-program
  address: {street: 5554 Hwy 25W S, city: Williamsburg, state: ky, zip: '40769'}
  description: Free summer meals for kids and teens (2026 season) — sponsored by Whitley County Board
    of Education.
  place: '2183334'
  geo: {lat: 36.67581, lng: -84.12813}
  external_ids: {usda_master: Cycle 02_KY_SFSP_0945}
  sources:
  - usda/summer-meal-sites
  verified: {'on': '2026-07-19', method: api}
- id: ky/williamsburg/whitley-central
  name: Whitley Central
  categories:
  - child-care
  address:
    street: 520 Boulevard of Champions Rd
    city: Williamsburg
    state: ky
    zip: '40769'
  place: '2183334'
  geo:
    lat: 36.7765
    lng: -84.15518
  phone: 606-549-7060
  sources:
  - acf/head-start-locations
  verified:
    'on': '2026-07-19'
    method: api
- id: ky/williamsburg/whitley-central-intermediate-school
  name: Whitley Central Intermediate School
  categories:
  - meal-program
  address: {street: 2940 N. Us 25W, city: Williamsburg, state: ky, zip: '40769'}
  description: Free summer meals for kids and teens (2026 season) — sponsored by Whitley County Board
    of Education.
  place: '2183334'
  geo: {lat: 36.78163, lng: -84.16343}
  external_ids: {usda_master: Cycle 02_KY_SFSP_0939}
  sources:
  - usda/summer-meal-sites
  verified: {'on': '2026-07-19', method: api}
- id: ky/williamsburg/whitley-county-central-primary-school
  name: Whitley County Central Primary School
  categories:
  - meal-program
  address: {street: 520 Blvd Of Champions, city: Williamsburg, state: ky, zip: '40769'}
  description: Free summer meals for kids and teens (2026 season) — sponsored by Whitley County Board
    of Education.
  place: '2183334'
  geo: {lat: 36.77867, lng: -84.15509}
  external_ids: {usda_master: Cycle 02_KY_SFSP_0941}
  sources:
  - usda/summer-meal-sites
  verified: {'on': '2026-07-19', method: api}
- id: ky/williamsburg/whitley-county-east-elementary-school
  name: Whitley County East Elementary School
  categories:
  - meal-program
  address: {street: 13781 Hwy 92E, city: Williamsburg, state: ky, zip: '40769'}
  description: Free summer meals for kids and teens (2026 season) — sponsored by Whitley County Board
    of Education.
  place: '2183334'
  geo: {lat: 36.72457, lng: -83.97525}
  external_ids: {usda_master: Cycle 02_KY_SFSP_0946}
  sources:
  - usda/summer-meal-sites
  verified: {'on': '2026-07-19', method: api}
- id: ky/williamsburg/whitley-county-high-school
  name: Whitley County High School
  categories:
  - meal-program
  address: {street: 350 Blvd Of Champions, city: Williamsburg, state: ky, zip: '40769'}
  description: Free summer meals for kids and teens (2026 season) — sponsored by Whitley County Board
    of Education.
  place: '2183334'
  geo: {lat: 36.77864, lng: -84.15507}
  external_ids: {usda_master: Cycle 02_KY_SFSP_0940}
  sources:
  - usda/summer-meal-sites
  verified: {'on': '2026-07-19', method: api}
- id: ky/williamsburg/williamsburg-early-head-start
  name: Williamsburg Early Head Start
  categories:
  - child-care
  address:
    street: 535 N 11th St
    city: Williamsburg
    state: ky
    zip: '40769'
  place: '2183334'
  geo:
    lat: 36.73764
    lng: -84.17164
  phone: 606-549-0481
  sources:
  - acf/head-start-locations
  verified:
    'on': '2026-07-19'
    method: api
- id: ky/williamsburg/williamsburg-independent
  name: Williamsburg Independent
  categories:
  - meal-program
  address: {street: 1000 Main Street, city: Williamsburg, state: ky, zip: '40769'}
  description: Free summer meals for kids and teens (2026 season) — sponsored by Williamsburg Independent
    School District.
  place: '2183334'
  geo: {lat: 36.73547, lng: -84.16844}
  external_ids: {usda_master: Cycle 02_KY_SFSP_0306}
  sources:
  - usda/summer-meal-sites
  verified: {'on': '2026-07-19', method: api}
