- id: il/elgin/keep-coming-back
  name: Keep Coming Back
  program: na
  categories:
  - recovery-meeting
  schedule:
  - day: wed
    time: '19:15'
    duration_min: 75
  format: in-person
  types:
  - bt
  - rf
  - bk
  venue_name: The Eckert Center
  venue:
    street: 1845 Grandstand Place
    city: Elgin
    state: il
    zip: '60123'
  place: '1723074'
  geo:
    lat: 42.03361
    lng: -88.32283
  external_ids:
    bmlt: 44:2367
  sources:
  - bmlt/aggregator
  verified:
    'on': '2026-07-19'
    method: api
- id: il/elgin/new-beginnings
  name: New Beginnings
  program: na
  categories:
  - recovery-meeting
  schedule:
  - day: tue
    time: '19:30'
    duration_min: 90
  format: in-person
  types:
  - eng
  - sup
  venue:
    street: 675 Varsity Drive
    city: Elgin
    state: il
    zip: '60120'
  place: '1723074'
  geo:
    lat: 42.02458
    lng: -88.25076
  external_ids:
    bmlt: 44:2475
  sources:
  - bmlt/aggregator
  verified:
    'on': '2026-07-19'
    method: api
- id: il/elgin/new-beginnings-2
  name: New Beginnings
  program: na
  categories:
  - recovery-meeting
  schedule:
  - day: sat
    time: 09:00
    duration_min: 90
  format: in-person
  types:
  - eng
  - sup
  venue:
    street: 675 Varsity Drive
    city: Elgin
    state: il
    zip: '60120'
  place: '1723074'
  geo:
    lat: 42.02458
    lng: -88.25076
  external_ids:
    bmlt: 44:2474
  sources:
  - bmlt/aggregator
  verified:
    'on': '2026-07-19'
    method: api
- id: il/elgin/spiritual-awakening
  name: Spiritual Awakening
  program: na
  categories:
  - recovery-meeting
  schedule:
  - day: mon
    time: '19:30'
    duration_min: 90
  format: in-person
  types:
  - o
  - d
  venue:
    street: 73 S Riverside Dr
    city: Elgin
    state: il
    zip: '60120'
  place: '1723074'
  geo:
    lat: 42.03537
    lng: -88.28344
  external_ids:
    bmlt: 44:651
  sources:
  - bmlt/aggregator
  verified:
    'on': '2026-07-19'
    method: api
- id: il/elgin/surrender-to-win
  name: Surrender to Win
  program: na
  categories:
  - recovery-meeting
  schedule:
  - day: sun
    time: '12:00'
    duration_min: 90
  format: in-person
  types:
  - b
  venue_name: Footprints To Recovery
  venue:
    street: 411 W. River Road
    city: Elgin
    state: il
    zip: '60120'
  place: '1723074'
  geo:
    lat: 42.06525
    lng: -88.28728
  external_ids:
    bmlt: 44:1729
  sources:
  - bmlt/aggregator
  verified:
    'on': '2026-07-19'
    method: api
- id: il/elgin/we-do-recover
  name: We Do Recover
  program: na
  categories:
  - recovery-meeting
  schedule:
  - day: fri
    time: '19:30'
    duration_min: 90
  format: in-person
  venue:
    street: 411 W. River Road
    city: Elgin
    state: il
  place: '1723074'
  geo:
    lat: 42.0659
    lng: -88.28703
  external_ids:
    bmlt: 44:1836
  sources:
  - bmlt/aggregator
  verified:
    'on': '2026-07-19'
    method: api
