- id: ca/alameda/ahs-dental-clinic-coa
  name: AHS Dental Clinic @ CoA
  categories:
  - community-health-center
  address:
    street: 555 Ralph Appezzato Memorial Pkwy BLDG A218
    city: Alameda
    state: ca
    zip: '94501'
  place: '0600562'
  geo:
    lat: 37.78151
    lng: -122.27932
  phone: 510-986-6812
  website: https://www.asianhealthservices.org
  external_ids:
    bphc: BPS-H80-010006
  sources:
  - hrsa/health-center-sites
  verified:
    'on': '2026-07-19'
    method: api
- id: ca/alameda/angela-aguilar-ehs-hs-cspp
  name: ANGELA AGUILAR (EHS/HS-CSPP)
  categories:
  - child-care
  address:
    street: 1901 3rd St
    city: Alameda
    state: ca
    zip: '94501'
  place: '0600562'
  geo:
    lat: 37.77962
    lng: -122.2879
  phone: 510-629-6300
  sources:
  - acf/head-start-locations
  verified:
    'on': '2026-07-19'
    method: api
- id: ca/alameda/city-of-alameda-housing-authority
  name: City Of Alameda Housing Authority
  categories:
  - housing-assistance
  address: {street: 701 Atlantic Ave, city: Alameda, state: ca, zip: '94501'}
  description: Public housing and Housing Choice Voucher agency
  place: '0600562'
  geo: {lat: 37.77996, lng: -122.27562}
  phone: 510-747-4300
  sources:
  - hud/resource-locator
  verified: {'on': '2026-07-19', method: api}
- id: ca/alameda/college-of-alameda-ehs-hs-cspp
  name: COLLEGE OF ALAMEDA (EHS/HS-CSPP)
  categories:
  - child-care
  address:
    street: 555 Ralph Appezzato Memorial Pkwy
    city: Alameda
    state: ca
    zip: '94501'
  place: '0600562'
  geo:
    lat: 37.78072
    lng: -122.27918
  phone: 510-629-6350
  sources:
  - acf/head-start-locations
  verified:
    'on': '2026-07-19'
    method: api
- id: ca/alameda/la-clinica-de-la-raza-inc-information-technology
  name: La Clinica de La Raza, Inc. - Information Technology
  categories:
  - community-health-center
  address:
    street: 1600 Harbor Bay Pkwy STE 120
    city: Alameda
    state: ca
    zip: '94502'
  place: '0600562'
  geo:
    lat: 37.72514
    lng: -122.24051
  phone: 510-535-6271
  external_ids:
    bphc: BPS-H80-027012
  sources:
  - hrsa/health-center-sites
  verified:
    'on': '2026-07-19'
    method: api
- id: ca/alameda/rosalie-sterling-ehs
  name: ROSALIE STERLING (EHS)
  categories:
  - child-care
  address:
    street: 1700 Santa Clara Ave
    city: Alameda
    state: ca
    zip: '94501'
  place: '0600562'
  geo:
    lat: 37.77111
    lng: -122.25604
  phone: 510-629-6350
  sources:
  - acf/head-start-locations
  verified:
    'on': '2026-07-19'
    method: api
- id: ca/alameda/ruby-bridges-elementary-school-hs-t-k
  name: RUBY BRIDGES ELEMENTARY SCHOOL (HS/T-K)
  categories:
  - child-care
  address:
    street: 351 Jack London Ave
    city: Alameda
    state: ca
    zip: '94501'
  place: '0600562'
  geo:
    lat: 37.7823
    lng: -122.28534
  phone: 510-629-7138
  sources:
  - acf/head-start-locations
  verified:
    'on': '2026-07-19'
    method: api
- id: ca/alameda/sue-matheson-ehs-cctr-hs-cspp
  name: SUE MATHESON (EHS-CCTR/HS-CSPP)
  categories:
  - child-care
  address:
    street: 670 West Midway
    city: Alameda
    state: ca
    zip: '94501'
  place: '0600562'
  geo:
    lat: 37.78571
    lng: -122.30085
  phone: 510-521-3443
  sources:
  - acf/head-start-locations
  verified:
    'on': '2026-07-19'
    method: api
