- id: ca/arleta/arleta-high
  name: Arleta High
  categories:
  - meal-program
  address: {street: 14200 Van Nuys Blvd., city: Arleta, state: ca, zip: '91331'}
  description: Free summer meals for kids and teens (2026 season) — sponsored by LOS ANGELES UNIFIED SCHOOL
    DISTRICT.
  geo: {lat: 34.25098, lng: -118.44277}
  phone: (213) 241-2993
  external_ids: {usda_master: Cycle 06_CA_SSO_0130}
  sources:
  - usda/summer-meal-sites
  verified: {'on': '2026-07-19', method: api}
- id: ca/arleta/beachy-avenue-elementary
  name: Beachy Avenue Elementary
  categories:
  - meal-program
  address: {street: 9757 Beachy Ave., city: Arleta, state: ca, zip: '91331'}
  description: Free summer meals for kids and teens (2026 season) — sponsored by LOS ANGELES UNIFIED SCHOOL
    DISTRICT.
  geo: {lat: 34.2479, lng: -118.43809}
  phone: (213) 241-2993
  external_ids: {usda_master: Cycle 06_CA_SSO_1741}
  sources:
  - usda/summer-meal-sites
  verified: {'on': '2026-07-19', method: api}
- id: ca/arleta/branford-recreation-center
  name: Branford Recreation Center
  categories:
  - meal-program
  address: {street: 13310 Branford Street, city: Arleta, state: ca, zip: '91331'}
  description: Free summer meals for kids and teens (2026 season) — sponsored by LOS ANGELES, CITY OF
    DEPT OF REC & PARKS.
  geo: {lat: 34.23283, lng: -118.42365}
  phone: (818) 893-4923
  external_ids: {usda_master: Cycle 07_CA_SFSP_0457}
  sources:
  - usda/summer-meal-sites
  verified: {'on': '2026-07-19', method: api}
- id: ca/arleta/ccrc-osborne-head-start
  name: CCRC - Osborne Head Start
  categories:
  - child-care
  address:
    street: 13821 Osborne St
    city: Arleta
    state: ca
    zip: '91331'
  geo:
    lat: 34.2364
    lng: -118.4347
  phone: 818-830-1369
  sources:
  - acf/head-start-locations
  verified:
    'on': '2026-07-19'
    method: api
- id: ca/arleta/comprehensive-community-health-center-arleta
  name: Comprehensive Community Health Center - Arleta
  categories:
  - community-health-center
  cost: sliding-scale
  address:
    street: 9043 Woodman Ave
    city: Arleta
    state: ca
    zip: '91331'
  geo:
    lat: 34.23395
    lng: -118.43972
  phone: 818-221-3096
  external_ids:
    bphc: BPS-H80-036550
  sources:
  - hrsa/health-center-sites
  verified:
    'on': '2026-07-19'
    method: api
- id: ca/arleta/el-proyecto-dental-center
  name: El Proyecto Dental Center
  categories:
  - community-health-center
  cost: sliding-scale
  address:
    street: 8932 Woodman Ave
    city: Arleta
    state: ca
    zip: '91331'
  geo:
    lat: 34.23211
    lng: -118.4378
  phone: 818-810-3500
  external_ids:
    bphc: BPS-H80-027264
  sources:
  - hrsa/health-center-sites
  verified:
    'on': '2026-07-19'
    method: api
- id: ca/arleta/sharp-avenue-elementary
  name: Sharp Avenue Elementary
  categories:
  - meal-program
  address: {street: 13800 Pierce St., city: Arleta, state: ca, zip: '91331'}
  description: Free summer meals for kids and teens (2026 season) — sponsored by LOS ANGELES UNIFIED SCHOOL
    DISTRICT.
  geo: {lat: 34.25274, lng: -118.43311}
  phone: (213) 241-2993
  external_ids: {usda_master: Cycle 11_CA_SSO_2655}
  sources:
  - usda/summer-meal-sites
  verified: {'on': '2026-07-19', method: api}
- id: ca/arleta/so-cal-community-health-center
  name: SO-CAL COMMUNITY HEALTH CENTER
  categories:
  - community-health-center
  cost: sliding-scale
  address:
    street: 9700 Woodman Ave, Suite A10
    city: Arleta
    state: ca
    zip: '91331'
  geo:
    lat: 34.24593
    lng: -118.4474
  phone: 818-582-8944
  website: https://www.socalchc.org
  external_ids:
    bphc: BPS-LAL-039881
  sources:
  - hrsa/health-center-sites
  verified:
    'on': '2026-07-19'
    method: api
- id: ca/arleta/ucla-early-head-start
  name: UCLA Early Head Start
  categories:
  - child-care
  address:
    street: 14423 Van Nuys Blvd
    city: Arleta
    state: ca
    zip: '91331'
  geo:
    lat: 34.24856
    lng: -118.4474
  phone: 818-485-6900
  sources:
  - acf/head-start-locations
  verified:
    'on': '2026-07-19'
    method: api
