- id: ca/beaumont/beaumont-senior-high
  name: Beaumont Senior High
  categories:
  - meal-program
  address:
    street: 39139 Cherry Valley Blvd.
    city: Beaumont
    state: ca
    zip: '92223'
  description: Free summer meals for kids and teens (2026 season) — sponsored by BEAUMONT UNIFIED SCHOOL
    DISTRICT.
  place: 0604758
  geo:
    lat: 33.96532
    lng: -116.97917
  phone: (951) 797-5403
  external_ids:
    usda_master: Cycle 06_CA_SSO_0866
  sources:
  - usda/summer-meal-sites
  verified:
    'on': '2026-07-19'
    method: api
- id: ca/beaumont/mountain-view-middle
  name: Mountain View Middle
  categories:
  - meal-program
  address:
    street: 200 Cougar Way
    city: Beaumont
    state: ca
    zip: '92223'
  description: Free summer meals for kids and teens (2026 season) — sponsored by BEAUMONT UNIFIED SCHOOL
    DISTRICT.
  place: 0604758
  geo:
    lat: 33.95523
    lng: -116.98059
  phone: (310) 384-6424
  external_ids:
    usda_master: Cycle 03_CA_SSO_0396
  sources:
  - usda/summer-meal-sites
  verified:
    'on': '2026-07-19'
    method: api
- id: ca/beaumont/neighborhood-healthcare-beaumont
  name: Neighborhood Healthcare ~ Beaumont
  categories:
  - community-health-center
  cost: sliding-scale
  address: {street: 831 N Highland Springs Ave, city: Beaumont, state: ca, zip: '92223'}
  place: 0604758
  geo: {lat: 33.92812, lng: -116.94696}
  phone: 760-520-8300
  external_ids: {bphc: BPS-H80-037446}
  sources:
  - hrsa/health-center-sites
  verified: {'on': '2026-07-19', method: api}
- id: ca/beaumont/rcoe-beaumont-8th-street-hs-ehs
  name: RCOE-BEAUMONT 8TH STREET - HS/EHS
  categories:
  - child-care
  address:
    street: 600 E 8th St
    city: Beaumont
    state: ca
    zip: '92223'
  place: 0604758
  geo:
    lat: 33.93247
    lng: -116.97321
  phone: 951-826-4530
  sources:
  - acf/head-start-locations
  verified:
    'on': '2026-07-19'
    method: api
- id: ca/beaumont/rcoe-beaumont-ave-hs-ehs
  name: RCOE-BEAUMONT AVE HS/EHS
  categories:
  - child-care
  address:
    street: 1141 Beaumont Ave
    city: Beaumont
    state: ca
    zip: '92223'
  place: 0604758
  geo:
    lat: 33.93846
    lng: -116.97721
  phone: 951-826-4540
  sources:
  - acf/head-start-locations
  verified:
    'on': '2026-07-19'
    method: api
- id: ca/beaumont/starlight-elementary
  name: Starlight Elementary
  categories:
  - meal-program
  address:
    street: 1510 Cougar Way
    city: Beaumont
    state: ca
    zip: '92223'
  description: Free summer meals for kids and teens (2026 season) — sponsored by BEAUMONT UNIFIED SCHOOL
    DISTRICT.
  place: 0604758
  geo:
    lat: 33.95556
    lng: -116.95412
  phone: (310) 384-6424
  external_ids:
    usda_master: Cycle 03_CA_SSO_0362
  sources:
  - usda/summer-meal-sites
  verified:
    'on': '2026-07-19'
    method: api
- id: ca/beaumont/stewart-park-snack-bar
  name: Stewart Park Snack Bar
  categories:
  - meal-program
  address:
    street: 985 Orange Ave.
    city: Beaumont
    state: ca
    zip: '92223'
  description: Free summer meals for kids and teens (2026 season) — sponsored by BEAUMONT UNIFIED SCHOOL
    DISTRICT.
  place: 0604758
  geo:
    lat: 33.93536
    lng: -116.97443
  phone: (951) 797-5403
  external_ids:
    usda_master: Cycle 06_CA_SSO_0554
  sources:
  - usda/summer-meal-sites
  verified:
    'on': '2026-07-19'
    method: api
