- id: ca/canoga-park/ccrc-arthur-avila-head-start
  name: CCRC - Arthur Avila Head Start
  categories:
  - child-care
  address:
    street: 7304 Jordan Ave
    city: Canoga Park
    state: ca
    zip: '91303'
  geo:
    lat: 34.20325
    lng: -118.60264
  phone: 818-717-4515
  sources:
  - acf/head-start-locations
  verified:
    'on': '2026-07-19'
    method: api
- id: ca/canoga-park/ccrc-cdi-head-start
  name: CCRC - CDI Head Start
  categories:
  - child-care
  address:
    street: 7260 Owensmouth Ave
    city: Canoga Park
    state: ca
    zip: '91303'
  geo:
    lat: 34.20264
    lng: -118.60121
  phone: 818-717-4515
  sources:
  - acf/head-start-locations
  verified:
    'on': '2026-07-19'
    method: api
- id: ca/canoga-park/ccrc-zine-head-start
  name: CCRC - Zine Head Start
  categories:
  - child-care
  address:
    street: 21400 Saticoy St
    city: Canoga Park
    state: ca
    zip: '91304'
  geo:
    lat: 34.20806
    lng: -118.59794
  phone: 818-456-4568
  sources:
  - acf/head-start-locations
  verified:
    'on': '2026-07-19'
    method: api
- id: ca/canoga-park/clinica-romero-canoga-park
  name: Clinica Romero - Canoga Park
  categories:
  - community-health-center
  address:
    street: '21013 Sherman Way, #4'
    city: Canoga Park
    state: ca
    zip: '91303'
  geo:
    lat: 34.20125
    lng: -118.5914
  phone: 818-887-9697
  external_ids:
    bphc: BPS-H80-036150
  sources:
  - hrsa/health-center-sites
  verified:
    'on': '2026-07-19'
    method: api
- id: ca/canoga-park/el-centro-de-amistad-inc-west-valley-office
  name: El Centro de Amistad Inc West Valley Office
  categories:
  - mh-treatment
  address:
    street: 7038 Owensmouth Avenue
    city: Canoga Park
    state: ca
    zip: '91303'
  geo:
    lat: 34.1985
    lng: -118.60109
  phone: 818-347-8565
  website: https://www.ecda.org
  sources:
  - samhsa/findtreatment
  verified:
    'on': '2026-07-19'
    method: api
- id: ca/canoga-park/lac-canoga-park-health-center
  name: LAC-CANOGA PARK HEALTH CENTER
  categories:
  - community-health-center
  address:
    street: 7107 Remmet Ave
    city: Canoga Park
    state: ca
    zip: '91303'
  geo:
    lat: 34.19941
    lng: -118.60064
  phone: 818-340-3570
  website: https://WWW.NEVHC.ORG
  external_ids:
    bphc: BPS-H80-001206
  sources:
  - hrsa/health-center-sites
  verified:
    'on': '2026-07-19'
    method: api
- id: ca/canoga-park/serenity-care-health-group-owensmouth
  name: Serenity Care Health Group - Owensmouth
  categories:
  - community-health-center
  address:
    street: 6800 Owensmouth Ave
    city: Canoga Park
    state: ca
    zip: '91303'
  geo:
    lat: 34.19413
    lng: -118.60139
  phone: 562-478-4102
  external_ids:
    bphc: BPS-LAL-040647
  sources:
  - hrsa/health-center-sites
  verified:
    'on': '2026-07-19'
    method: api
- id: ca/canoga-park/the-arts
  name: The ARTS
  categories:
  - su-treatment
  - mh-treatment
  address:
    street: 22122 Sherman Way
    city: Canoga Park
    state: ca
    zip: '91303'
  geo:
    lat: 34.2007
    lng: -118.609
  phone: 866-695-1567
  website: https://thearts.group/
  sources:
  - samhsa/findtreatment
  verified:
    'on': '2026-07-19'
    method: api
- id: ca/canoga-park/todos-para-la-salud-canoga-park
  name: 'Todos Para La Salud: Canoga Park'
  categories:
  - community-health-center
  address:
    street: 22030 Sherman Way, Suite 211
    city: Canoga Park
    state: ca
    zip: '91303'
  geo:
    lat: 34.20086
    lng: -118.60682
  phone: 818-884-7424
  external_ids:
    bphc: BPS-LAL-036523
  sources:
  - hrsa/health-center-sites
  verified:
    'on': '2026-07-19'
    method: api
