- id: ca/canoga-park/boys-girls-club-of-the-west-valley
  name: Boys & Girls Club Of The West Valley
  categories:
  - meal-program
  address: {street: 7245 Remmet Avenue, city: Canoga Park, state: ca, zip: '91303'}
  description: Free summer meals for kids and teens (2026 season) — sponsored by LIGHTHOUSE 4KIDS INC.
  geo: {lat: 34.20242, lng: -118.6003}
  phone: (818) 371-2254
  external_ids: {usda_master: Cycle 07_CA_SFSP_1602}
  sources:
  - usda/summer-meal-sites
  verified: {'on': '2026-07-19', method: api}
- id: ca/canoga-park/canoga-park-elementary
  name: Canoga Park Elementary
  categories:
  - meal-program
  address: {street: 7438 Topanga Canyon Blvd., city: Canoga Park, state: ca, zip: '91303'}
  description: Free summer meals for kids and teens (2026 season) — sponsored by LOS ANGELES UNIFIED SCHOOL
    DISTRICT.
  geo: {lat: 34.2056, lng: -118.60588}
  phone: (213) 241-2993
  external_ids: {usda_master: Cycle 07_CA_SSO_2561}
  sources:
  - usda/summer-meal-sites
  verified: {'on': '2026-07-19', method: api}
- id: ca/canoga-park/canoga-park-senior-high
  name: Canoga Park Senior High
  categories:
  - meal-program
  address: {street: 6850 Topanga Canyon Blvd., city: Canoga Park, state: ca, zip: '91303'}
  description: Free summer meals for kids and teens (2026 season) — sponsored by LOS ANGELES UNIFIED SCHOOL
    DISTRICT.
  geo: {lat: 34.19548, lng: -118.60584}
  phone: (213) 241-2993
  external_ids: {usda_master: Cycle 07_CA_SSO_2562}
  sources:
  - usda/summer-meal-sites
  verified: {'on': '2026-07-19', method: api}
- id: ca/canoga-park/ccrc-arthur-avila-head-start
  name: CCRC - Arthur Avila Head Start
  categories:
  - child-care
  address:
    street: 7304 Jordan Ave
    city: Canoga Park
    state: ca
    zip: '91303'
  geo:
    lat: 34.20325
    lng: -118.60264
  phone: 818-717-4515
  sources:
  - acf/head-start-locations
  verified:
    'on': '2026-07-19'
    method: api
- id: ca/canoga-park/ccrc-cdi-head-start
  name: CCRC - CDI Head Start
  categories:
  - child-care
  address:
    street: 7260 Owensmouth Ave
    city: Canoga Park
    state: ca
    zip: '91303'
  geo:
    lat: 34.20264
    lng: -118.60121
  phone: 818-717-4515
  sources:
  - acf/head-start-locations
  verified:
    'on': '2026-07-19'
    method: api
- id: ca/canoga-park/ccrc-zine-head-start
  name: CCRC - Zine Head Start
  categories:
  - child-care
  address:
    street: 21400 Saticoy St
    city: Canoga Park
    state: ca
    zip: '91304'
  geo:
    lat: 34.20806
    lng: -118.59794
  phone: 818-456-4568
  sources:
  - acf/head-start-locations
  verified:
    'on': '2026-07-19'
    method: api
- id: ca/canoga-park/christopher-columbus-middle
  name: Christopher Columbus Middle
  categories:
  - meal-program
  address: {street: 22250 Elkwood St., city: Canoga Park, state: ca, zip: '91304'}
  description: Free summer meals for kids and teens (2026 season) — sponsored by LOS ANGELES UNIFIED SCHOOL
    DISTRICT.
  geo: {lat: 34.21279, lng: -118.6113}
  phone: (213) 241-2993
  external_ids: {usda_master: Cycle 07_CA_SSO_2573}
  sources:
  - usda/summer-meal-sites
  verified: {'on': '2026-07-19', method: api}
- id: ca/canoga-park/clinica-romero-canoga-park
  name: Clinica Romero - Canoga Park
  categories:
  - community-health-center
  address:
    street: '21013 Sherman Way, #4'
    city: Canoga Park
    state: ca
    zip: '91303'
  geo:
    lat: 34.20125
    lng: -118.5914
  phone: 818-887-9697
  external_ids:
    bphc: BPS-H80-036150
  sources:
  - hrsa/health-center-sites
  verified:
    'on': '2026-07-19'
    method: api
- id: ca/canoga-park/el-centro-de-amistad-inc-west-valley-office
  name: El Centro de Amistad Inc West Valley Office
  categories:
  - mh-treatment
  address:
    street: 7038 Owensmouth Avenue
    city: Canoga Park
    state: ca
    zip: '91303'
  geo:
    lat: 34.1985
    lng: -118.60109
  phone: 818-347-8565
  website: https://www.ecda.org
  sources:
  - samhsa/findtreatment
  verified:
    'on': '2026-07-19'
    method: api
- id: ca/canoga-park/guadalupe-community-center
  name: Guadalupe Community Center
  categories:
  - meal-program
  address: {street: 6933 Remmet Avenue, city: Canoga Park, state: ca, zip: '91303'}
  description: Free summer meals for kids and teens (2026 season) — sponsored by LIGHTHOUSE 4KIDS INC.
  geo: {lat: 34.1972, lng: -118.60065}
  phone: (213) 251-3572
  external_ids: {usda_master: Cycle 07_CA_SFSP_1909}
  sources:
  - usda/summer-meal-sites
  verified: {'on': '2026-07-19', method: api}
- id: ca/canoga-park/hart-street-elementary
  name: Hart Street Elementary
  categories:
  - meal-program
  address: {street: 21040 Hart St., city: Canoga Park, state: ca, zip: '91303'}
  description: Free summer meals for kids and teens (2026 season) — sponsored by LOS ANGELES UNIFIED SCHOOL
    DISTRICT.
  geo: {lat: 34.19738, lng: -118.5924}
  phone: (213) 241-2993
  external_ids: {usda_master: Cycle 07_CA_SSO_2629}
  sources:
  - usda/summer-meal-sites
  verified: {'on': '2026-07-19', method: api}
- id: ca/canoga-park/lac-canoga-park-health-center
  name: LAC-CANOGA PARK HEALTH CENTER
  categories:
  - community-health-center
  address:
    street: 7107 Remmet Ave
    city: Canoga Park
    state: ca
    zip: '91303'
  geo:
    lat: 34.19941
    lng: -118.60064
  phone: 818-340-3570
  website: https://WWW.NEVHC.ORG
  external_ids:
    bphc: BPS-H80-001206
  sources:
  - hrsa/health-center-sites
  verified:
    'on': '2026-07-19'
    method: api
- id: ca/canoga-park/lanark-recreation-center
  name: Lanark Recreation Center
  categories:
  - meal-program
  address: {street: 21816 Lanark Street, city: Canoga Park, state: ca, zip: '91304'}
  description: Free summer meals for kids and teens (2026 season) — sponsored by LOS ANGELES, CITY OF
    DEPT OF REC & PARKS.
  geo: {lat: 34.21756, lng: -118.60385}
  phone: (818) 883-1503
  external_ids: {usda_master: Cycle 07_CA_SFSP_0354}
  sources:
  - usda/summer-meal-sites
  verified: {'on': '2026-07-19', method: api}
- id: ca/canoga-park/multicultural-learning-center
  name: Multicultural Learning Center
  categories:
  - meal-program
  address: {street: 7510 Desoto Ave., city: Canoga Park, state: ca, zip: '91303'}
  description: Free summer meals for kids and teens (2026 season) — sponsored by MULTICULTURAL LEARNING
    CENTER.
  geo: {lat: 34.20698, lng: -118.58845}
  phone: (818) 483-8863
  external_ids: {usda_master: Cycle 01_CA_SSO_0026}
  sources:
  - usda/summer-meal-sites
  verified: {'on': '2026-07-19', method: api}
- id: ca/canoga-park/serenity-care-health-group-owensmouth
  name: Serenity Care Health Group - Owensmouth
  categories:
  - community-health-center
  address:
    street: 6800 Owensmouth Ave
    city: Canoga Park
    state: ca
    zip: '91303'
  geo:
    lat: 34.19413
    lng: -118.60139
  phone: 562-478-4102
  external_ids:
    bphc: BPS-LAL-040647
  sources:
  - hrsa/health-center-sites
  verified:
    'on': '2026-07-19'
    method: api
- id: ca/canoga-park/the-arts
  name: The ARTS
  categories:
  - su-treatment
  - mh-treatment
  address:
    street: 22122 Sherman Way
    city: Canoga Park
    state: ca
    zip: '91303'
  geo:
    lat: 34.2007
    lng: -118.609
  phone: 866-695-1567
  website: https://thearts.group/
  sources:
  - samhsa/findtreatment
  verified:
    'on': '2026-07-19'
    method: api
- id: ca/canoga-park/todos-para-la-salud-canoga-park
  name: 'Todos Para La Salud: Canoga Park'
  categories:
  - community-health-center
  address:
    street: 22030 Sherman Way, Suite 211
    city: Canoga Park
    state: ca
    zip: '91303'
  geo:
    lat: 34.20086
    lng: -118.60682
  phone: 818-884-7424
  external_ids:
    bphc: BPS-LAL-036523
  sources:
  - hrsa/health-center-sites
  verified:
    'on': '2026-07-19'
    method: api
- id: ca/canoga-park/urban-promise-los-angeles
  name: Urban Promise Los Angeles
  categories:
  - meal-program
  address: {street: 22103 Vanowen St, city: Canoga Park, state: ca, zip: '91303'}
  description: Free summer meals for kids and teens (2026 season) — sponsored by IMPACT LA.
  geo: {lat: 34.19467, lng: -118.60856}
  phone: (740) 627-8011
  external_ids: {usda_master: Cycle 06_CA_SFSP_1209}
  sources:
  - usda/summer-meal-sites
  verified: {'on': '2026-07-19', method: api}
- id: ca/canoga-park/winnetka-recreation-center
  name: Winnetka Recreation Center
  categories:
  - meal-program
  address: {street: 8401 Winnetka Avenue, city: Canoga Park, state: ca, zip: '91306'}
  description: Free summer meals for kids and teens (2026 season) — sponsored by LOS ANGELES, CITY OF
    DEPT OF REC & PARKS.
  geo: {lat: 34.22232, lng: -118.57158}
  phone: (818) 756-7876
  external_ids: {usda_master: Cycle 07_CA_SFSP_0506}
  sources:
  - usda/summer-meal-sites
  verified: {'on': '2026-07-19', method: api}
