- id: ca/chula-vista/accounts-receivable
  name: Accounts Receivable
  categories:
  - community-health-center
  address:
    street: 100 Broadway
    city: Chula Vista
    state: ca
    zip: '91910'
  place: 0613392
  geo:
    lat: 32.64454
    lng: -117.09503
  phone: 619-515-2300
  external_ids:
    bphc: BPS-H80-036036
  sources:
  - hrsa/health-center-sites
  verified:
    'on': '2026-07-19'
    method: api
- id: ca/chula-vista/broadneck-baptist-church
  name: Broadneck Baptist Church
  categories:
  - food-pantry
  place: 0613392
  geo:
    lat: 32.61177
    lng: -117.05484
  external_ids:
    lfp: '4553'
  sources:
  - littlefreepantry/map
  verified:
    'on': '2026-07-19'
    method: scrape
- id: ca/chula-vista/castle-park-middle
  name: Castle Park Middle
  categories:
  - meal-program
  address:
    street: 160 Quintard St.
    city: Chula Vista
    state: ca
    zip: '91911'
  description: Free summer meals for kids and teens (2026 season) — sponsored by SWEETWATER UNION HIGH
    SCHOOL DISTRICT.
  place: 0613392
  geo:
    lat: 32.60484
    lng: -117.05981
  phone: (619) 691-5510
  external_ids:
    usda_master: Cycle 05_CA_SSO_1400
  sources:
  - usda/summer-meal-sites
  verified:
    'on': '2026-07-19'
    method: api
- id: ca/chula-vista/castle-park-senior-high
  name: Castle Park Senior High
  categories:
  - meal-program
  address:
    street: 1395 Hilltop Dr.
    city: Chula Vista
    state: ca
    zip: '91911'
  description: Free summer meals for kids and teens (2026 season) — sponsored by SWEETWATER UNION HIGH
    SCHOOL DISTRICT.
  place: 0613392
  geo:
    lat: 32.60677
    lng: -117.05045
  phone: (619) 691-5510
  external_ids:
    usda_master: Cycle 04_CA_SSO_1001
  sources:
  - usda/summer-meal-sites
  verified:
    'on': '2026-07-19'
    method: api
- id: ca/chula-vista/chula-vista-family-health-center
  name: Chula Vista Family Health Center
  categories:
  - community-health-center
  address:
    street: 251 Landis Ave
    city: Chula Vista
    state: ca
    zip: '91910'
  place: 0613392
  geo:
    lat: 32.6426
    lng: -117.08125
  phone: 619-515-2500
  website: https://www.fhcsd.org
  external_ids:
    bphc: BPS-H80-008495
  sources:
  - hrsa/health-center-sites
  verified:
    'on': '2026-07-19'
    method: api
- id: ca/chula-vista/chula-vista-middle
  name: Chula Vista Middle
  categories:
  - meal-program
  address:
    street: 415 Fifth Ave.
    city: Chula Vista
    state: ca
    zip: '91910'
  description: Free summer meals for kids and teens (2026 season) — sponsored by SWEETWATER UNION HIGH
    SCHOOL DISTRICT.
  place: 0613392
  geo:
    lat: 32.63467
    lng: -117.08635
  phone: (619) 691-5510
  external_ids:
    usda_master: Cycle 04_CA_SSO_1003
  sources:
  - usda/summer-meal-sites
  verified:
    'on': '2026-07-19'
    method: api
- id: ca/chula-vista/chula-vista-senior-high
  name: Chula Vista Senior High
  categories:
  - meal-program
  address:
    street: 820 Fourth Ave.
    city: Chula Vista
    state: ca
    zip: '91911'
  description: Free summer meals for kids and teens (2026 season) — sponsored by SWEETWATER UNION HIGH
    SCHOOL DISTRICT.
  place: 0613392
  geo:
    lat: 32.62144
    lng: -117.07749
  phone: (619) 691-5510
  external_ids:
    usda_master: Cycle 04_CA_SSO_1002
  sources:
  - usda/summer-meal-sites
  verified:
    'on': '2026-07-19'
    method: api
- id: ca/chula-vista/chula-vista-va-clinic
  name: Chula Vista VA Clinic
  categories:
  - va-facility
  - health
  description: Multi-Specialty CBOC
  address: {street: 353 H Street, city: Chula Vista, state: ca, zip: '91910'}
  place: 0613392
  geo: {lat: 32.63387, lng: -117.07924}
  phone: 619-409-1600
  website: https://www.va.gov/san-diego-health-care/locations/chula-vista-va-clinic/
  hours:
  - {days: [mon, tue, wed, thu, fri], open: '07:30', close: '16:00'}
  services:
  - Audiology and speech
  - Dermatology
  - Gynecology
  - Laboratory and pathology
  - Mental health care
  - My HealtheVet coordinator
  - Nutrition, food, and dietary care
  - Optometry
  - Pharmacy
  - Podiatry
  - Primary care
  - Returning service member care
  - Social work
  - Telehealth
  - Women Veteran care
  external_ids: {va: vha_664GC}
  sources:
  - va/facilities-api
  verified: {'on': '2026-07-19', method: api}
- id: ca/chula-vista/city-of-chula-vista-civic-center-library
  name: City Of Chula Vista Civic Center Library
  categories:
  - meal-program
  address:
    street: 365 F Street
    city: Chula Vista
    state: ca
    zip: '91910'
  description: Free summer meals for kids and teens (2026 season) — sponsored by CHULA VISTA ELEMENTARY
    SCHOOL DISTRICT.
  place: 0613392
  geo:
    lat: 32.6405
    lng: -117.08304
  phone: (619) 425-9600
  external_ids:
    usda_master: Cycle 02_CA_SSO_0154
  sources:
  - usda/summer-meal-sites
  verified:
    'on': '2026-07-19'
    method: api
- id: ca/chula-vista/city-of-chula-vista-south-cv-library
  name: City Of Chula Vista South Cv Library
  categories:
  - meal-program
  address:
    street: 389 Orange Avenue
    city: Chula Vista
    state: ca
    zip: '91911'
  description: Free summer meals for kids and teens (2026 season) — sponsored by CHULA VISTA ELEMENTARY
    SCHOOL DISTRICT.
  place: 0613392
  geo:
    lat: 32.60209
    lng: -117.06829
  phone: (619) 425-9600
  external_ids:
    usda_master: Cycle 02_CA_SSO_0155
  sources:
  - usda/summer-meal-sites
  verified:
    'on': '2026-07-19'
    method: api
- id: ca/chula-vista/community-congregational-preschool
  name: Community Congregational Preschool
  categories:
  - meal-program
  address:
    street: 276 F Street
    city: Chula Vista
    state: ca
    zip: '91910'
  description: Free summer meals for kids and teens (2026 season) — sponsored by HEAVEN'S WINDOWS.
  place: 0613392
  geo:
    lat: 32.6416
    lng: -117.07873
  phone: (619) 420-2046
  external_ids:
    usda_master: Cycle 09_CA_SFSP_1164
  sources:
  - usda/summer-meal-sites
  verified:
    'on': '2026-07-19'
    method: api
- id: ca/chula-vista/cvfhc-administration
  name: CVFHC Administration
  categories:
  - community-health-center
  address:
    street: 264 Landis Ave, Ste 103
    city: Chula Vista
    state: ca
    zip: '91910'
  place: 0613392
  geo:
    lat: 32.64234
    lng: -117.08149
  phone: 619-515-2300
  external_ids:
    bphc: BPS-H80-038455
  sources:
  - hrsa/health-center-sites
  verified:
    'on': '2026-07-19'
    method: api
- id: ca/chula-vista/ecs-4th-and-d-head-start
  name: ECS -- 4th and D Head Start
  categories:
  - child-care
  address:
    street: 385 D St
    city: Chula Vista
    state: ca
    zip: '91910'
  place: 0613392
  geo:
    lat: 32.64775
    lng: -117.08615
  phone: 619-591-9136
  sources:
  - acf/head-start-locations
  verified:
    'on': '2026-07-19'
    method: api
- id: ca/chula-vista/ecs-castle-park-head-start
  name: ECS -- Castle Park Head Start
  categories:
  - child-care
  address:
    street: 1375 3rd Ave
    city: Chula Vista
    state: ca
    zip: '91911'
  place: 0613392
  geo:
    lat: 32.6085
    lng: -117.0654
  phone: 619-409-4200
  sources:
  - acf/head-start-locations
  verified:
    'on': '2026-07-19'
    method: api
- id: ca/chula-vista/ecs-ehs-homebase
  name: ECS -- EHS Homebase
  categories:
  - child-care
  address:
    street: 310 3rd Ave
    street2: Ste A2
    city: Chula Vista
    state: ca
    zip: '91910'
  place: 0613392
  geo:
    lat: 32.64088
    lng: -117.08037
  phone: 619-796-7895
  sources:
  - acf/head-start-locations
  verified:
    'on': '2026-07-19'
    method: api
- id: ca/chula-vista/ecs-hs-homebase
  name: ECS -- HS Homebase
  categories:
  - child-care
  address:
    street: 310 3rd Ave
    street2: Ste A1
    city: Chula Vista
    state: ca
    zip: '91910'
  place: 0613392
  geo:
    lat: 32.64088
    lng: -117.08037
  phone: 619-796-7296
  sources:
  - acf/head-start-locations
  verified:
    'on': '2026-07-19'
    method: api
- id: ca/chula-vista/ecs-palomar-head-start
  name: ECS -- Palomar Head Start
  categories:
  - child-care
  address:
    street: 1320 4th Ave
    city: Chula Vista
    state: ca
    zip: '91911'
  place: 0613392
  geo:
    lat: 32.60499
    lng: -117.07066
  phone: 619-427-6092
  sources:
  - acf/head-start-locations
  verified:
    'on': '2026-07-19'
    method: api
- id: ca/chula-vista/ecs-st-john-s-early-head-start
  name: ECS -- St. John's Early Head Start
  categories:
  - child-care
  address:
    street: 760 1st Ave
    city: Chula Vista
    state: ca
    zip: '91910'
  place: 0613392
  geo:
    lat: 32.62737
    lng: -117.06557
  phone: 619-869-4493
  sources:
  - acf/head-start-locations
  verified:
    'on': '2026-07-19'
    method: api
- id: ca/chula-vista/ecs-st-john-s-head-start
  name: ECS -- St. John's Head Start
  categories:
  - child-care
  address:
    street: 760 1st Ave
    city: Chula Vista
    state: ca
    zip: '91910'
  place: 0613392
  geo:
    lat: 32.62692
    lng: -117.06575
  phone: 619-869-4493
  sources:
  - acf/head-start-locations
  verified:
    'on': '2026-07-19'
    method: api
- id: ca/chula-vista/familyhealth-sweetwater-family-counseling-center
  name: FamilyHealth--Sweetwater Family Counseling Center
  categories:
  - community-health-center
  address:
    street: 333 H St, Suite 2010
    city: Chula Vista
    state: ca
    zip: '91910'
  place: 0613392
  geo:
    lat: 32.63441
    lng: -117.07849
  phone: 619-515-2300
  external_ids:
    bphc: BPS-H80-031173
  sources:
  - hrsa/health-center-sites
  verified:
    'on': '2026-07-19'
    method: api
- id: ca/chula-vista/health-information-management-services
  name: Health Information Management Services
  categories:
  - community-health-center
  address:
    street: 972 Broadway
    city: Chula Vista
    state: ca
    zip: '91911'
  place: 0613392
  geo:
    lat: 32.61485
    lng: -117.08327
  phone: 619-515-2300
  external_ids:
    bphc: BPS-H80-018680
  sources:
  - hrsa/health-center-sites
  verified:
    'on': '2026-07-19'
    method: api
- id: ca/chula-vista/hilltop-middle
  name: Hilltop Middle
  categories:
  - meal-program
  address:
    street: 44 East J St.
    city: Chula Vista
    state: ca
    zip: '91910'
  description: Free summer meals for kids and teens (2026 season) — sponsored by SWEETWATER UNION HIGH
    SCHOOL DISTRICT.
  place: 0613392
  geo:
    lat: 32.63131
    lng: -117.06081
  phone: (619) 691-5510
  external_ids:
    usda_master: Cycle 04_CA_SSO_1005
  sources:
  - usda/summer-meal-sites
  verified:
    'on': '2026-07-19'
    method: api
- id: ca/chula-vista/hope-therapy-group-eastlake
  name: HOPE Therapy Group Eastlake
  categories:
  - su-treatment
  - mh-treatment
  address:
    city: Chula Vista
    state: ca
    zip: '91914'
  place: 0613392
  phone: 858-333-6856
  website: https://www.hopetherapygroup.com
  sources:
  - samhsa/findtreatment
  verified:
    'on': '2026-07-19'
    method: api
- id: ca/chula-vista/landis-avenue-dental-services
  name: Landis Avenue Dental Services
  categories:
  - community-health-center
  address:
    street: 264 Landis Ave STE 200
    city: Chula Vista
    state: ca
    zip: '91910'
  place: 0613392
  geo:
    lat: 32.64232
    lng: -117.08147
  phone: 619-515-2300
  external_ids:
    bphc: BPS-H80-036719
  sources:
  - hrsa/health-center-sites
  verified:
    'on': '2026-07-19'
    method: api
- id: ca/chula-vista/landis-avenue-family-counseling-center
  name: Landis Avenue Family Counseling Center
  categories:
  - community-health-center
  address:
    street: 264 Landis Ave
    city: Chula Vista
    state: ca
    zip: '91910'
  place: 0613392
  geo:
    lat: 32.64226
    lng: -117.08172
  phone: 619-906-5383
  external_ids:
    bphc: BPS-H80-033155
  sources:
  - hrsa/health-center-sites
  verified:
    'on': '2026-07-19'
    method: api
- id: ca/chula-vista/maac-nosotros
  name: MAAC Nosotros
  categories:
  - su-treatment
  - mh-treatment
  address:
    street: 73rd North 2nd Avenue
    city: Chula Vista
    state: ca
    zip: '91910'
  place: 0613392
  geo:
    lat: 32.65579
    lng: -117.08224
  phone: 619-426-4801 x1
  website: https://www.maacproject.org
  sources:
  - samhsa/findtreatment
  verified:
    'on': '2026-07-19'
    method: api
- id: ca/chula-vista/maof-chula-vista
  name: MAOF Chula Vista
  categories:
  - child-care
  address:
    street: 2453 Fenton St
    city: Chula Vista
    state: ca
    zip: '91914'
  place: 0613392
  geo:
    lat: 32.65351
    lng: -116.96008
  phone: 619-421-3940
  sources:
  - acf/head-start-locations
  verified:
    'on': '2026-07-19'
    method: api
- id: ca/chula-vista/mcalister-institute-for-trt-and-educ-mite-south
  name: McAlister Institute for Trt and Educ (MITE)/South Bay Regional Recovery Ctr
  categories:
  - su-treatment
  address:
    street: 1180 3rd Avenue
    city: Chula Vista
    state: ca
    zip: '91911'
  place: 0613392
  geo:
    lat: 32.61055
    lng: -117.06851
  phone: 619-691-8164 x1102
  website: https://www.mcalisterinc.org
  sources:
  - samhsa/findtreatment
  verified:
    'on': '2026-07-19'
    method: api
- id: ca/chula-vista/mcalister-institute-for-trt-and-educ-mite-strc
  name: McAlister Institute for Trt and Educ (MITE)/STRC
  categories:
  - su-treatment
  address:
    street: 371 E Street
    city: Chula Vista
    state: ca
    zip: '91910'
  place: 0613392
  geo:
    lat: 32.64393
    lng: -117.08419
  phone: 619-691-1045 x2002
  website: https://www.McAlisterInc.org
  sources:
  - samhsa/findtreatment
  verified:
    'on': '2026-07-19'
    method: api
- id: ca/chula-vista/opsam-health-chula-vista
  name: Opsam Health Chula Vista
  categories:
  - community-health-center
  address:
    street: 637 3rd Ave
    city: Chula Vista
    state: ca
    zip: '91910'
  place: 0613392
  geo:
    lat: 32.62945
    lng: -117.07525
  phone: 844-200-2426
  website: https://www.opsam.org
  external_ids:
    bphc: BPS-H80-039401
  sources:
  - hrsa/health-center-sites
  verified:
    'on': '2026-07-19'
    method: api
- id: ca/chula-vista/rice-family-health-center
  name: Rice Family Health Center
  categories:
  - community-health-center
  address:
    street: 352 L St
    city: Chula Vista
    state: ca
    zip: '91911'
  place: 0613392
  geo:
    lat: 32.61937
    lng: -117.07369
  phone: 619-515-2325
  external_ids:
    bphc: BPS-H80-012416
  sources:
  - hrsa/health-center-sites
  verified:
    'on': '2026-07-19'
    method: api
- id: ca/chula-vista/san-diego-pace-chula-vista
  name: San Diego PACE Chula Vista
  categories:
  - community-health-center
  address:
    street: 880 3rd Ave
    city: Chula Vista
    state: ca
    zip: '91911'
  place: 0613392
  geo:
    lat: 32.62134
    lng: -117.07289
  phone: 619-662-4100
  external_ids:
    bphc: BPS-H80-030131
  sources:
  - hrsa/health-center-sites
  verified:
    'on': '2026-07-19'
    method: api
- id: ca/chula-vista/san-ysidro-health-chula-vista
  name: San Ysidro Health Chula Vista
  categories:
  - community-health-center
  address:
    street: 678 3rd Ave
    city: Chula Vista
    state: ca
    zip: '91910'
  place: 0613392
  geo:
    lat: 32.62859
    lng: -117.07535
  phone: 619-662-4100
  external_ids:
    bphc: BPS-H80-013436
  sources:
  - hrsa/health-center-sites
  verified:
    'on': '2026-07-19'
    method: api
- id: ca/chula-vista/san-ysidro-health-chula-vista-plaza
  name: San Ysidro Health/Chula Vista Plaza
  categories:
  - su-treatment
  - mh-treatment
  address:
    street: 678 3rd Avenue
    city: Chula Vista
    state: ca
    zip: '91910'
  place: 0613392
  geo:
    lat: 32.62861
    lng: -117.07537
  phone: 619-662-4100
  website: https://www.syhealth.org
  sources:
  - samhsa/findtreatment
  verified:
    'on': '2026-07-19'
    method: api
- id: ca/chula-vista/san-ysidro-health-gastroenterology
  name: San Ysidro Health Gastroenterology
  categories:
  - community-health-center
  address:
    street: 480 4th Ave, Suite 316
    city: Chula Vista
    state: ca
    zip: '91910'
  place: 0613392
  geo:
    lat: 32.63392
    lng: -117.08248
  phone: 619-662-4100
  external_ids:
    bphc: BPS-H80-040656
  sources:
  - hrsa/health-center-sites
  verified:
    'on': '2026-07-19'
    method: api
- id: ca/chula-vista/san-ysidro-health-heritage-park
  name: San Ysidro Health Heritage Park
  categories:
  - community-health-center
  address:
    street: 1392 E Palomar St, Suite 501
    city: Chula Vista
    state: ca
    zip: '91913'
  place: 0613392
  geo:
    lat: 32.6235
    lng: -116.99763
  phone: 619-662-4100
  external_ids:
    bphc: BPS-H80-039635
  sources:
  - hrsa/health-center-sites
  verified:
    'on': '2026-07-19'
    method: api
- id: ca/chula-vista/san-ysidro-health-otay
  name: San Ysidro Health Otay
  categories:
  - community-health-center
  address:
    street: 1637 Third Ave STE BF
    city: Chula Vista
    state: ca
    zip: '91911'
  place: 0613392
  geo:
    lat: 32.59656
    lng: -117.06448
  phone: 619-662-4100
  website: https://www.syhc.org
  external_ids:
    bphc: BPS-H80-005064
  sources:
  - hrsa/health-center-sites
  verified:
    'on': '2026-07-19'
    method: api
- id: ca/chula-vista/san-ysidro-health-palomar-high-school
  name: San Ysidro Health Palomar High School
  categories:
  - community-health-center
  address:
    street: 480 Palomar St
    city: Chula Vista
    state: ca
    zip: '91911'
  place: 0613392
  geo:
    lat: 32.60542
    lng: -117.07358
  phone: 619-628-3670
  external_ids:
    bphc: BPS-H80-009400
  sources:
  - hrsa/health-center-sites
  verified:
    'on': '2026-07-19'
    method: api
- id: ca/chula-vista/san-ysidro-health-south-bay-latino-research-cent
  name: San Ysidro Health South Bay Latino Research Center
  categories:
  - community-health-center
  address:
    street: 780 Bay Blvd STE 200
    city: Chula Vista
    state: ca
    zip: '91910'
  place: 0613392
  geo:
    lat: 32.61954
    lng: -117.09272
  phone: 619-662-4100
  external_ids:
    bphc: BPS-H80-028256
  sources:
  - hrsa/health-center-sites
  verified:
    'on': '2026-07-19'
    method: api
- id: ca/chula-vista/san-ysidro-health-south-bay-pediatrics
  name: San Ysidro Health South Bay Pediatrics
  categories:
  - community-health-center
  address:
    street: 280 E St
    city: Chula Vista
    state: ca
    zip: '91910'
  place: 0613392
  geo:
    lat: 32.64491
    lng: -117.08046
  phone: 619-662-4100
  website: https://www.syhealth.org
  external_ids:
    bphc: BPS-H80-036859
  sources:
  - hrsa/health-center-sites
  verified:
    'on': '2026-07-19'
    method: api
- id: ca/chula-vista/san-ysidro-health-specialty-care
  name: San Ysidro Health Specialty Care
  categories:
  - community-health-center
  address:
    street: 480 4th Ave, Suite 507
    city: Chula Vista
    state: ca
    zip: '91910'
  place: 0613392
  geo:
    lat: 32.63392
    lng: -117.08248
  phone: 619-662-4100
  external_ids:
    bphc: BPS-H80-040982
  sources:
  - hrsa/health-center-sites
  verified:
    'on': '2026-07-19'
    method: api
- id: ca/chula-vista/san-ysidro-health-sports-medicine
  name: San Ysidro Health Sports Medicine
  categories:
  - community-health-center
  address:
    street: 670 L St, Ste G
    city: Chula Vista
    state: ca
    zip: '91911'
  place: 0613392
  geo:
    lat: 32.61614
    lng: -117.08758
  phone: 619-662-4100
  external_ids:
    bphc: BPS-H80-032080
  sources:
  - hrsa/health-center-sites
  verified:
    'on': '2026-07-19'
    method: api
- id: ca/chula-vista/san-ysidro-health-urgent-care
  name: San Ysidro Health Urgent Care
  categories:
  - community-health-center
  address:
    street: 333 H St, Suite 2080
    city: Chula Vista
    state: ca
    zip: '91910'
  place: 0613392
  geo:
    lat: 32.63441
    lng: -117.07849
  phone: 619-662-4100
  external_ids:
    bphc: BPS-H80-031660
  sources:
  - hrsa/health-center-sites
  verified:
    'on': '2026-07-19'
    method: api
- id: ca/chula-vista/san-ysidro-health-wellness-clinic
  name: San Ysidro Health Wellness Clinic
  categories:
  - community-health-center
  address:
    street: 480 4th Ave, Suite 506
    city: Chula Vista
    state: ca
    zip: '91910'
  place: 0613392
  geo:
    lat: 32.63392
    lng: -117.08248
  phone: 619-662-4100
  external_ids:
    bphc: BPS-H80-041075
  sources:
  - hrsa/health-center-sites
  verified:
    'on': '2026-07-19'
    method: api
