- id: ca/clovis/clovis-community-health-center
  name: Clovis Community Health Center
  categories:
  - community-health-center
  address:
    street: 180 W Shaw Ave STE B
    city: Clovis
    state: ca
    zip: '93612'
  place: 0614218
  geo:
    lat: 36.80794
    lng: -119.71267
  phone: 559-203-6600
  website: https://www.vht.org
  external_ids:
    bphc: BPS-H80-013731
  sources:
  - hrsa/health-center-sites
  verified:
    'on': '2026-07-19'
    method: api
- id: ca/clovis/clovis-head-start
  name: Clovis Head Start
  categories:
  - child-care
  address:
    street: 510 Barstow Ave
    city: Clovis
    state: ca
    zip: '93612'
  place: 0614218
  geo:
    lat: 36.81574
    lng: -119.70315
  phone: 559-263-1200
  sources:
  - acf/head-start-locations
  verified:
    'on': '2026-07-19'
    method: api
- id: ca/clovis/college-community-head-start
  name: College Community Head Start
  categories:
  - child-care
  address:
    street: 2529 Willow Ave
    city: Clovis
    state: ca
    zip: '93612'
  place: 0614218
  geo:
    lat: 36.80358
    lng: -119.72659
  phone: 559-263-1200
  sources:
  - acf/head-start-locations
  verified:
    'on': '2026-07-19'
    method: api
- id: ca/clovis/muir-wood-adolescent-and-family-servs
  name: Muir Wood Adolescent and Family Servs
  categories:
  - su-treatment
  - mh-treatment
  address:
    street: 18685 Auberry Road
    city: Clovis
    state: ca
    zip: '93619'
  place: 0614218
  geo:
    lat: 36.96474
    lng: -119.64901
  phone: 855-684-7966
  website: https://www.MuirWoodTeen.com
  sources:
  - samhsa/findtreatment
  verified:
    'on': '2026-07-19'
    method: api
- id: ca/clovis/muir-wood-adolescent-and-family-servs-2
  name: Muir Wood Adolescent and Family Servs
  categories:
  - su-treatment
  - mh-treatment
  address:
    street: 12820 Auberry Road
    city: Clovis
    state: ca
    zip: '93619'
  place: 0614218
  geo:
    lat: 36.92126
    lng: -119.7098
  phone: 855-684-7966
  website: https://www.MuirWoodTeen.com
  sources:
  - samhsa/findtreatment
  verified:
    'on': '2026-07-19'
    method: api
- id: ca/clovis/peach-and-stuart-community-pantry
  name: Peach and Stuart Community Pantry
  categories:
  - food-pantry
  place: 0614218
  geo:
    lat: 36.82617
    lng: -119.71904
  external_ids:
    lfp: '3400'
  sources:
  - littlefreepantry/map
  verified:
    'on': '2026-07-19'
    method: scrape
- id: ca/clovis/united-health-centers-clovis-herndon
  name: United Health Centers Clovis Herndon
  categories:
  - community-health-center
  address:
    street: 2497 Herndon Ave STE 103
    city: Clovis
    state: ca
    zip: '93611'
  place: 0614218
  geo:
    lat: 36.83743
    lng: -119.66672
  phone: 559-646-6618
  website: https://www.unitedhealthcenters.org
  external_ids:
    bphc: BPS-H80-031407
  sources:
  - hrsa/health-center-sites
  verified:
    'on': '2026-07-19'
    method: api
- id: ca/clovis/united-health-centers-clovis-shaw
  name: United Health Centers Clovis Shaw
  categories:
  - community-health-center
  address:
    street: 313 W Shaw Ave
    city: Clovis
    state: ca
    zip: '93612'
  place: 0614218
  geo:
    lat: 36.8089
    lng: -119.71621
  phone: 559-646-6618
  website: https://www.unitedhealthcenters.org
  external_ids:
    bphc: BPS-H80-032991
  sources:
  - hrsa/health-center-sites
  verified:
    'on': '2026-07-19'
    method: api
