- id: ca/colton/arrowhead-regional-medical-center-behavioral-hea
  name: Arrowhead Regional Medical Center Behavioral Health
  categories:
  - su-treatment
  - mh-treatment
  address:
    street: 400 North Pepper Avenue
    city: Colton
    state: ca
    zip: '92324'
  place: 0614890
  geo:
    lat: 34.07423
    lng: -117.35028
  phone: 909-580-1800
  website: https://www.arrowheadregional.org
  sources:
  - samhsa/findtreatment
  verified:
    'on': '2026-07-19'
    method: api
- id: ca/colton/colton-comprehensive-treatment-center
  name: Colton Comprehensive Treatment Center
  categories:
  - su-treatment
  address:
    street: 2275 East Cooley Drive
    city: Colton
    state: ca
    zip: '92324'
  place: 0614890
  geo:
    lat: 34.05942
    lng: -117.28873
  phone: 909-543-0790 x100
  website: https://www.ctcprograms.com/location/colton-comprehensive-treatment-center/
  sources:
  - samhsa/findtreatment
  verified:
    'on': '2026-07-19'
    method: api
- id: ca/colton/colton-san-salvador-cp
  name: Colton San Salvador (CP)
  categories:
  - child-care
  address:
    street: 471 Agua Mansa Rd
    city: Colton
    state: ca
    zip: '92324'
  place: 0614890
  geo:
    lat: 34.05068
    lng: -117.35298
  phone: 909-580-5031
  sources:
  - acf/head-start-locations
  verified:
    'on': '2026-07-19'
    method: api
- id: ca/colton/inland-valley-drug-and-alcohol-recovery-services
  name: Inland Valley Drug and Alcohol Recovery Services
  categories:
  - su-treatment
  address:
    street: 1076 Santo Antonio Drive
    city: Colton
    state: ca
    zip: '92324'
  place: 0614890
  geo:
    lat: 34.05156
    lng: -117.30659
  phone: 909-433-9824
  website: https://www.inlandvalleyrecovery.org
  sources:
  - samhsa/findtreatment
  verified:
    'on': '2026-07-19'
    method: api
- id: ca/colton/mccarty-house-addiction-treatment-center
  name: McCarty House Addiction Treatment Center
  categories:
  - su-treatment
  - mh-treatment
  address:
    street: 2511 McCarty Drive
    city: Colton
    state: ca
    zip: '92324'
  place: 0614890
  geo:
    lat: 34.02601
    lng: -117.27549
  phone: 909-920-5102
  website: https://newcreationtreatment.com
  sources:
  - samhsa/findtreatment
  verified:
    'on': '2026-07-19'
    method: api
- id: ca/colton/new-creation-encanto-addiction-treatment-center
  name: New Creation Encanto Addiction Treatment Center
  categories:
  - su-treatment
  - mh-treatment
  address:
    street: 11646 Encanto Lane
    city: Colton
    state: ca
    zip: '92324'
  place: 0614890
  geo:
    lat: 34.04138
    lng: -117.28042
  phone: 909-920-5102
  website: https://newcreationtreatment.com
  sources:
  - samhsa/findtreatment
  verified:
    'on': '2026-07-19'
    method: api
- id: ca/colton/new-creation-prado-addiction-treatment-center
  name: New Creation Prado Addiction Treatment Center
  categories:
  - su-treatment
  - mh-treatment
  address:
    street: 23950 Prado Lane
    city: Colton
    state: ca
    zip: '92324'
  place: 0614890
  geo:
    lat: 34.04136
    lng: -117.28144
  phone: 909-920-5102
  website: https://www.newcreationtreatment.com
  sources:
  - samhsa/findtreatment
  verified:
    'on': '2026-07-19'
    method: api
- id: ca/colton/south-coast-community-services-reg-headquarters
  name: South Coast Community Services Reg Headquarters/East Reg Main Ofc
  categories:
  - su-treatment
  - mh-treatment
  address:
    street: 1461 East Cooley Drive
    city: Colton
    state: ca
    zip: '92324'
  place: 0614890
  geo:
    lat: 34.05555
    lng: -117.30418
  phone: 877-527-7227
  website: https://www.sccs4kids.org
  sources:
  - samhsa/findtreatment
  verified:
    'on': '2026-07-19'
    method: api
- id: ca/colton/unicare-community-health-center-colton
  name: Unicare Community Health Center - Colton
  categories:
  - community-health-center
  address:
    street: 308 N La Cadena Dr
    city: Colton
    state: ca
    zip: '92324'
  place: 0614890
  geo:
    lat: 34.06813
    lng: -117.32369
  phone: 909-884-6700
  external_ids:
    bphc: BPS-H80-017993
  sources:
  - hrsa/health-center-sites
  verified:
    'on': '2026-07-19'
    method: api
