- id: ca/colton/abraham-lincoln-elementary
  name: Abraham Lincoln Elementary
  categories:
  - meal-program
  address: {street: 444 East Olive St., city: Colton, state: ca, zip: '92324'}
  description: Free summer meals for kids and teens (2026 season) — sponsored by COLTON JOINT UNIFIED
    SCHOOL DISTRICT.
  place: 0614890
  geo: {lat: 34.07754, lng: -117.317}
  phone: (909) 580-6651
  external_ids: {usda_master: Cycle 01_CA_SSO_0401}
  sources:
  - usda/summer-meal-sites
  verified: {'on': '2026-07-19', method: api}
- id: ca/colton/arrowhead-regional-medical-center-behavioral-hea
  name: Arrowhead Regional Medical Center Behavioral Health
  categories:
  - su-treatment
  - mh-treatment
  address:
    street: 400 North Pepper Avenue
    city: Colton
    state: ca
    zip: '92324'
  place: 0614890
  geo:
    lat: 34.07423
    lng: -117.35028
  phone: 909-580-1800
  website: https://www.arrowheadregional.org
  sources:
  - samhsa/findtreatment
  verified:
    'on': '2026-07-19'
    method: api
- id: ca/colton/ayala-center-county
  name: Ayala Center-County
  categories:
  - meal-program
  address: {street: '17909 Marygold Ave, Bloomington, Ca 92316', city: Colton, state: ca, zip: '92324'}
  description: Free summer meals for kids and teens (2026 season) — sponsored by COLTON JOINT UNIFIED
    SCHOOL DISTRICT.
  place: 0614890
  geo: {lat: 34.05577, lng: -117.32408}
  phone: (909) 580-6651
  external_ids: {usda_master: Cycle 01_CA_SSO_0398}
  sources:
  - usda/summer-meal-sites
  verified: {'on': '2026-07-19', method: api}
- id: ca/colton/colton-comprehensive-treatment-center
  name: Colton Comprehensive Treatment Center
  categories:
  - su-treatment
  address:
    street: 2275 East Cooley Drive
    city: Colton
    state: ca
    zip: '92324'
  place: 0614890
  geo:
    lat: 34.05942
    lng: -117.28873
  phone: 909-543-0790 x100
  website: https://www.ctcprograms.com/location/colton-comprehensive-treatment-center/
  sources:
  - samhsa/findtreatment
  verified:
    'on': '2026-07-19'
    method: api
- id: ca/colton/colton-san-salvador-cp
  name: Colton San Salvador (CP)
  categories:
  - child-care
  address:
    street: 471 Agua Mansa Rd
    city: Colton
    state: ca
    zip: '92324'
  place: 0614890
  geo:
    lat: 34.05068
    lng: -117.35298
  phone: 909-580-5031
  sources:
  - acf/head-start-locations
  verified:
    'on': '2026-07-19'
    method: api
- id: ca/colton/gonzales-center
  name: Gonzales Center
  categories:
  - meal-program
  address: {street: 650 N. La Cadena Drive, city: Colton, state: ca, zip: '92324'}
  description: Free summer meals for kids and teens (2026 season) — sponsored by COLTON JOINT UNIFIED
    SCHOOL DISTRICT.
  place: 0614890
  geo: {lat: 34.07158, lng: -117.32331}
  phone: (909) 580-6651
  external_ids: {usda_master: Cycle 01_CA_SSO_0117}
  sources:
  - usda/summer-meal-sites
  verified: {'on': '2026-07-19', method: api}
- id: ca/colton/inland-valley-drug-and-alcohol-recovery-services
  name: Inland Valley Drug and Alcohol Recovery Services
  categories:
  - su-treatment
  address:
    street: 1076 Santo Antonio Drive
    city: Colton
    state: ca
    zip: '92324'
  place: 0614890
  geo:
    lat: 34.05156
    lng: -117.30659
  phone: 909-433-9824
  website: https://www.inlandvalleyrecovery.org
  sources:
  - samhsa/findtreatment
  verified:
    'on': '2026-07-19'
    method: api
- id: ca/colton/luque-center
  name: Luque Center
  categories:
  - meal-program
  address: {street: '292 East O Street, Colton, Ca 92324', city: Colton, state: ca, zip: '92324'}
  description: Free summer meals for kids and teens (2026 season) — sponsored by COLTON JOINT UNIFIED
    SCHOOL DISTRICT.
  place: 0614890
  geo: {lat: 34.0594, lng: -117.32209}
  phone: (909) 580-6653
  external_ids: {usda_master: Cycle 08_CA_SSO_0924}
  sources:
  - usda/summer-meal-sites
  verified: {'on': '2026-07-19', method: api}
- id: ca/colton/mccarty-house-addiction-treatment-center
  name: McCarty House Addiction Treatment Center
  categories:
  - su-treatment
  - mh-treatment
  address:
    street: 2511 McCarty Drive
    city: Colton
    state: ca
    zip: '92324'
  place: 0614890
  geo:
    lat: 34.02601
    lng: -117.27549
  phone: 909-920-5102
  website: https://newcreationtreatment.com
  sources:
  - samhsa/findtreatment
  verified:
    'on': '2026-07-19'
    method: api
- id: ca/colton/new-creation-encanto-addiction-treatment-center
  name: New Creation Encanto Addiction Treatment Center
  categories:
  - su-treatment
  - mh-treatment
  address:
    street: 11646 Encanto Lane
    city: Colton
    state: ca
    zip: '92324'
  place: 0614890
  geo:
    lat: 34.04138
    lng: -117.28042
  phone: 909-920-5102
  website: https://newcreationtreatment.com
  sources:
  - samhsa/findtreatment
  verified:
    'on': '2026-07-19'
    method: api
- id: ca/colton/new-creation-prado-addiction-treatment-center
  name: New Creation Prado Addiction Treatment Center
  categories:
  - su-treatment
  - mh-treatment
  address:
    street: 23950 Prado Lane
    city: Colton
    state: ca
    zip: '92324'
  place: 0614890
  geo:
    lat: 34.04136
    lng: -117.28144
  phone: 909-920-5102
  website: https://www.newcreationtreatment.com
  sources:
  - samhsa/findtreatment
  verified:
    'on': '2026-07-19'
    method: api
- id: ca/colton/paul-rogers-elementary
  name: Paul Rogers Elementary
  categories:
  - meal-program
  address: {street: 955 West Laurel St., city: Colton, state: ca, zip: '92324'}
  description: Free summer meals for kids and teens (2026 season) — sponsored by COLTON JOINT UNIFIED
    SCHOOL DISTRICT.
  place: 0614890
  geo: {lat: 34.08143, lng: -117.34001}
  phone: (909) 580-6651
  external_ids: {usda_master: Cycle 01_CA_SSO_0405}
  sources:
  - usda/summer-meal-sites
  verified: {'on': '2026-07-19', method: api}
- id: ca/colton/reche-canyon-elementary
  name: Reche Canyon Elementary
  categories:
  - meal-program
  address: {street: 3101 Canyon Vista Dr., city: Colton, state: ca, zip: '92324'}
  description: Free summer meals for kids and teens (2026 season) — sponsored by COLTON JOINT UNIFIED
    SCHOOL DISTRICT.
  place: 0614890
  geo: {lat: 34.03872, lng: -117.27475}
  phone: (909) 580-6651
  external_ids: {usda_master: Cycle 01_CA_SSO_0404}
  sources:
  - usda/summer-meal-sites
  verified: {'on': '2026-07-19', method: api}
- id: ca/colton/south-coast-community-services-reg-headquarters
  name: South Coast Community Services Reg Headquarters/East Reg Main Ofc
  categories:
  - su-treatment
  - mh-treatment
  address:
    street: 1461 East Cooley Drive
    city: Colton
    state: ca
    zip: '92324'
  place: 0614890
  geo:
    lat: 34.05555
    lng: -117.30418
  phone: 877-527-7227
  website: https://www.sccs4kids.org
  sources:
  - samhsa/findtreatment
  verified:
    'on': '2026-07-19'
    method: api
- id: ca/colton/unicare-community-health-center-colton
  name: Unicare Community Health Center - Colton
  categories:
  - community-health-center
  address:
    street: 308 N La Cadena Dr
    city: Colton
    state: ca
    zip: '92324'
  place: 0614890
  geo:
    lat: 34.06813
    lng: -117.32369
  phone: 909-884-6700
  external_ids:
    bphc: BPS-H80-017993
  sources:
  - hrsa/health-center-sites
  verified:
    'on': '2026-07-19'
    method: api
- id: ca/colton/william-g-jehue-middle
  name: William G. Jehue Middle
  categories:
  - meal-program
  address: {street: 1500 North Eucalyptus Ave., city: Colton, state: ca, zip: '92324'}
  description: Free summer meals for kids and teens (2026 season) — sponsored by RIALTO UNIFIED SCHOOL
    DISTRICT.
  place: 0614890
  geo: {lat: 34.0846, lng: -117.35723}
  phone: (909) 820-7761
  external_ids: {usda_master: Cycle 05_CA_SSO_1467}
  sources:
  - usda/summer-meal-sites
  verified: {'on': '2026-07-19', method: api}
- id: ca/colton/william-mckinley-elementary
  name: William Mckinley Elementary
  categories:
  - meal-program
  address: {street: 600 West Johnston St., city: Colton, state: ca, zip: '92324'}
  description: Free summer meals for kids and teens (2026 season) — sponsored by COLTON JOINT UNIFIED
    SCHOOL DISTRICT.
  place: 0614890
  geo: {lat: 34.08847, lng: -117.3311}
  phone: (909) 580-6651
  external_ids: {usda_master: Cycle 01_CA_SSO_0402}
  sources:
  - usda/summer-meal-sites
  verified: {'on': '2026-07-19', method: api}
- id: ca/colton/woodrow-wilson-elementary
  name: Woodrow Wilson Elementary
  categories:
  - meal-program
  address: {street: 750 South Eighth St., city: Colton, state: ca, zip: '92324'}
  description: Free summer meals for kids and teens (2026 season) — sponsored by COLTON JOINT UNIFIED
    SCHOOL DISTRICT.
  place: 0614890
  geo: {lat: 34.05783, lng: -117.32538}
  phone: (909) 580-6651
  external_ids: {usda_master: Cycle 01_CA_SSO_0407}
  sources:
  - usda/summer-meal-sites
  verified: {'on': '2026-07-19', method: api}
