- id: ca/colusa/ampla-health-colusa-medical-dental
  name: Ampla Health Colusa Medical & Dental
  categories:
  - community-health-center
  address:
    street: 555 Fremont St
    city: Colusa
    state: ca
    zip: '95932'
  place: 0614946
  geo:
    lat: 39.20767
    lng: -122.01128
  phone: 530-458-8635
  website: https://www.amplahealth.org
  external_ids:
    bphc: BPS-H80-001827
  sources:
  - hrsa/health-center-sites
  verified:
    'on': '2026-07-19'
    method: api
- id: ca/colusa/colusa-children-s-center
  name: Colusa Children's Center
  categories:
  - child-care
  address:
    street: 705 6th St
    city: Colusa
    state: ca
    zip: '95932'
  place: 0614946
  geo:
    lat: 39.20944
    lng: -122.01088
  phone: 530-458-2823
  sources:
  - acf/head-start-locations
  verified:
    'on': '2026-07-19'
    method: api
- id: ca/colusa/colusa-county-dept-of-behavioral-health
  name: Colusa County Dept of Behavioral Health
  categories:
  - su-treatment
  - mh-treatment
  address:
    street: 162 East Carson Street
    city: Colusa
    state: ca
    zip: '95932'
  place: 0614946
  geo:
    lat: 39.20535
    lng: -122.00143
  phone: 530-458-0520
  website: https://www.countyofcolusa.org
  sources:
  - samhsa/findtreatment
  verified:
    'on': '2026-07-19'
    method: api
- id: ca/colusa/colusa-early-care-and-education-center
  name: Colusa Early Care and Education Center
  categories:
  - child-care
  address:
    street: 723 6th St
    city: Colusa
    state: ca
    zip: '95932'
  place: 0614946
  geo:
    lat: 39.20912
    lng: -122.01097
  phone: 530-458-2823
  sources:
  - acf/head-start-locations
  verified:
    'on': '2026-07-19'
    method: api
- id: ca/colusa/colusa-preschool-learning-center-b
  name: Colusa Preschool Learning Center B
  categories:
  - child-care
  address:
    street: 723 6th St
    city: Colusa
    state: ca
    zip: '95932'
  place: 0614946
  geo:
    lat: 39.20913
    lng: -122.01099
  phone: 530-458-4458
  sources:
  - acf/head-start-locations
  verified:
    'on': '2026-07-19'
    method: api
- id: ca/colusa/james-m-burchfield-primary
  name: James M. Burchfield Primary
  categories:
  - meal-program
  address: {street: 400 Fremont St., city: Colusa, state: ca, zip: '95932'}
  description: Free summer meals for kids and teens (2026 season) — sponsored by COLUSA UNIFIED SCHOOL
    DISTRICT.
  place: 0614946
  geo: {lat: 39.20746, lng: -122.00894}
  phone: (530) 458-7791
  external_ids: {usda_master: Cycle 10_CA_SSO_2908}
  sources:
  - usda/summer-meal-sites
  verified: {'on': '2026-07-19', method: api}
