- id: ca/covina/altamed-pace-covina
  name: AltaMed PACE - Covina
  categories:
  - community-health-center
  address:
    street: 535 S 2nd Ave
    city: Covina
    state: ca
    zip: '91723'
  place: '0616742'
  geo:
    lat: 34.08007
    lng: -117.8885
  phone: 888-499-9303
  website: https://www.altamed.org
  external_ids:
    bphc: BPS-H80-014352
  sources:
  - hrsa/health-center-sites
  verified:
    'on': '2026-07-19'
    method: api
- id: ca/covina/aurora-charter-oak-hospital
  name: Aurora Charter Oak Hospital
  categories:
  - su-treatment
  - mh-treatment
  address:
    street: 1161 East Covina Boulevard
    city: Covina
    state: ca
    zip: '91724'
  place: '0616742'
  geo:
    lat: 34.10033
    lng: -117.86681
  phone: 626-966-1632
  website: https://www.charteroakhospital.com
  sources:
  - samhsa/findtreatment
  verified:
    'on': '2026-07-19'
    method: api
- id: ca/covina/badillo-early-head-start
  name: Badillo Early Head Start
  categories:
  - child-care
  address:
    street: 100 N 3rd Ave
    city: Covina
    state: ca
    zip: '91723'
  place: '0616742'
  geo:
    lat: 34.08662
    lng: -117.89203
  phone: 626-732-0130
  sources:
  - acf/head-start-locations
  verified:
    'on': '2026-07-19'
    method: api
- id: ca/covina/center-for-integrated-family-health-sober-soluti
  name: Center for Integrated Family/Health Sober Solutions Program
  categories:
  - su-treatment
  - mh-treatment
  address:
    street: 540 South Eremland Drive
    city: Covina
    state: ca
    zip: '91723'
  place: '0616742'
  geo:
    lat: 34.07988
    lng: -117.88607
  phone: 626-966-1577 x300
  website: https://www.cifhs.org
  sources:
  - samhsa/findtreatment
  verified:
    'on': '2026-07-19'
    method: api
- id: ca/covina/charter-oak
  name: Charter Oak
  categories:
  - child-care
  address:
    street: 4949 N Bonnie Cove Ave
    city: Covina
    state: ca
    zip: '91724'
  place: '0616742'
  geo:
    lat: 34.10238
    lng: -117.8551
  phone: 626-967-1775
  sources:
  - acf/head-start-locations
  verified:
    'on': '2026-07-19'
    method: api
- id: ca/covina/covina-development-center
  name: Covina Development Center
  categories:
  - child-care
  address:
    street: 437 W San Bernardino Rd
    street2: Ste 111
    city: Covina
    state: ca
    zip: '91723'
  place: '0616742'
  geo:
    lat: 34.09057
    lng: -117.89753
  phone: 626-967-7153
  sources:
  - acf/head-start-locations
  verified:
    'on': '2026-07-19'
    method: api
- id: ca/covina/emanate-health-inter-community-campus
  name: Emanate Health Inter Community Campus
  categories:
  - mh-treatment
  address:
    street: 210 West San Bernardino Road
    city: Covina
    state: ca
    zip: '91723'
  place: '0616742'
  geo:
    lat: 34.08787
    lng: -117.8935
  phone: 626-938-7650
  website: https://www.emanatehealth.org
  sources:
  - samhsa/findtreatment
  verified:
    'on': '2026-07-19'
    method: api
- id: ca/covina/evchc-covina-health-center
  name: EVCHC - Covina Health Center
  categories:
  - community-health-center
  address:
    street: 276 W College St
    city: Covina
    state: ca
    zip: '91723'
  place: '0616742'
  geo:
    lat: 34.08729
    lng: -117.89421
  phone: 626-919-5724
  website: https://www.evchc.org
  external_ids:
    bphc: BPS-H80-014469
  sources:
  - hrsa/health-center-sites
  verified:
    'on': '2026-07-19'
    method: api
- id: ca/covina/national-council-on-alc-and-drug-dep-esg-and-pv
  name: National Council on Alc and Drug Dep ESG and PV
  categories:
  - su-treatment
  address:
    street: 4626 North Grand Avenue
    city: Covina
    state: ca
    zip: '91724'
  place: '0616742'
  geo:
    lat: 34.09641
    lng: -117.87187
  phone: 626-331-5316 x3101
  website: https://www.ncaddesgpv.org
  sources:
  - samhsa/findtreatment
  verified:
    'on': '2026-07-19'
    method: api
