- id: ca/crescent-city/crescent-city-7th-st
  name: Crescent City - 7th St.
  categories:
  - child-care
  address:
    street: 475 7th St
    city: Crescent City
    state: ca
    zip: '95531'
  place: '0617022'
  geo:
    lat: 41.75339
    lng: -124.20332
  phone: 707-464-6936
  sources:
  - acf/head-start-locations
  verified:
    'on': '2026-07-19'
    method: api
- id: ca/crescent-city/crescent-city-hsg-auth
  name: Crescent City Hsg Auth
  categories:
  - housing-assistance
  address: {street: 235 H St, city: Crescent City, state: ca, zip: '95531'}
  description: Housing Choice Voucher (Section 8) agency
  place: '0617022'
  geo: {lat: 41.7518, lng: -124.19724}
  phone: 707-464-9216
  sources:
  - hud/resource-locator
  verified: {'on': '2026-07-19', method: api}
- id: ca/crescent-city/del-norte-community-health-center
  name: Del Norte Community Health Center
  categories:
  - community-health-center
  address:
    street: 550 E Washington Blvd
    city: Crescent City
    state: ca
    zip: '95531'
  place: '0617022'
  geo:
    lat: 41.77322
    lng: -124.1989
  phone: 707-465-6925
  website: https://www.opendoorhealth.com
  external_ids:
    bphc: BPS-H80-000666
  sources:
  - hrsa/health-center-sites
  verified:
    'on': '2026-07-19'
    method: api
- id: ca/crescent-city/del-norte-mobile-dental
  name: Del Norte Mobile Dental
  categories:
  - community-health-center
  address:
    street: 550 E Washington Blvd
    city: Crescent City
    state: ca
    zip: '95531'
  place: '0617022'
  geo:
    lat: 41.77322
    lng: -124.1989
  phone: 707-465-4636
  external_ids:
    bphc: BPS-H80-019352
  sources:
  - hrsa/health-center-sites
  verified:
    'on': '2026-07-19'
    method: api
- id: ca/crescent-city/del-norte-mobile-health-services
  name: Del Norte Mobile Health Services
  categories:
  - community-health-center
  address:
    street: 550 E Washington Blvd, Suite 100
    city: Crescent City
    state: ca
    zip: '95531'
  place: '0617022'
  geo:
    lat: 41.77322
    lng: -124.1989
  phone: 707-465-6925
  external_ids:
    bphc: BPS-H80-038744
  sources:
  - hrsa/health-center-sites
  verified:
    'on': '2026-07-19'
    method: api
- id: ca/crescent-city/del-norte-usd-sunset-center
  name: Del Norte USD-Sunset Center
  categories:
  - child-care
  address:
    street: 2500 Elk Valley Cross Rd
    city: Crescent City
    state: ca
    zip: '95531'
  place: '0617022'
  geo:
    lat: 41.80921
    lng: -124.15381
  phone: 707-464-0380
  sources:
  - acf/head-start-locations
  verified:
    'on': '2026-07-19'
    method: api
- id: ca/crescent-city/elk-valley-rancheria-head-start
  name: Elk Valley Rancheria Head Start
  categories:
  - child-care
  address:
    street: 2298 Norris Ave
    city: Crescent City
    state: ca
    zip: '95531'
  place: '0617022'
  geo:
    lat: 41.76187
    lng: -124.15954
  phone: 707-464-4499
  sources:
  - acf/head-start-locations
  verified:
    'on': '2026-07-19'
    method: api
- id: ca/crescent-city/open-door-teen-clinic
  name: Open Door Teen Clinic
  categories:
  - community-health-center
  address:
    street: 833 W Washington Blvd
    city: Crescent City
    state: ca
    zip: '95531'
  place: '0617022'
  geo:
    lat: 41.77268
    lng: -124.21177
  phone: 707-495-6925
  external_ids:
    bphc: BPS-H80-019351
  sources:
  - hrsa/health-center-sites
  verified:
    'on': '2026-07-19'
    method: api
- id: ca/crescent-city/st-paul-s-little-free-pantry
  name: St. Paul's Little Free Pantry
  categories:
  - food-pantry
  place: '0617022'
  geo:
    lat: 41.75921
    lng: -124.20242
  external_ids:
    lfp: '291'
  sources:
  - littlefreepantry/map
  verified:
    'on': '2026-07-19'
    method: scrape
- id: ca/crescent-city/united-indian-health-services-behavioral-health
  name: United Indian Health Services Behavioral Health
  categories:
  - su-treatment
  address:
    street: 2298 Norris Avenue
    city: Crescent City
    state: ca
    zip: '95531'
  place: '0617022'
  geo:
    lat: 41.76197
    lng: -124.15906
  phone: 707-464-2919
  website: https://www.unitedindianhealthservices.org
  sources:
  - samhsa/findtreatment
  verified:
    'on': '2026-07-19'
    method: api
