- id: ca/fairfield/a-place-2-grow
  name: A Place 2 Grow
  categories:
  - child-care
  address: {street: 1406 Woolner Ave, city: Fairfield, state: ca, zip: '94533'}
  description: Head Start early childhood program — 5 funded slots; operated by Child Start, Inc..
  place: 0623182
  geo: {lat: 38.24526, lng: -122.05328}
  phone: 707-419-4927
  sources:
  - acf/head-start-locations
  verified: {'on': '2026-07-19', method: api}
- id: ca/fairfield/aldea
  name: Aldea
  categories:
  - su-treatment
  - mh-treatment
  address: {street: 4820 Business Center Drive, city: Fairfield, state: ca, zip: '94534'}
  place: 0623182
  geo: {lat: 38.22134, lng: -122.13929}
  phone: 707-224-8266
  website: https://www.aldeainc.org/services/behavioral-health/behavioral-health
  services:
  - Outpatient
  - Young adults
  - Clients who have experienced trauma
  - Persons experiencing first-episode psychosis
  - Children/adolescents with serious emotional disturbance (SED)
  languages:
  - en
  - es
  eligibility: Serves children/adolescents, young adults, adults.
  cost: varies
  sources:
  - samhsa/findtreatment
  verified: {'on': '2026-07-19', method: api}
- id: ca/fairfield/beck
  name: Beck
  categories:
  - child-care
  address: {street: 275 Beck Ave, city: Fairfield, state: ca, zip: '94533'}
  description: Head Start early childhood program — 20 funded slots; operated by Child Start, Inc..
  place: 0623182
  geo: {lat: 38.23534, lng: -122.06772}
  phone: 707-399-0111
  sources:
  - acf/head-start-locations
  verified: {'on': '2026-07-19', method: api}
- id: ca/fairfield/bethel-community-church
  name: Bethel Community Church
  org: ca/food-bank-of-contra-costa-and-solano
  categories:
  - food-pantry
  address: {street: 600 E Tabor Ave, city: Fairfield, state: ca, zip: '94533'}
  place: 0623182
  geo: {lat: 38.26574, lng: -122.02755}
  external_ids: {ca-food-bank-of-contra-costa-and-solano: '37793'}
  sources:
  - foodbank/ca-food-bank-of-contra-costa-and-solano
  verified: {'on': '2026-07-21', method: scrape}
- id: ca/fairfield/bethel-community-church-of-fairfield
  name: Bethel Community Church of Fairfield
  org: ca/food-bank-of-contra-costa-and-solano
  categories:
  - food-pantry
  address: {street: 600 E Tabor Ave, city: Fairfield, state: ca, zip: '94533'}
  place: 0623182
  geo: {lat: 38.26574, lng: -122.02755}
  phone: 707-427-1415
  external_ids: {ca-food-bank-of-contra-costa-and-solano: '37729'}
  sources:
  - foodbank/ca-food-bank-of-contra-costa-and-solano
  verified: {'on': '2026-07-21', method: scrape}
- id: ca/fairfield/catholic-charities-yolo-solano
  name: Catholic Charities Yolo-Solano
  org: ca/food-bank-of-contra-costa-and-solano
  categories:
  - food-pantry
  address: {street: '823 Jefferson St, Suites A & B', city: Fairfield, state: ca, zip: '94533'}
  place: 0623182
  geo: {lat: 38.25074, lng: -122.04219}
  phone: 707-644-8909
  external_ids: {ca-food-bank-of-contra-costa-and-solano: '37736'}
  sources:
  - foodbank/ca-food-bank-of-contra-costa-and-solano
  verified: {'on': '2026-07-21', method: scrape}
- id: ca/fairfield/circle-of-friends-dover
  name: Circle of Friends - Dover
  categories:
  - child-care
  address: {street: 3330 Dover Ave, city: Fairfield, state: ca, zip: '94533'}
  description: Head Start early childhood program — 8 funded slots; operated by Child Start, Inc..
  place: 0623182
  geo: {lat: 38.28931, lng: -122.02448}
  phone: 707-252-8931
  sources:
  - acf/head-start-locations
  verified: {'on': '2026-07-19', method: api}
- id: ca/fairfield/circle-of-friends-rockville
  name: Circle of Friends - Rockville
  categories:
  - child-care
  address: {street: 3045 Rockville Rd, city: Fairfield, state: ca, zip: '94534'}
  description: Head Start early childhood program — 12 funded slots; operated by Child Start, Inc..
  place: 0623182
  geo: {lat: 38.25035, lng: -122.07176}
  phone: 707-252-8931
  sources:
  - acf/head-start-locations
  verified: {'on': '2026-07-19', method: api}
- id: ca/fairfield/city-of-fairfield
  name: City Of Fairfield
  categories:
  - housing-assistance
  address: {street: 823 Jefferson St Ste B, city: Fairfield, state: ca, zip: '94533'}
  description: Housing Choice Voucher (Section 8) agency
  place: 0623182
  geo: {lat: 38.25074, lng: -122.04166}
  phone: 707-428-7391
  sources:
  - hud/resource-locator
  verified: {'on': '2026-07-19', method: api}
- id: ca/fairfield/communicare-ole-travis
  name: CommuniCare+OLE Travis
  categories:
  - community-health-center
  cost: sliding-scale
  address: {street: '1313 Travis Blvd, Suite A', city: Fairfield, state: ca, zip: '94533'}
  place: 0623182
  geo: {lat: 38.25773, lng: -122.0506}
  phone: 707-254-1774
  external_ids: {bphc: BPS-H80-039647}
  sources:
  - hrsa/health-center-sites
  verified: {'on': '2026-07-19', method: api}
- id: ca/fairfield/county-of-solano-hsg-auth
  name: County Of Solano Hsg Auth
  categories:
  - housing-assistance
  address: {street: 675 Texas St Ste 5500, city: Fairfield, state: ca, zip: '94533'}
  description: Housing Choice Voucher (Section 8) agency
  place: 0623182
  geo: {lat: 38.24905, lng: -122.0418}
  phone: 707-449-5675
  sources:
  - hud/resource-locator
  verified: {'on': '2026-07-19', method: api}
- id: ca/fairfield/dover-elementary
  name: Dover Elementary
  org: ca/food-bank-of-contra-costa-and-solano
  categories:
  - food-pantry
  address: {street: 301 E Alaska Ave, city: Fairfield, state: ca, zip: '94533'}
  place: 0623182
  geo: {lat: 38.27071, lng: -122.03}
  external_ids: {ca-food-bank-of-contra-costa-and-solano: '37792'}
  sources:
  - foodbank/ca-food-bank-of-contra-costa-and-solano
  verified: {'on': '2026-07-21', method: scrape}
- id: ca/fairfield/fairfield-city-church
  name: Fairfield City Church
  org: ca/food-bank-of-contra-costa-and-solano
  categories:
  - food-pantry
  address: {street: 743 E Tabor Ave, city: Fairfield, state: ca, zip: '94533'}
  place: 0623182
  geo: {lat: 38.26471, lng: -122.0231}
  phone: 707-426-2172
  external_ids: {ca-food-bank-of-contra-costa-and-solano: '37832'}
  sources:
  - foodbank/ca-food-bank-of-contra-costa-and-solano
  verified: {'on': '2026-07-21', method: scrape}
- id: ca/fairfield/fairfield-civic-center-library
  name: Fairfield Civic Center Library
  categories:
  - meal-program
  address: {street: 1150 Kentucky Street, city: Fairfield, state: ca, zip: '94533'}
  description: Free summer meals for kids and teens (2026 season) — sponsored by FAIRFIELD-SUISUN UNIFIED
    SCHOOL DISTRICT.
  place: 0623182
  geo: {lat: 38.25149, lng: -122.04797}
  phone: (707) 339-4319
  external_ids: {usda_master: Cycle 06_CA_SSO_0634}
  sources:
  - usda/summer-meal-sites
  verified: {'on': '2026-07-19', method: api}
- id: ca/fairfield/fairfield-family-health-services
  name: Fairfield Family Health Services
  org: ca/food-bank-of-contra-costa-and-solano
  categories:
  - food-pantry
  address: {street: 2101 Courage Dr, city: Fairfield, state: ca, zip: '94533'}
  place: 0623182
  geo: {lat: 38.23699, lng: -122.0679}
  external_ids: {ca-food-bank-of-contra-costa-and-solano: '48267'}
  sources:
  - foodbank/ca-food-bank-of-contra-costa-and-solano
  verified: {'on': '2026-07-21', method: scrape}
- id: ca/fairfield/fairfield-seventh-day-adventist-church
  name: Fairfield Seventh-day Adventist Church
  org: ca/food-bank-of-contra-costa-and-solano
  categories:
  - food-pantry
  address: {street: 1101 E Tabor Ave, city: Fairfield, state: ca, zip: '94533'}
  place: 0623182
  geo: {lat: 38.26464, lng: -122.013}
  external_ids: {ca-food-bank-of-contra-costa-and-solano: '40493'}
  sources:
  - foodbank/ca-food-bank-of-contra-costa-and-solano
  verified: {'on': '2026-07-21', method: scrape}
- id: ca/fairfield/fairfield-seventh-day-adventist-community-servic
  name: Fairfield Seventh-day Adventist Community Services
  org: ca/food-bank-of-contra-costa-and-solano
  categories:
  - food-pantry
  address: {street: 1101 E Tabor Ave, city: Fairfield, state: ca, zip: '94533'}
  place: 0623182
  geo: {lat: 38.26473, lng: -122.0128}
  phone: 707-426-6720
  external_ids: {ca-food-bank-of-contra-costa-and-solano: '37834'}
  sources:
  - foodbank/ca-food-bank-of-contra-costa-and-solano
  verified: {'on': '2026-07-21', method: scrape}
- id: ca/fairfield/fairfield-suisun-adult-school
  name: Fairfield-Suisun Adult School
  org: ca/food-bank-of-contra-costa-and-solano
  categories:
  - food-pantry
  address: {street: 900 Travis Blvd, city: Fairfield, state: ca, zip: '94533'}
  place: 0623182
  geo: {lat: 38.25995, lng: -122.04372}
  phone: 707-421-4155
  external_ids: {ca-food-bank-of-contra-costa-and-solano: '37850'}
  sources:
  - foodbank/ca-food-bank-of-contra-costa-and-solano
  verified: {'on': '2026-07-21', method: scrape}
- id: ca/fairfield/fairfield-suisun-community-canb
  name: Fairfield-Suisun Community (CANB)
  org: ca/food-bank-of-contra-costa-and-solano
  categories:
  - food-pantry
  address: {street: 416 Union Ave, city: Fairfield, state: ca, zip: '94533'}
  place: 0623182
  geo: {lat: 38.2459, lng: -122.0405}
  phone: 707-427-1148
  external_ids: {ca-food-bank-of-contra-costa-and-solano: '37839'}
  sources:
  - foodbank/ca-food-bank-of-contra-costa-and-solano
  verified: {'on': '2026-07-21', method: scrape}
- id: ca/fairfield/family-health-services-fairfield
  name: Family Health Services - Fairfield
  categories:
  - community-health-center
  cost: sliding-scale
  address: {street: 2201 Courage Dr, city: Fairfield, state: ca, zip: '94533'}
  place: 0623182
  geo: {lat: 38.23622, lng: -122.07004}
  phone: 707-784-2120
  website: http://solanocounty.com/depts/ph/fhs/default.asp
  external_ids: {bphc: BPS-H80-009397}
  sources:
  - hrsa/health-center-sites
  verified: {'on': '2026-07-19', method: api}
- id: ca/fairfield/family-health-services-fairfield-dental
  name: Family Health Services - Fairfield Dental
  categories:
  - community-health-center
  cost: sliding-scale
  address: {street: 2101 Courage Dr, city: Fairfield, state: ca, zip: '94533'}
  place: 0623182
  geo: {lat: 38.23661, lng: -122.06764}
  phone: 707-784-2120
  website: http://www.solanocounty.com/depts/ph/fhs/locations_and_hours/fairfield_dental_care.asp
  external_ids: {bphc: BPS-H80-021227}
  sources:
  - hrsa/health-center-sites
  verified: {'on': '2026-07-19', method: api}
- id: ca/fairfield/family-health-services-fairfield-pediatric-clini
  name: Family Health Services - Fairfield Pediatric Clinic
  categories:
  - community-health-center
  cost: sliding-scale
  address: {street: 2101 Courage Dr, city: Fairfield, state: ca, zip: '94533'}
  place: 0623182
  geo: {lat: 38.23661, lng: -122.06764}
  phone: 707-784-2120
  website: http://www.solanocounty.com/depts/ph/fhs/locations_and_hours/fairfield_pediatric_primary_care.asp
  external_ids: {bphc: BPS-H80-005549}
  sources:
  - hrsa/health-center-sites
  verified: {'on': '2026-07-19', method: api}
- id: ca/fairfield/first-baptist-church
  name: First Baptist Church
  categories:
  - meal-program
  address: {street: 1108 Washington St, city: Fairfield, state: ca, zip: '94533'}
  description: Free summer meals for kids and teens (2026 season) — sponsored by FAIRFIELD-SUISUN UNIFIED
    SCHOOL DISTRICT.
  place: 0623182
  geo: {lat: 38.25415, lng: -122.03913}
  phone: (707) 339-4319
  external_ids: {usda_master: Cycle 07_CA_SSO_1912}
  sources:
  - usda/summer-meal-sites
  verified: {'on': '2026-07-19', method: api}
- id: ca/fairfield/golden-hills-education-center
  name: Golden Hills Education Center
  org: ca/food-bank-of-contra-costa-and-solano
  categories:
  - food-pantry
  address: {street: 2460 Clay Bank Rd, city: Fairfield, state: ca, zip: '94533'}
  place: 0623182
  geo: {lat: 38.27405, lng: -122.00379}
  external_ids: {ca-food-bank-of-contra-costa-and-solano: '37794'}
  sources:
  - foodbank/ca-food-bank-of-contra-costa-and-solano
  verified: {'on': '2026-07-21', method: scrape}
- id: ca/fairfield/kidder
  name: Kidder
  categories:
  - child-care
  address: {street: 1657 Kidder Ave, city: Fairfield, state: ca, zip: '94533'}
  description: Head Start early childhood program — 54 funded slots; operated by Child Start, Inc..
  place: 0623182
  geo: {lat: 38.26052, lng: -122.03065}
  phone: 707-430-2968
  sources:
  - acf/head-start-locations
  verified: {'on': '2026-07-19', method: api}
- id: ca/fairfield/liberty-church
  name: Liberty Church
  org: ca/food-bank-of-contra-costa-and-solano
  categories:
  - food-pantry
  address: {street: 2641 N Texas St, city: Fairfield, state: ca, zip: '94533'}
  place: 0623182
  geo: {lat: 38.27704, lng: -122.03817}
  phone: 707-425-9673
  external_ids: {ca-food-bank-of-contra-costa-and-solano: '37871'}
  sources:
  - foodbank/ca-food-bank-of-contra-costa-and-solano
  verified: {'on': '2026-07-21', method: scrape}
- id: ca/fairfield/logic-ministries
  name: LOGIC Ministries
  org: ca/food-bank-of-contra-costa-and-solano
  categories:
  - food-pantry
  address: {street: 533 Jackson St, city: Fairfield, state: ca, zip: '94533'}
  place: 0623182
  geo: {lat: 38.24769, lng: -122.04481}
  phone: 707-310-1259
  external_ids: {ca-food-bank-of-contra-costa-and-solano: '37869'}
  sources:
  - foodbank/ca-food-bank-of-contra-costa-and-solano
  verified: {'on': '2026-07-21', method: scrape}
- id: ca/fairfield/medmark-treatment-centers-fairfield
  name: MedMark Treatment Centers Fairfield
  categories:
  - su-treatment
  address: {street: 1143 Missouri Street, city: Fairfield, state: ca, zip: '94533'}
  place: 0623182
  geo: {lat: 38.24794, lng: -122.04831}
  phone: 707-435-9911
  website: https://medmark.com/locations/california/fairfield
  services:
  - Outpatient
  - Outpatient methadone/buprenorphine or naltrexone treatment
  - Pregnant/postpartum women
  - Clients who have experienced intimate partner violence, domestic violence
  languages:
  - en
  - es
  eligibility: Serves children/adolescents, young adults, adults, seniors.
  cost: varies
  sources:
  - samhsa/findtreatment
  verified: {'on': '2026-07-19', method: api}
- id: ca/fairfield/mobile-dental-clinic
  name: Mobile Dental Clinic
  categories:
  - community-health-center
  cost: sliding-scale
  address: {street: 3255 N Texas St, city: Fairfield, state: ca, zip: '94533'}
  place: 0623182
  geo: {lat: 38.28804, lng: -122.03416}
  phone: 707-784-2120
  website: http://www.solanocounty.com/depts/ph/fhs/locations_and_hours/mobile_dental_center.asp
  external_ids: {bphc: BPS-H80-010607}
  sources:
  - hrsa/health-center-sites
  verified: {'on': '2026-07-19', method: api}
- id: ca/fairfield/mobile-medical-clinic
  name: Mobile Medical Clinic
  categories:
  - community-health-center
  cost: sliding-scale
  address: {street: 3255 N Texas St, city: Fairfield, state: ca, zip: '94533'}
  place: 0623182
  geo: {lat: 38.28804, lng: -122.03416}
  phone: 707-784-2120
  external_ids: {bphc: BPS-H80-015167}
  sources:
  - hrsa/health-center-sites
  verified: {'on': '2026-07-19', method: api}
- id: ca/fairfield/mount-calvary-baptist-church
  name: Mount Calvary Baptist Church
  org: ca/food-bank-of-contra-costa-and-solano
  categories:
  - food-pantry
  address: {street: 1735 Enterprise Dr Bldg 3, city: Fairfield, state: ca, zip: '94533'}
  place: 0623182
  geo: {lat: 38.24174, lng: -122.06053}
  phone: 707-425-1849
  external_ids: {ca-food-bank-of-contra-costa-and-solano: '37883'}
  sources:
  - foodbank/ca-food-bank-of-contra-costa-and-solano
  verified: {'on': '2026-07-21', method: scrape}
- id: ca/fairfield/mount-carmel-svdp
  name: Mount Carmel (SVdP)
  org: ca/food-bank-of-contra-costa-and-solano
  categories:
  - food-pantry
  address: {street: 2700 Dover Ave, city: Fairfield, state: ca, zip: '94533'}
  place: 0623182
  geo: {lat: 38.27913, lng: -122.02372}
  phone: 707-422-5209
  external_ids: {ca-food-bank-of-contra-costa-and-solano: '37886'}
  sources:
  - foodbank/ca-food-bank-of-contra-costa-and-solano
  verified: {'on': '2026-07-21', method: scrape}
- id: ca/fairfield/ole-health-east-fairfield
  name: OLE Health East Fairfield
  categories:
  - community-health-center
  cost: sliding-scale
  address: {street: '1101 B Gale Wilson Blvd, Ste 101C', city: Fairfield, state: ca, zip: '94533'}
  place: 0623182
  geo: {lat: 38.26106, lng: -122.04625}
  phone: 707-419-8990
  external_ids: {bphc: BPS-H80-024740}
  sources:
  - hrsa/health-center-sites
  verified: {'on': '2026-07-19', method: api}
- id: ca/fairfield/ole-health-fairfield
  name: OLE Health - Fairfield
  categories:
  - community-health-center
  cost: sliding-scale
  address: {street: '470 Chadbourne Rd, Suite A', city: Fairfield, state: ca, zip: '94534'}
  place: 0623182
  geo: {lat: 38.23477, lng: -122.08307}
  phone: 707-419-8989
  external_ids: {bphc: BPS-H80-015226}
  sources:
  - hrsa/health-center-sites
  verified: {'on': '2026-07-19', method: api}
- id: ca/fairfield/operation-rooftop
  name: Operation Rooftop
  org: ca/food-bank-of-contra-costa-and-solano
  categories:
  - food-pantry
  address: {street: 393 Watt Dr, city: Fairfield, state: ca, zip: '94534'}
  place: 0623182
  geo: {lat: 38.20646, lng: -122.14775}
  phone: 801-209-7011
  external_ids: {ca-food-bank-of-contra-costa-and-solano: '48935'}
  sources:
  - foodbank/ca-food-bank-of-contra-costa-and-solano
  verified: {'on': '2026-07-21', method: scrape}
- id: ca/fairfield/our-lady-of-mount-carmel
  name: Our Lady of Mount Carmel
  org: ca/food-bank-of-contra-costa-and-solano
  categories:
  - food-pantry
  address: {street: 2700 Dover Ave, city: Fairfield, state: ca, zip: '94533'}
  place: 0623182
  geo: {lat: 38.27925, lng: -122.02356}
  external_ids: {ca-food-bank-of-contra-costa-and-solano: '42158'}
  sources:
  - foodbank/ca-food-bank-of-contra-costa-and-solano
  verified: {'on': '2026-07-21', method: scrape}
- id: ca/fairfield/pacific-estates
  name: Pacific Estates
  categories:
  - meal-program
  address: {street: 300 Pacific Ave, city: Fairfield, state: ca, zip: '94533'}
  description: Free summer meals for kids and teens (2026 season) — sponsored by FAIRFIELD-SUISUN UNIFIED
    SCHOOL DISTRICT.
  place: 0623182
  geo: {lat: 38.26888, lng: -122.03709}
  phone: (707) 339-4319
  external_ids: {usda_master: Cycle 07_CA_SSO_1715}
  sources:
  - usda/summer-meal-sites
  verified: {'on': '2026-07-19', method: api}
- id: ca/fairfield/pal-center
  name: Pal Center
  categories:
  - meal-program
  address: {street: 2250 N. Texas Street, city: Fairfield, state: ca, zip: '94533'}
  description: Free summer meals for kids and teens (2026 season) — sponsored by FAIRFIELD-SUISUN UNIFIED
    SCHOOL DISTRICT.
  place: 0623182
  geo: {lat: 38.27001, lng: -122.03412}
  phone: (707) 339-4319
  external_ids: {usda_master: Cycle 07_CA_SSO_0264}
  sources:
  - usda/summer-meal-sites
  verified: {'on': '2026-07-19', method: api}
- id: ca/fairfield/parkway-plaza
  name: Parkway Plaza
  org: ca/food-bank-of-contra-costa-and-solano
  categories:
  - food-pantry
  address: {street: 188 E Alaska Ave, city: Fairfield, state: ca, zip: '94533'}
  place: 0623182
  geo: {lat: 38.27171, lng: -122.0325}
  phone: 925-676-7543
  external_ids: {ca-food-bank-of-contra-costa-and-solano: '44982'}
  sources:
  - foodbank/ca-food-bank-of-contra-costa-and-solano
  verified: {'on': '2026-07-21', method: scrape}
- id: ca/fairfield/rockville-presbyterian-fellowship-at-salvation-a
  name: Rockville Presbyterian Fellowship (at Salvation Army)
  org: ca/food-bank-of-contra-costa-and-solano
  categories:
  - food-pantry
  address: {street: 1200 Missouri St, city: Fairfield, state: ca, zip: '94533'}
  place: 0623182
  geo: {lat: 38.24836, lng: -122.04886}
  phone: 707-439-7980
  external_ids: {ca-food-bank-of-contra-costa-and-solano: '37910'}
  sources:
  - foodbank/ca-food-bank-of-contra-costa-and-solano
  verified: {'on': '2026-07-21', method: scrape}
- id: ca/fairfield/rockwell-manor-apartments
  name: Rockwell Manor Apartments
  categories:
  - meal-program
  address: {street: 693 E. Tabor Ave, city: Fairfield, state: ca, zip: '94533'}
  description: Free summer meals for kids and teens (2026 season) — sponsored by FAIRFIELD-SUISUN UNIFIED
    SCHOOL DISTRICT.
  place: 0623182
  geo: {lat: 38.26526, lng: -122.02644}
  phone: (707) 339-4319
  external_ids: {usda_master: Cycle 06_CA_SSO_1274}
  sources:
  - usda/summer-meal-sites
  verified: {'on': '2026-07-19', method: api}
- id: ca/fairfield/salvation-army-fairfield
  name: Salvation Army Fairfield
  org: ca/food-bank-of-contra-costa-and-solano
  categories:
  - food-pantry
  address: {street: 1216 Missouri St, city: Fairfield, state: ca, zip: '94553'}
  place: 0623182
  geo: {lat: 38.24834, lng: -122.04883}
  external_ids: {ca-food-bank-of-contra-costa-and-solano: '37788'}
  sources:
  - foodbank/ca-food-bank-of-contra-costa-and-solano
  verified: {'on': '2026-07-21', method: scrape}
- id: ca/fairfield/salvation-army-fairfield-2
  name: Salvation Army Fairfield
  org: ca/food-bank-of-contra-costa-and-solano
  categories:
  - food-pantry
  address: {street: 1200 Missouri St, city: Fairfield, state: ca, zip: '94533'}
  place: 0623182
  geo: {lat: 38.24836, lng: -122.04886}
  phone: 707-439-7982
  external_ids: {ca-food-bank-of-contra-costa-and-solano: '37917'}
  sources:
  - foodbank/ca-food-bank-of-contra-costa-and-solano
  verified: {'on': '2026-07-21', method: scrape}
- id: ca/fairfield/samoan-christian-fellowship
  name: Samoan Christian Fellowship
  org: ca/food-bank-of-contra-costa-and-solano
  categories:
  - food-pantry
  address: {street: 1200 Western St, city: Fairfield, state: ca, zip: '94533'}
  place: 0623182
  geo: {lat: 38.27459, lng: -122.00805}
  phone: 707-428-4221
  external_ids: {ca-food-bank-of-contra-costa-and-solano: '37918'}
  sources:
  - foodbank/ca-food-bank-of-contra-costa-and-solano
  verified: {'on': '2026-07-21', method: scrape}
- id: ca/fairfield/soco-early-learning-center
  name: SOCO Early Learning Center
  categories:
  - child-care
  address: {street: 4000 Suisun Valley Rd, street2: Buildings 200, city: Fairfield, state: ca, zip: '94534'}
  description: Head Start early childhood program — 12 funded slots; operated by Child Start, Inc..
  place: 0623182
  geo: {lat: 38.23574, lng: -122.12269}
  phone: 707-864-7183
  sources:
  - acf/head-start-locations
  verified: {'on': '2026-07-19', method: api}
- id: ca/fairfield/solano-county-behavioral-health-fairfield-adult
  name: Solano County Behavioral Health Fairfield Adult BH Outpt Clinic
  categories:
  - su-treatment
  - mh-treatment
  address: {street: 2101 Courage Drive, city: Fairfield, state: ca, zip: '94533'}
  place: 0623182
  geo: {lat: 38.23661, lng: -122.06767}
  phone: 707-784-2080
  website: https://www.solanocounty.gov/government/health-social-services-hss/behavioral-health
  services:
  - Outpatient
  - Seniors or older adults
  - Criminal justice (other than DUI/DWI)/Forensic clients
  - Clients with co-occurring mental and substance use disorders
  - Persons experiencing first-episode psychosis
  - Persons  18 and older with serious mental illness (SMI)
  languages:
  - en
  - es
  eligibility: Serves young adults, adults, seniors.
  cost: varies
  sources:
  - samhsa/findtreatment
  verified: {'on': '2026-07-19', method: api}
- id: ca/fairfield/solano-county-health-and-social-services
  name: Solano County Health And Social Services
  categories:
  - meal-program
  address: {street: 2101 Courage Dr., city: Fairfield, state: ca, zip: '94533'}
  description: Free summer meals for kids and teens (2026 season) — sponsored by FAIRFIELD-SUISUN UNIFIED
    SCHOOL DISTRICT.
  place: 0623182
  geo: {lat: 38.23739, lng: -122.06763}
  phone: (707) 339-4319
  external_ids: {usda_master: Cycle 06_CA_SSO_0721}
  sources:
  - usda/summer-meal-sites
  verified: {'on': '2026-07-19', method: api}
- id: ca/fairfield/solano-county-vet-center-outstation
  name: Solano County Vet Center Outstation
  categories:
  - vet-center
  address: {street: '420 Executive Ct, North Suite A', city: Fairfield, state: ca, zip: '94534'}
  place: 0623182
  geo: {lat: 38.23044, lng: -122.12401}
  phone: 707-864-5360
  website: https://www.va.gov/concord-vet-center/locations/#solano-county-vet-center-outst
  hours:
  - {days: [mon, tue, wed, thu, fri], open: '08:00', close: '16:30'}
  external_ids: {va: vc_6021OS}
  sources:
  - va/facilities-api
  verified: {'on': '2026-07-19', method: api}
- id: ca/fairfield/st-mark-s-lutheran-church
  name: St. Mark's Lutheran Church
  org: ca/food-bank-of-contra-costa-and-solano
  categories:
  - food-pantry
  address: {street: 1600 Union Ave, city: Fairfield, state: ca, zip: '94533'}
  place: 0623182
  geo: {lat: 38.25931, lng: -122.04002}
  external_ids: {ca-food-bank-of-contra-costa-and-solano: '37950'}
  sources:
  - foodbank/ca-food-bank-of-contra-costa-and-solano
  verified: {'on': '2026-07-21', method: scrape}
- id: ca/fairfield/st-stephens-cme-church-feed-my-sheep
  name: St. Stephens CME Church Feed My Sheep
  org: ca/food-bank-of-contra-costa-and-solano
  categories:
  - food-pantry
  address: {street: 2301 Union Ave, city: Fairfield, state: ca, zip: '94533'}
  place: 0623182
  geo: {lat: 38.27109, lng: -122.04126}
  external_ids: {ca-food-bank-of-contra-costa-and-solano: '37985'}
  sources:
  - foodbank/ca-food-bank-of-contra-costa-and-solano
  verified: {'on': '2026-07-21', method: scrape}
- id: ca/fairfield/suisun
  name: Suisun
  categories:
  - child-care
  address: {street: 1261 Travis Blvd, street2: Ste 130, city: Fairfield, state: ca, zip: '94533'}
  description: Head Start early childhood program — 15 funded slots; operated by Child Start, Inc..
  place: 0623182
  geo: {lat: 38.25773, lng: -122.04952}
  phone: 707-427-6135
  sources:
  - acf/head-start-locations
  verified: {'on': '2026-07-19', method: api}
- id: ca/fairfield/sunset-creek
  name: Sunset Creek
  categories:
  - child-care
  address: {street: 840 E Travis Blvd, city: Fairfield, state: ca, zip: '94533'}
  description: Head Start early childhood program — 14 funded slots; operated by Child Start, Inc..
  place: 0623182
  geo: {lat: 38.25882, lng: -122.02193}
  phone: 707-427-7335
  sources:
  - acf/head-start-locations
  verified: {'on': '2026-07-19', method: api}
- id: ca/fairfield/tabor
  name: Tabor
  categories:
  - child-care
  address: {street: 83 Tabor Ave, city: Fairfield, state: ca, zip: '94533'}
  description: Head Start early childhood program — 15 funded slots; operated by Child Start, Inc..
  place: 0623182
  geo: {lat: 38.26834, lng: -122.03669}
  phone: 707-207-5108
  sources:
  - acf/head-start-locations
  verified: {'on': '2026-07-19', method: api}
- id: ca/fairfield/taylor-made-academy
  name: Taylor Made Academy
  categories:
  - child-care
  address: {street: 600 E Tabor Ave, city: Fairfield, state: ca, zip: '94533'}
  description: Head Start early childhood program — 8 funded slots; operated by Child Start, Inc..
  place: 0623182
  geo: {lat: 38.26574, lng: -122.02754}
  phone: 707-319-7774
  sources:
  - acf/head-start-locations
  verified: {'on': '2026-07-19', method: api}
- id: ca/fairfield/true-love-baptist-church
  name: True Love Baptist Church
  org: ca/food-bank-of-contra-costa-and-solano
  categories:
  - food-pantry
  address: {street: 1956 Pennsylvania Ave, city: Fairfield, state: ca, zip: '94533'}
  place: 0623182
  geo: {lat: 38.26457, lng: -122.04953}
  external_ids: {ca-food-bank-of-contra-costa-and-solano: '37787'}
  sources:
  - foodbank/ca-food-bank-of-contra-costa-and-solano
  verified: {'on': '2026-07-21', method: scrape}
- id: ca/fairfield/wic-fairfield
  name: WIC Fairfield
  org: ca/food-bank-of-contra-costa-and-solano
  categories:
  - food-pantry
  address: {street: 2101 Courage Dr, city: Fairfield, state: ca, zip: '94533'}
  place: 0623182
  geo: {lat: 38.23649, lng: -122.06772}
  external_ids: {ca-food-bank-of-contra-costa-and-solano: '37790'}
  sources:
  - foodbank/ca-food-bank-of-contra-costa-and-solano
  verified: {'on': '2026-07-21', method: scrape}
