- id: ca/fort-bragg/5601-fort-bragg-center
  name: 5601 Fort Bragg Center
  categories:
  - child-care
  address:
    street: 330 S Lincoln St
    city: Fort Bragg
    state: ca
    zip: '95437'
  place: 0625058
  geo:
    lat: 39.43759
    lng: -123.79553
  phone: 707-964-5961
  sources:
  - acf/head-start-locations
  verified:
    'on': '2026-07-19'
    method: api
- id: ca/fort-bragg/mcc-goes-to-school
  name: MCC Goes to School
  categories:
  - community-health-center
  address:
    street: 208 Dana St
    city: Fort Bragg
    state: ca
    zip: '95437'
  place: 0625058
  geo:
    lat: 39.44006
    lng: -123.78857
  phone: 707-964-1251
  website: https://www.mccinc.org
  external_ids:
    bphc: BPS-H80-032981
  sources:
  - hrsa/health-center-sites
  verified:
    'on': '2026-07-19'
    method: api
- id: ca/fort-bragg/mcc-street-medicine-clinic
  name: MCC Street Medicine Clinic
  categories:
  - community-health-center
  address:
    street: 101 N Franklin St
    city: Fort Bragg
    state: ca
    zip: '95437'
  place: 0625058
  geo:
    lat: 39.44188
    lng: -123.80493
  phone: 707-964-1251
  website: https://www.mccinc.org
  external_ids:
    bphc: BPS-H80-032782
  sources:
  - hrsa/health-center-sites
  verified:
    'on': '2026-07-19'
    method: api
- id: ca/fort-bragg/mendocino-coast-clinics
  name: Mendocino Coast Clinics
  categories:
  - community-health-center
  address:
    street: 855 Sequoia Cir
    city: Fort Bragg
    state: ca
    zip: '95437'
  place: 0625058
  geo:
    lat: 39.43013
    lng: -123.80255
  phone: 707-964-1251
  website: https://www.mendocinocoastclinics.org
  external_ids:
    bphc: BPS-H80-000807
  sources:
  - hrsa/health-center-sites
  verified:
    'on': '2026-07-19'
    method: api
- id: ca/fort-bragg/mendocino-coast-clinics-family-wellness-center
  name: Mendocino Coast Clinics Family Wellness Center
  categories:
  - community-health-center
  address:
    street: 510 Cypress St, Ste C
    city: Fort Bragg
    state: ca
    zip: '95437'
  place: 0625058
  geo:
    lat: 39.43258
    lng: -123.79894
  phone: 707-964-1251
  external_ids:
    bphc: BPS-H80-021938
  sources:
  - hrsa/health-center-sites
  verified:
    'on': '2026-07-19'
    method: api
- id: ca/fort-bragg/mendocino-coast-clinics-inc
  name: Mendocino Coast Clinics Inc
  categories:
  - su-treatment
  - mh-treatment
  address:
    street: 205 South Street
    city: Fort Bragg
    state: ca
    zip: '95437'
  place: 0625058
  geo:
    lat: 39.43037
    lng: -123.80309
  phone: 707-969-7950
  website: https://www.mendocinocoastclinics.org
  sources:
  - samhsa/findtreatment
  verified:
    'on': '2026-07-19'
    method: api
- id: ca/fort-bragg/mendocino-coast-clinics-inc-2
  name: MENDOCINO COAST CLINICS, INC.
  categories:
  - community-health-center
  address:
    street: 205 South St
    city: Fort Bragg
    state: ca
    zip: '95437'
  place: 0625058
  geo:
    lat: 39.43045
    lng: -123.80317
  phone: 707-964-1251
  website: https://www.mendocinocoastclinics.org
  external_ids:
    bphc: BPS-H80-002154
  sources:
  - hrsa/health-center-sites
  verified:
    'on': '2026-07-19'
    method: api
- id: ca/fort-bragg/mendocino-coast-clinics-inc-3
  name: Mendocino Coast Clinics, Inc.
  categories:
  - community-health-center
  address:
    street: 510 Cypress St STE D
    city: Fort Bragg
    state: ca
    zip: '95437'
  place: 0625058
  geo:
    lat: 39.43258
    lng: -123.79894
  phone: 707-964-1251
  external_ids:
    bphc: BPS-H80-010864
  sources:
  - hrsa/health-center-sites
  verified:
    'on': '2026-07-19'
    method: api
- id: ca/fort-bragg/mendocino-coast-clinics-medication-assisted-trea
  name: Mendocino Coast Clinics Medication-Assisted Treatment & Support Clinic
  categories:
  - community-health-center
  address:
    street: 690 S Main St
    city: Fort Bragg
    state: ca
    zip: '95437'
  place: 0625058
  geo:
    lat: 39.43286
    lng: -123.8057
  phone: 707-964-1251
  external_ids:
    bphc: BPS-H80-034530
  sources:
  - hrsa/health-center-sites
  verified:
    'on': '2026-07-19'
    method: api
- id: ca/fort-bragg/mendocino-county-substance-use-disorders-treatme
  name: Mendocino County Substance Use Disorders Treatment
  categories:
  - su-treatment
  address:
    street: 790 South Franklin Street
    city: Fort Bragg
    state: ca
    zip: '95437'
  place: 0625058
  geo:
    lat: 39.43052
    lng: -123.80394
  phone: 707-961-2665
  website: https://www.mendocinocounty.gov/bhrs
  sources:
  - samhsa/findtreatment
  verified:
    'on': '2026-07-19'
    method: api
- id: ca/fort-bragg/redwood-community-services-inc-behavioral-health
  name: Redwood Community Services Inc Behavioral Health Services
  categories:
  - su-treatment
  - mh-treatment
  address:
    street: 32670 Highway 20
    city: Fort Bragg
    state: ca
    zip: '95437'
  place: 0625058
  geo:
    lat: 39.4196
    lng: -123.80261
  phone: 707-467-2010
  website: https://www.redwoodcommunityservices.org
  sources:
  - samhsa/findtreatment
  verified:
    'on': '2026-07-19'
    method: api
