- id: ca/fullerton/andrews-center
  name: Andrews Center
  categories:
  - child-care
  address:
    street: 1231 E Chapman Ave
    city: Fullerton
    state: ca
    zip: '92831'
  place: 0628000
  geo:
    lat: 33.87464
    lng: -117.90513
  phone: 714-888-1201
  sources:
  - acf/head-start-locations
  verified:
    'on': '2026-07-19'
    method: api
- id: ca/fullerton/child-guidance-center-inc-fullerton-cgc
  name: Child Guidance Center Inc Fullerton CGC
  categories:
  - su-treatment
  - mh-treatment
  address:
    street: 680 Langsdorf Drive
    city: Fullerton
    state: ca
    zip: '92831'
  place: 0628000
  geo:
    lat: 33.87666
    lng: -117.88194
  phone: 714-871-9264
  website: https://www.childguidancecenteroc.org
  sources:
  - samhsa/findtreatment
  verified:
    'on': '2026-07-19'
    method: api
- id: ca/fullerton/county-of-orange-healthcare-agency-adult-and-old
  name: County of Orange Healthcare Agency Adult and Older Adult Behav Health PAC
  categories:
  - su-treatment
  - mh-treatment
  address:
    street: 401 East Imperial Highway
    city: Fullerton
    state: ca
    zip: '92835'
  place: 0628000
  geo:
    lat: 33.91782
    lng: -117.92595
  phone: 714-447-7000
  website: https://www.ochealthinfo.com/bhs
  sources:
  - samhsa/findtreatment
  verified:
    'on': '2026-07-19'
    method: api
- id: ca/fullerton/family-health-matters-center-for-health
  name: Family Health Matters Center for Health
  categories:
  - community-health-center
  address:
    street: 3535 W Commonwealth Ave
    city: Fullerton
    state: ca
    zip: '92833'
  place: 0628000
  geo:
    lat: 33.87005
    lng: -117.97507
  phone: 714-411-0411
  external_ids:
    bphc: BPS-H80-041905
  sources:
  - hrsa/health-center-sites
  verified:
    'on': '2026-07-19'
    method: api
- id: ca/fullerton/fullerton-center
  name: Fullerton Center
  categories:
  - child-care
  address:
    street: 341 S Courtney Ave
    city: Fullerton
    state: ca
    zip: '92833'
  place: 0628000
  geo:
    lat: 33.86586
    lng: -117.96415
  phone: 714-447-3005
  sources:
  - acf/head-start-locations
  verified:
    'on': '2026-07-19'
    method: api
- id: ca/fullerton/st-jude-neighborhood-health-centers
  name: St. Jude Neighborhood Health Centers
  categories:
  - community-health-center
  address:
    street: 731 S Highland Ave
    city: Fullerton
    state: ca
    zip: '92832'
  place: 0628000
  geo:
    lat: 33.86361
    lng: -117.92957
  phone: 714-446-5100
  external_ids:
    bphc: BPS-H80-013047
  sources:
  - hrsa/health-center-sites
  verified:
    'on': '2026-07-19'
    method: api
- id: ca/fullerton/st-jude-neighborhood-health-centers-mobile-clini
  name: St. Jude Neighborhood Health Centers' Mobile Clinic
  categories:
  - community-health-center
  address:
    street: 731 S Highland Ave
    city: Fullerton
    state: ca
    zip: '92832'
  place: 0628000
  geo:
    lat: 33.86361
    lng: -117.92957
  phone: 714-446-5100
  external_ids:
    bphc: BPS-H80-013567
  sources:
  - hrsa/health-center-sites
  verified:
    'on': '2026-07-19'
    method: api
- id: ca/fullerton/topaz-center
  name: Topaz Center
  categories:
  - child-care
  address:
    street: 1600 Sapphire Rd
    city: Fullerton
    state: ca
    zip: '92831'
  place: 0628000
  geo:
    lat: 33.88586
    lng: -117.87093
  phone: 714-854-1534
  sources:
  - acf/head-start-locations
  verified:
    'on': '2026-07-19'
    method: api
- id: ca/fullerton/topaz-school-clinic
  name: Topaz School Clinic
  categories:
  - community-health-center
  address:
    street: 3232 Topaz Ln
    city: Fullerton
    state: ca
    zip: '92831'
  place: 0628000
  geo:
    lat: 33.8854
    lng: -117.86968
  phone: 714-446-5100
  external_ids:
    bphc: BPS-H80-014709
  sources:
  - hrsa/health-center-sites
  verified:
    'on': '2026-07-19'
    method: api
- id: ca/fullerton/western-pacific-med-corp-western-pacific-fullert
  name: Western Pacific Med Corp Western Pacific Fullerton
  categories:
  - su-treatment
  address:
    street: 218 East Commonwealth Avenue
    city: Fullerton
    state: ca
    zip: '92832'
  place: 0628000
  geo:
    lat: 33.87017
    lng: -117.92117
  phone: 818-956-3737
  website: https://westpacmed.com/
  sources:
  - samhsa/findtreatment
  verified:
    'on': '2026-07-19'
    method: api
- id: ca/fullerton/western-pacific-re-hab-western-pacific-fullerton
  name: Western Pacific Re Hab Western Pacific Fullerton RH
  categories:
  - su-treatment
  address:
    street: 218 East Commonwealth Avenue
    city: Fullerton
    state: ca
    zip: '92832'
  place: 0628000
  geo:
    lat: 33.87015
    lng: -117.92114
  phone: 818-956-3737
  website: https://westpacmed.com/
  sources:
  - samhsa/findtreatment
  verified:
    'on': '2026-07-19'
    method: api
