- id: ca/guadalupe/bonita
  name: Bonita
  categories:
  - child-care
  address: {street: 4685 11th St, city: Guadalupe, state: ca, zip: '93434'}
  description: Head Start early childhood program — 28 funded slots; operated by Community Action Partnership
    of San Luis Obispo Co.
  place: '0631414'
  geo: {lat: 34.9734, lng: -120.57287}
  phone: 805-343-0324
  sources:
  - acf/head-start-locations
  verified: {'on': '2026-07-19', method: api}
- id: ca/guadalupe/cac-guadalupe-center
  name: CAC Guadalupe Center
  categories:
  - child-care
  address: {street: 130 Tognazzini Ave, city: Guadalupe, state: ca, zip: '93434'}
  description: Head Start early childhood program — 16 funded slots; operated by Community Action Commision
    of Santa Barbara County.
  place: '0631414'
  geo: {lat: 34.95822, lng: -120.57632}
  phone: 805-343-5598
  sources:
  - acf/head-start-locations
  verified: {'on': '2026-07-19', method: api}
- id: ca/guadalupe/cac-maggie-espinoza-center
  name: CAC Maggie Espinoza Center
  categories:
  - child-care
  address: {street: 120 Tognazzini Ave, city: Guadalupe, state: ca, zip: '93434'}
  description: Head Start early childhood program — 14 funded slots; operated by Community Action Commision
    of Santa Barbara County.
  place: '0631414'
  geo: {lat: 34.95853, lng: -120.57643}
  phone: 805-343-1670
  sources:
  - acf/head-start-locations
  verified: {'on': '2026-07-19', method: api}
- id: ca/guadalupe/community-health-centers-guadalupe
  name: COMMUNITY HEALTH CENTERS GUADALUPE
  categories:
  - community-health-center
  cost: sliding-scale
  address: {street: '4723 W Main St, Suite H', city: Guadalupe, state: ca, zip: '93434'}
  place: '0631414'
  geo: {lat: 34.95794, lng: -120.57836}
  phone: 805-343-5577
  website: https://www.chccc.org
  external_ids: {bphc: BPS-H80-019432}
  sources:
  - hrsa/health-center-sites
  verified: {'on': '2026-07-19', method: api}
- id: ca/guadalupe/guadalupe-jr-high
  name: Guadalupe Jr High
  categories:
  - family-youth
  description: Boys & Girls Club
  address: {street: 351 Arroyo Seco Road, city: Guadalupe, state: ca, zip: '93434'}
  geo: {lat: 34.95267, lng: -120.5653}
  place: '0631414'
  website: http://www.bgccentralcoast.org/
  external_ids: {bgca_site: '29694', bgca_org: '10797'}
  sources:
  - bgca/find-a-club
  verified: {'on': '2026-07-21', method: api}
- id: ca/guadalupe/mary-buren-site
  name: Mary Buren Site
  categories:
  - family-youth
  description: Boys & Girls Club
  address: {street: 1050 PERALTA ST, city: Guadalupe, state: ca, zip: '93434'}
  geo: {lat: 34.9697, lng: -120.56712}
  place: '0631414'
  phone: 805-343-2411
  website: http://www.bgccentralcoast.org/
  services:
  - Teen center
  - Summer programs
  - Meals
  external_ids: {bgca_site: '8579', bgca_org: '10797'}
  sources:
  - bgca/find-a-club
  verified: {'on': '2026-07-21', method: api}
- id: ca/guadalupe/mckenzie
  name: McKenzie
  categories:
  - family-youth
  description: Boys & Girls Club
  address: {street: 4710 W MAIN ST, city: Guadalupe, state: ca, zip: '93434'}
  geo: {lat: 34.95671, lng: -120.57791}
  place: '0631414'
  phone: 805-714-7970
  website: http://www.bgccentralcoast.org/
  services:
  - Teen center
  - Meals
  external_ids: {bgca_site: '8824', bgca_org: '10797'}
  sources:
  - bgca/find-a-club
  verified: {'on': '2026-07-21', method: api}
- id: ca/guadalupe/ron-estabillo-clubhouse
  name: Ron Estabillo Clubhouse
  categories:
  - family-youth
  description: Boys & Girls Club
  address: {street: 4689 11th St, city: Guadalupe, state: ca, zip: '93434'}
  geo: {lat: 34.97414, lng: -120.57306}
  place: '0631414'
  phone: 805-343-7813
  website: http://www.bgccentralcoast.org/
  services:
  - Teen center
  - Summer programs
  - Meals
  external_ids: {bgca_site: '2255', bgca_org: '10797'}
  sources:
  - bgca/find-a-club
  verified: {'on': '2026-07-21', method: api}
