- id: ca/guerneville/guerneville-elementary-school
  name: Guerneville Elementary School
  categories:
  - meal-program
  address: {street: 14630 Armstrong Woods Road, city: Guerneville, state: ca, zip: '95446'}
  description: Free summer meals for kids and teens (2026 season) — sponsored by BOYS & GIRLS CLUBS OF
    SONOMA-MARIN.
  place: '0631470'
  geo: {lat: 38.51111, lng: -122.99548}
  phone: (707) 849-9772
  external_ids: {usda_master: Cycle 04_CA_SFSP_0373}
  sources:
  - usda/summer-meal-sites
  verified: {'on': '2026-07-19', method: api}
- id: ca/guerneville/guerneville-library
  name: Guerneville Library
  categories:
  - meal-program
  address: {street: 14107 Armstrong Woods Rd, city: Guerneville, state: ca, zip: '95446'}
  description: Free summer meals for kids and teens (2026 season) — sponsored by SANTA ROSA ELEMENTARY
    SCHOOL DISTRICT.
  place: '0631470'
  geo: {lat: 38.50381, lng: -122.99757}
  phone: (707) 890-3807
  external_ids: {usda_master: Cycle 07_CA_SSO_1802}
  sources:
  - usda/summer-meal-sites
  verified: {'on': '2026-07-19', method: api}
- id: ca/guerneville/russian-river-health-center-1
  name: 'Russian River Health Center #1'
  categories:
  - community-health-center
  address:
    street: 16387 First St
    city: Guerneville
    state: ca
    zip: '95446'
  place: '0631470'
  geo:
    lat: 38.50085
    lng: -122.99994
  phone: 707-869-2849
  external_ids:
    bphc: BPS-H80-034425
  sources:
  - hrsa/health-center-sites
  verified:
    'on': '2026-07-19'
    method: api
- id: ca/guerneville/russian-river-health-center-2
  name: 'Russian River Health Center #2'
  categories:
  - community-health-center
  address:
    street: 16312 3rd St
    city: Guerneville
    state: ca
    zip: '95446'
  place: '0631470'
  geo:
    lat: 38.50273
    lng: -122.99863
  phone: 707-869-2933
  website: https://www.wchealth.org
  external_ids:
    bphc: BPS-H80-003616
  sources:
  - hrsa/health-center-sites
  verified:
    'on': '2026-07-19'
    method: api
- id: ca/guerneville/russian-river-resiliency-center
  name: Russian River Resiliency Center.
  categories:
  - community-health-center
  address:
    street: 16385 First St
    city: Guerneville
    state: ca
    zip: '95446'
  place: '0631470'
  geo:
    lat: 38.50111
    lng: -122.99999
  phone: 707-869-5977
  website: https://www.wchealth.org
  external_ids:
    bphc: BPS-H80-029776
  sources:
  - hrsa/health-center-sites
  verified:
    'on': '2026-07-19'
    method: api
- id: ca/guerneville/school-clinic-guerneville
  name: School Clinic - Guerneville
  categories:
  - community-health-center
  address:
    street: 14630 Armstrong Woods Rd
    city: Guerneville
    state: ca
    zip: '95446'
  place: '0631470'
  geo:
    lat: 38.51038
    lng: -122.99547
  phone: 707-869-5977
  website: https://www.wchealth.org
  external_ids:
    bphc: BPS-H80-031720
  sources:
  - hrsa/health-center-sites
  verified:
    'on': '2026-07-19'
    method: api
- id: ca/guerneville/west-county-health-centers-inc
  name: West County Health Centers, Inc.
  categories:
  - community-health-center
  address:
    street: 14045 Mill St
    city: Guerneville
    state: ca
    zip: '95446'
  place: '0631470'
  geo:
    lat: 38.50244
    lng: -123.00011
  phone: 707-869-1594
  website: https://www.wchealth.org
  external_ids:
    bphc: BPS-H80-005474
  sources:
  - hrsa/health-center-sites
  verified:
    'on': '2026-07-19'
    method: api
