- id: ca/gustine/community-health-centers-of-america-gustine-prim
  name: Community Health Centers of America Gustine Primary Care
  categories:
  - community-health-center
  address:
    street: 489 5th St
    city: Gustine
    state: ca
    zip: '95322'
  place: 0631568
  geo:
    lat: 37.25491
    lng: -120.99963
  phone: 209-854-3728
  website: https://www.chcahealth.org
  external_ids:
    bphc: BPS-LAL-035757
  sources:
  - hrsa/health-center-sites
  verified:
    'on': '2026-07-19'
    method: api
- id: ca/gustine/community-health-centers-of-america-gustine-spec
  name: Community Health Centers of America Gustine Specialty
  categories:
  - community-health-center
  address:
    street: 554 5th St
    city: Gustine
    state: ca
    zip: '95322'
  place: 0631568
  geo:
    lat: 37.25413
    lng: -120.99835
  phone: 209-933-9360
  external_ids:
    bphc: BPS-LAL-033601
  sources:
  - hrsa/health-center-sites
  verified:
    'on': '2026-07-19'
    method: api
- id: ca/gustine/gustine-elementary
  name: Gustine Elementary
  categories:
  - meal-program
  address: {street: 2806 West Grove Ave., city: Gustine, state: ca, zip: '95322'}
  description: Free summer meals for kids and teens (2026 season) — sponsored by GUSTINE UNIFIED SCHOOL
    DISTRICT.
  place: 0631568
  geo: {lat: 37.24901, lng: -120.99889}
  phone: (209) 854-6747
  external_ids: {usda_master: Cycle 05_CA_SSO_1457}
  sources:
  - usda/summer-meal-sites
  verified: {'on': '2026-07-19', method: api}
- id: ca/gustine/henry-miller-park
  name: Henry Miller Park
  categories:
  - meal-program
  address: {street: 205 6Th Street, city: Gustine, state: ca, zip: '95322'}
  description: Free summer meals for kids and teens (2026 season) — sponsored by GUSTINE UNIFIED SCHOOL
    DISTRICT.
  place: 0631568
  geo: {lat: 37.25799, lng: -121.00185}
  phone: (209) 854-6747
  external_ids: {usda_master: Cycle 05_CA_SSO_0283}
  sources:
  - usda/summer-meal-sites
  verified: {'on': '2026-07-19', method: api}
- id: ca/gustine/pioneer-head-start-early-head-start
  name: Pioneer Head Start/Early Head Start
  categories:
  - child-care
  address:
    street: 1500 Meredith Ave
    city: Gustine
    state: ca
    zip: '95322'
  place: 0631568
  geo:
    lat: 37.24935
    lng: -121.01159
  phone: 209-381-5190
  sources:
  - acf/head-start-locations
  verified:
    'on': '2026-07-19'
    method: api
