- id: ca/kerman/hs-ehs-home-based-kerman-satellite
  name: HS/EHS Home-Based Kerman Satellite
  categories:
  - child-care
  address: {street: 719 S Madera Ave, city: Kerman, state: ca, zip: '93630'}
  description: Head Start early childhood program — 20 funded slots; operated by Fresno Economic Opportunities
    Commission.
  place: 0638226
  geo: {lat: 36.72429, lng: -120.06061}
  phone: 559-263-1200
  sources:
  - acf/head-start-locations
  verified: {'on': '2026-07-19', method: api}
- id: ca/kerman/kerman
  name: Kerman
  categories:
  - child-care
  address: {street: 14660 W G St, city: Kerman, state: ca, zip: '93630'}
  description: Head Start early childhood program — 32 funded slots; operated by Community Action Partnership
    of San Luis Obispo Co.
  place: 0638226
  geo: {lat: 36.72688, lng: -120.05586}
  phone: 559-846-5351
  sources:
  - acf/head-start-locations
  verified: {'on': '2026-07-19', method: api}
- id: ca/kerman/kerman-dental-center-valley-optometric-center
  name: Kerman Dental Center/ Valley Optometric Center
  categories:
  - community-health-center
  cost: sliding-scale
  address: {street: 942 S Madera Ave, city: Kerman, state: ca, zip: '93630'}
  place: 0638226
  geo: {lat: 36.72123, lng: -120.0598}
  phone: 559-364-2980
  website: https://www.vht.org
  external_ids: {bphc: BPS-H80-011003}
  sources:
  - hrsa/health-center-sites
  verified: {'on': '2026-07-19', method: api}
- id: ca/kerman/kerman-health-center
  name: Kerman Health Center
  categories:
  - community-health-center
  cost: sliding-scale
  address: {street: 449 S Madera Ave, city: Kerman, state: ca, zip: '93630'}
  place: 0638226
  geo: {lat: 36.72877, lng: -120.06059}
  phone: 559-364-2970
  website: https://www.vht.org
  external_ids: {bphc: BPS-H80-004647}
  sources:
  - hrsa/health-center-sites
  verified: {'on': '2026-07-19', method: api}
- id: ca/kerman/kerman-unified-school-district-behavioral-health
  name: Kerman Unified School District Behavioral Health Center
  categories:
  - community-health-center
  cost: sliding-scale
  address: {street: 601 S 1st St, city: Kerman, state: ca, zip: '93630'}
  place: 0638226
  geo: {lat: 36.72566, lng: -120.06529}
  phone: 559-364-2975
  website: https://www.vht.org
  external_ids: {bphc: BPS-H80-022030}
  sources:
  - hrsa/health-center-sites
  verified: {'on': '2026-07-19', method: api}
- id: ca/kerman/kerman-unified-school-district-community-health
  name: Kerman Unified School District Community Health Center
  categories:
  - community-health-center
  cost: sliding-scale
  address: {street: 702 S 8th St, city: Kerman, state: ca, zip: '93630'}
  place: 0638226
  geo: {lat: 36.72447, lng: -120.05636}
  phone: 559-364-2975
  website: https://www.vht.org
  external_ids: {bphc: BPS-H80-013824}
  sources:
  - hrsa/health-center-sites
  verified: {'on': '2026-07-19', method: api}
- id: ca/kerman/united-health-centers-kerman-madera
  name: United Health Centers Kerman Madera
  categories:
  - community-health-center
  cost: sliding-scale
  address: {street: 517 S Madera Ave, city: Kerman, state: ca, zip: '93630'}
  place: 0638226
  geo: {lat: 36.72711, lng: -120.06054}
  phone: 559-646-6618
  website: https://www.unitedhealthcenters.org
  external_ids: {bphc: BPS-H80-005485}
  sources:
  - hrsa/health-center-sites
  verified: {'on': '2026-07-19', method: api}
- id: ca/kerman/united-health-centers-kerman-whitesbridge
  name: United Health Centers Kerman Whitesbridge
  categories:
  - community-health-center
  cost: sliding-scale
  address: {street: 14271 W Whitesbridge Ave, city: Kerman, state: ca, zip: '93630'}
  place: 0638226
  geo: {lat: 36.73483, lng: -120.04677}
  phone: 559-646-6618
  website: https://www.unitedhealthcenters.org
  external_ids: {bphc: BPS-H80-040298}
  sources:
  - hrsa/health-center-sites
  verified: {'on': '2026-07-19', method: api}
- id: ca/kerman/westside-family-services-kerman-usda
  name: Westside Family Services - Kerman - USDA
  org: ca/central-california-food-bank
  categories:
  - food-pantry
  address: {street: 15101 W Kearny Blvd, city: Kerman, state: ca, zip: '93630'}
  place: 0638226
  geo: {lat: 36.72689, lng: -120.06138}
  phone: 559-945-1022
  sources:
  - foodbank/ca-central-california-food-bank
  verified: {'on': '2026-07-21', method: api}
