- id: ca/king-city/alegria
  name: Alegria
  categories:
  - child-care
  address:
    street: 521 N Russ St
    city: King City
    state: ca
    zip: '93930'
  place: 0638520
  geo:
    lat: 36.21579
    lng: -121.13256
  phone: 831-386-9683
  sources:
  - acf/head-start-locations
  verified:
    'on': '2026-07-19'
    method: api
- id: ca/king-city/csvs-kingcity-clinic
  name: CSVS - KINGCITY CLINIC
  categories:
  - community-health-center
  address:
    street: 122 San Antonio Dr
    city: King City
    state: ca
    zip: '93930'
  place: 0638520
  geo:
    lat: 36.2216
    lng: -121.12834
  phone: 831-728-2506
  external_ids:
    bphc: BPS-H80-016981
  sources:
  - hrsa/health-center-sites
  verified:
    'on': '2026-07-19'
    method: api
- id: ca/king-city/king-city-head-start
  name: King City Head Start
  categories:
  - child-care
  address:
    street: 525 N Russ St
    street2: Rooms 6
    city: King City
    state: ca
    zip: '93930'
  place: 0638520
  geo:
    lat: 36.21547
    lng: -121.13339
  phone: 831-202-1230
  sources:
  - acf/head-start-locations
  verified:
    'on': '2026-07-19'
    method: api
- id: ca/king-city/little-angels
  name: Little Angels
  categories:
  - child-care
  address:
    street: 231 Lynn St
    city: King City
    state: ca
    zip: '93930'
  place: 0638520
  geo:
    lat: 36.21367
    lng: -121.12655
  phone: 831-386-0985
  sources:
  - acf/head-start-locations
  verified:
    'on': '2026-07-19'
    method: api
- id: ca/king-city/little-angels-early-head-start
  name: Little Angels Early Head Start
  categories:
  - child-care
  address:
    street: 231 Lynn St
    city: King City
    state: ca
    zip: '93930'
  place: 0638520
  geo:
    lat: 36.21371
    lng: -121.12656
  phone: 831-386-0985
  sources:
  - acf/head-start-locations
  verified:
    'on': '2026-07-19'
    method: api
- id: ca/king-city/monterey-county-behavioral-health-adult-child-me
  name: Monterey County Behavioral Health Adult/Child Mental Health
  categories:
  - su-treatment
  - mh-treatment
  address:
    street: 200 Broadway Street
    city: King City
    state: ca
    zip: '93930'
  place: 0638520
  geo:
    lat: 36.2135
    lng: -121.12578
  phone: 888-258-6029
  website: https://www.countyofmonterey.gov/government/departments-a-h/health/behavioral-health/bh-home
  sources:
  - samhsa/findtreatment
  verified:
    'on': '2026-07-19'
    method: api
- id: ca/king-city/sun-street-centers-op-recovery-services
  name: Sun Street Centers OP Recovery Services
  categories:
  - su-treatment
  address:
    street: 641 Broadway Street
    city: King City
    state: ca
    zip: '93930'
  place: 0638520
  geo:
    lat: 36.20956
    lng: -121.13165
  phone: 831-525-8101
  website: https://www.sunstreetcenters.org
  sources:
  - samhsa/findtreatment
  verified:
    'on': '2026-07-19'
    method: api
- id: ca/king-city/sun-street-centers-residential-recovery-services
  name: Sun Street Centers Residential Recovery Services
  categories:
  - su-treatment
  address:
    street: 637 Broadway Street
    city: King City
    state: ca
    zip: '93930'
  place: 0638520
  geo:
    lat: 36.20978
    lng: -121.1311
  phone: 831-525-8181
  website: https://www.sunstreetcenters.org
  sources:
  - samhsa/findtreatment
  verified:
    'on': '2026-07-19'
    method: api
