- id: ca/livermore/almond-center
  name: Almond Center
  categories:
  - child-care
  address:
    street: 1401 Almond Ave
    street2: Bldg L
    city: Livermore
    state: ca
    zip: '94550'
  place: 0641992
  geo:
    lat: 37.67734
    lng: -121.7405
  phone: 925-245-0991
  sources:
  - acf/head-start-locations
  verified:
    'on': '2026-07-19'
    method: api
- id: ca/livermore/axis-community-health-livermore-site
  name: Axis Community Health - Livermore Site
  categories:
  - community-health-center
  address:
    street: 3311 Pacific Ave
    city: Livermore
    state: ca
    zip: '94550'
  place: 0641992
  geo:
    lat: 37.67571
    lng: -121.75524
  phone: 925-462-1755
  website: http://www.axishealth.org/
  external_ids:
    bphc: BPS-H80-008406
  sources:
  - hrsa/health-center-sites
  verified:
    'on': '2026-07-19'
    method: api
- id: ca/livermore/axis-community-health-second-street
  name: Axis Community Health - Second Street
  categories:
  - community-health-center
  address:
    street: 1686 2nd St
    city: Livermore
    state: ca
    zip: '94550'
  place: 0641992
  geo:
    lat: 37.67916
    lng: -121.77496
  phone: 925-462-1755
  website: https://www.axishealth.org
  external_ids:
    bphc: BPS-H80-038879
  sources:
  - hrsa/health-center-sites
  verified:
    'on': '2026-07-19'
    method: api
- id: ca/livermore/axis-site-at-vineyard-resource-center
  name: Axis Site at Vineyard Resource Center
  categories:
  - community-health-center
  address:
    street: 450 N Livermore Ave
    city: Livermore
    state: ca
    zip: '94551'
  place: 0641992
  geo:
    lat: 37.6869
    lng: -121.77104
  phone: 925-462-1755
  external_ids:
    bphc: BPS-H80-039028
  sources:
  - hrsa/health-center-sites
  verified:
    'on': '2026-07-19'
    method: api
- id: ca/livermore/bess-platt
  name: Bess Platt
  categories:
  - child-care
  address:
    street: 1401 Almond Ave
    street2: Bldg I
    city: Livermore
    state: ca
    zip: '94550'
  place: 0641992
  geo:
    lat: 37.67677
    lng: -121.74096
  phone: 925-447-8710
  sources:
  - acf/head-start-locations
  verified:
    'on': '2026-07-19'
    method: api
- id: ca/livermore/hsg-auth-of-the-city-of-livermore
  name: Hsg Auth Of The City Of Livermore
  categories:
  - housing-assistance
  address: {street: 3203 Leahy Way, city: Livermore, state: ca, zip: '94550'}
  description: Public housing and Housing Choice Voucher agency
  place: 0641992
  geo: {lat: 37.68273, lng: -121.75778}
  phone: 925-447-3600
  sources:
  - hud/resource-locator
  verified: {'on': '2026-07-19', method: api}
- id: ca/livermore/jackson-center
  name: Jackson Center
  categories:
  - child-care
  address:
    street: 560 Jackson Ave
    city: Livermore
    state: ca
    zip: '94550'
  place: 0641992
  geo:
    lat: 37.68477
    lng: -121.74246
  phone: 925-455-7270
  sources:
  - acf/head-start-locations
  verified:
    'on': '2026-07-19'
    method: api
- id: ca/livermore/street-medicine-outreach-admin-office
  name: Street Medicine Outreach  Admin Office
  categories:
  - community-health-center
  address:
    street: 3311 Pacific Ave
    city: Livermore
    state: ca
    zip: '94550'
  place: 0641992
  geo:
    lat: 37.67571
    lng: -121.75524
  phone: 510-713-6690
  external_ids:
    bphc: BPS-H80-002797
  sources:
  - hrsa/health-center-sites
  verified:
    'on': '2026-07-19'
    method: api
- id: ca/livermore/william-ormond-iii-early-education-center
  name: William Ormond III Early Education Center
  categories:
  - child-care
  address:
    street: 800 Marylin Ave
    city: Livermore
    state: ca
    zip: '94551'
  place: 0641992
  geo:
    lat: 37.68456
    lng: -121.78614
  phone: 925-606-1175
  sources:
  - acf/head-start-locations
  verified:
    'on': '2026-07-19'
    method: api
