- id: ca/marina/county-of-monterey-integrated-health-clinic
  name: County of Monterey Integrated Health Clinic
  categories:
  - community-health-center
  address:
    street: 299 12th St
    city: Marina
    state: ca
    zip: '93933'
  place: 0645778
  geo:
    lat: 36.66834
    lng: -121.80091
  phone: 831-755-4353
  website: http://www.montereycountyclinicservices.org/
  external_ids:
    bphc: BPS-H80-029575
  sources:
  - hrsa/health-center-sites
  verified:
    'on': '2026-07-19'
    method: api
- id: ca/marina/marina-head-start-mpusd-collab
  name: Marina Head Start (MPUSD Collab)
  categories:
  - child-care
  address:
    street: 3066 Lake Dr
    city: Marina
    state: ca
    zip: '93933'
  place: 0645778
  geo:
    lat: 36.68411
    lng: -121.80682
  phone: 831-392-3456
  sources:
  - acf/head-start-locations
  verified:
    'on': '2026-07-19'
    method: api
- id: ca/marina/monterey-county-behavioral-health-adult-child-me
  name: Monterey County Behavioral Health Adult/Child Mental Health
  categories:
  - su-treatment
  - mh-treatment
  address:
    street: 299 12th Street
    city: Marina
    state: ca
    zip: '93933'
  place: 0645778
  geo:
    lat: 36.66837
    lng: -121.80095
  phone: 888-258-6029
  website: https://www.countyofmonterey.gov/government/departments-a-h/health/behavioral-health/bh-home
  sources:
  - samhsa/findtreatment
  verified:
    'on': '2026-07-19'
    method: api
- id: ca/marina/monterey-county-clinic-at-marina
  name: Monterey County Clinic at Marina
  categories:
  - community-health-center
  address:
    street: 3155 De Forest Rd
    city: Marina
    state: ca
    zip: '93933'
  place: 0645778
  geo:
    lat: 36.68534
    lng: -121.79331
  phone: 831-384-1445
  website: http://www.montereycountyclinicservices.org/
  external_ids:
    bphc: BPS-H80-029567
  sources:
  - hrsa/health-center-sites
  verified:
    'on': '2026-07-19'
    method: api
- id: ca/marina/sun-street-centers-outpatient-recovery-services
  name: Sun Street Centers Outpatient Recovery Services
  categories:
  - su-treatment
  address:
    street: 3043 Mac Arthur Drive
    city: Marina
    state: ca
    zip: '93933'
  place: 0645778
  geo:
    lat: 36.6714
    lng: -121.77904
  phone: 831-582-9461
  website: https://www.sunstreetcenters.org
  sources:
  - samhsa/findtreatment
  verified:
    'on': '2026-07-19'
    method: api
- id: ca/marina/va-palo-alto-healthcare-system-monterey-cboc-116
  name: VA Palo Alto Healthcare System Monterey CBOC (116A/MONT)
  categories:
  - su-treatment
  - mh-treatment
  address:
    street: 201 9th Street
    city: Marina
    state: ca
    zip: '93933'
  place: 0645778
  geo:
    lat: 36.66284
    lng: -121.81366
  phone: 831-884-1000
  website: https://www.va.gov/palo-alto-health-care/locations/
  sources:
  - samhsa/findtreatment
  verified:
    'on': '2026-07-19'
    method: api
