- id: ca/merced/aegis-treatment-centers-llc
  name: Aegis Treatment Centers LLC
  categories:
  - su-treatment
  address:
    street: 1343 West Main Street
    city: Merced
    state: ca
    zip: '95340'
  place: 0646898
  geo:
    lat: 37.30655
    lng: -120.4962
  phone: 209-725-1060
  website: https://aegistreatmentcenters.com
  sources:
  - samhsa/findtreatment
  verified:
    'on': '2026-07-19'
    method: api
- id: ca/merced/behavioral-health-and-recovery-servs-recovery-as
  name: Behavioral Health and Recovery Servs Recovery Assistance for Teens (RAFT)
  categories:
  - su-treatment
  address:
    street: 1275 B Street
    city: Merced
    state: ca
    zip: '95340'
  place: 0646898
  geo:
    lat: 37.29135
    lng: -120.47141
  phone: 209-381-6880
  website: https://www.countyofmerced.com
  sources:
  - samhsa/findtreatment
  verified:
    'on': '2026-07-19'
    method: api
- id: ca/merced/bhrs-the-center
  name: BHRS The Center
  categories:
  - su-treatment
  address:
    street: 301 East 13th Street
    city: Merced
    state: ca
    zip: '95341'
  place: 0646898
  geo:
    lat: 37.29343
    lng: -120.47381
  phone: 209-381-6850 x6852
  website: https://www.countyofmerced.com
  sources:
  - samhsa/findtreatment
  verified:
    'on': '2026-07-19'
    method: api
- id: ca/merced/boys-and-girls-club-of-merced-county
  name: Boys And Girls Club Of Merced County
  categories:
  - meal-program
  address:
    street: 615 West 15Th Street
    city: Merced
    state: ca
    zip: '95340'
  description: Free summer meals for kids and teens (2026 season) — sponsored by MERCED CITY ELEMENTARY
    SCHOOL DISTRICT.
  place: 0646898
  geo:
    lat: 37.29995
    lng: -120.48685
  phone: (209) 385-6653
  external_ids:
    usda_master: Cycle 08_CA_SSO_1573
  sources:
  - usda/summer-meal-sites
  verified:
    'on': '2026-07-19'
    method: api
- id: ca/merced/central-presbyterian-church-s-hoffmeister-center
  name: Central Presbyterian Church'S Hoffmeister Center
  categories:
  - meal-program
  address:
    street: 1920 Canal Street
    city: Merced
    state: ca
    zip: '95340'
  description: Free summer meals for kids and teens (2026 season) — sponsored by MERCED CITY ELEMENTARY
    SCHOOL DISTRICT.
  place: 0646898
  geo:
    lat: 37.30377
    lng: -120.48196
  phone: (209) 385-6654
  external_ids:
    usda_master: Cycle 08_CA_SSO_1218
  sources:
  - usda/summer-meal-sites
  verified:
    'on': '2026-07-19'
    method: api
- id: ca/merced/central-valley-pace-merced
  name: Central Valley PACE - Merced
  categories:
  - community-health-center
  address:
    street: 727 W Childs Ave
    city: Merced
    state: ca
    zip: '95341'
  place: 0646898
  geo:
    lat: 37.28907
    lng: -120.49628
  phone: 209-620-4979
  website: https://www.cvpace.org
  external_ids:
    bphc: BPS-H80-038872
  sources:
  - hrsa/health-center-sites
  verified:
    'on': '2026-07-19'
    method: api
- id: ca/merced/chca-merced
  name: CHCA Merced
  categories:
  - community-health-center
  address:
    street: 850 W Olive Ave
    city: Merced
    state: ca
    zip: '95348'
  place: 0646898
  geo:
    lat: 37.31913
    lng: -120.48346
  phone: 209-761-0134
  external_ids:
    bphc: BPS-LAL-038227
  sources:
  - hrsa/health-center-sites
  verified:
    'on': '2026-07-19'
    method: api
- id: ca/merced/chca-merced-alternative-medicine-health-center
  name: CHCA Merced Alternative Medicine Health Center
  categories:
  - community-health-center
  address:
    street: 104 W Alexander Ave
    city: Merced
    state: ca
    zip: '95348'
  place: 0646898
  geo:
    lat: 37.31468
    lng: -120.47148
  phone: 209-761-0134
  external_ids:
    bphc: BPS-LAL-040794
  sources:
  - hrsa/health-center-sites
  verified:
    'on': '2026-07-19'
    method: api
- id: ca/merced/community-social-model-advocates-inc-hobie-house
  name: Community Social Model Advocates Inc Hobie House
  categories:
  - su-treatment
  address:
    street: 1299 and 1301 Yosemite Parkway
    city: Merced
    state: ca
    zip: '95340'
  place: 0646898
  geo:
    lat: 37.29543
    lng: -120.45943
  phone: 209-722-6335
  website: https://www.csmainc.org
  sources:
  - samhsa/findtreatment
  verified:
    'on': '2026-07-19'
    method: api
- id: ca/merced/county-of-merced-housing-authority
  name: County Of Merced Housing Authority
  categories:
  - housing-assistance
  address:
    street: 405 U St
    city: Merced
    state: ca
    zip: '95341'
  description: Public housing and Housing Choice Voucher agency
  place: 0646898
  geo:
    lat: 37.29323
    lng: -120.50469
  phone: 209-386-4139
  sources:
  - hud/resource-locator
  verified:
    'on': '2026-07-19'
    method: api
- id: ca/merced/danielson-head-start
  name: Danielson Head Start
  categories:
  - child-care
  address:
    street: 1235 N Street
    city: Merced
    state: ca
    zip: '95341'
  place: 0646898
  geo:
    lat: 37.29763
    lng: -120.48945
  phone: 209-381-5170
  sources:
  - acf/head-start-locations
  verified:
    'on': '2026-07-19'
    method: api
- id: ca/merced/el-nido-home-based-head-start
  name: El Nido Home-Based Head Start
  categories:
  - child-care
  address:
    street: 1850 Wardrobe Ave
    city: Merced
    state: ca
    zip: '95341'
  place: 0646898
  geo:
    lat: 37.29453
    lng: -120.50935
  phone: 209-381-5175
  sources:
  - acf/head-start-locations
  verified:
    'on': '2026-07-19'
    method: api
- id: ca/merced/galen-clark-head-start
  name: Galen Clark Head Start
  categories:
  - child-care
  address:
    street: 213 E 11th St
    city: Merced
    state: ca
    zip: '95341'
  place: 0646898
  geo:
    lat: 37.29126
    lng: -120.47624
  phone: 209-381-5178
  sources:
  - acf/head-start-locations
  verified:
    'on': '2026-07-19'
    method: api
- id: ca/merced/golden-valley-health-centers
  name: GOLDEN VALLEY HEALTH CENTERS
  categories:
  - community-health-center
  address:
    street: 737 W Childs Ave
    city: Merced
    state: ca
    zip: '95341'
  place: 0646898
  geo:
    lat: 37.28907
    lng: -120.49628
  phone: 209-383-1848
  website: https://www.gvhc.org
  external_ids:
    bphc: BPS-H80-004903
  sources:
  - hrsa/health-center-sites
  verified:
    'on': '2026-07-19'
    method: api
- id: ca/merced/gvhc-merced-northview
  name: GVHC -  Merced Northview
  categories:
  - community-health-center
  address:
    street: 3940 Sandpiper Ave
    city: Merced
    state: ca
    zip: '95340'
  place: 0646898
  geo:
    lat: 37.33758
    lng: -120.46605
  phone: 209-383-1848
  external_ids:
    bphc: BPS-H80-028076
  sources:
  - hrsa/health-center-sites
  verified:
    'on': '2026-07-19'
    method: api
- id: ca/merced/gvhc-merced-ranchero
  name: GVHC - Merced Ranchero
  categories:
  - community-health-center
  address:
    street: 2752 Ranchero Ln
    city: Merced
    state: ca
    zip: '95348'
  place: 0646898
  geo:
    lat: 37.32834
    lng: -120.53632
  phone: 866-682-4842
  external_ids:
    bphc: BPS-H80-035382
  sources:
  - hrsa/health-center-sites
  verified:
    'on': '2026-07-19'
    method: api
- id: ca/merced/gvhc-merced-suites
  name: GVHC  - Merced Suites
  categories:
  - community-health-center
  address:
    street: 847 W Childs Ave
    city: Merced
    state: ca
    zip: '95341'
  place: 0646898
  geo:
    lat: 37.28948
    lng: -120.49662
  phone: 209-383-7441
  website: https://www.gvhc.org
  external_ids:
    bphc: BPS-H80-005643
  sources:
  - hrsa/health-center-sites
  verified:
    'on': '2026-07-19'
    method: api
- id: ca/merced/gvhc-merced-women-s-clinic
  name: GVHC - MERCED WOMEN'S CLINIC
  categories:
  - community-health-center
  address:
    street: 797 W Childs Ave
    city: Merced
    state: ca
    zip: '95341'
  place: 0646898
  geo:
    lat: 37.28907
    lng: -120.49628
  phone: 209-383-5871
  website: https://www.gvhc.org
  external_ids:
    bphc: BPS-H80-004639
  sources:
  - hrsa/health-center-sites
  verified:
    'on': '2026-07-19'
    method: api
- id: ca/merced/gvhc-senior-health-and-wellness-center
  name: GVHC  -  Senior Health and Wellness Center
  categories:
  - community-health-center
  address:
    street: 857 W Childs Ave
    city: Merced
    state: ca
    zip: '95341'
  place: 0646898
  geo:
    lat: 37.28882
    lng: -120.49706
  phone: 209-385-5600
  external_ids:
    bphc: BPS-H80-014425
  sources:
  - hrsa/health-center-sites
  verified:
    'on': '2026-07-19'
    method: api
- id: ca/merced/john-o-banion-child-development-center
  name: John O'Banion Child Development Center
  categories:
  - child-care
  address:
    street: 401 Lesher Dr
    street2: Ste G
    city: Merced
    state: ca
    zip: '95341'
  place: 0646898
  geo:
    lat: 37.29395
    lng: -120.50422
  phone: 209-726-3154
  sources:
  - acf/head-start-locations
  verified:
    'on': '2026-07-19'
    method: api
- id: ca/merced/merced-college-cdc
  name: Merced College CDC
  categories:
  - child-care
  address:
    street: 3600 M St
    city: Merced
    state: ca
    zip: '95348'
  place: 0646898
  geo:
    lat: 37.33368
    lng: -120.473
  phone: 209-384-6245
  sources:
  - acf/head-start-locations
  verified:
    'on': '2026-07-19'
    method: api
- id: ca/merced/merced-early-learning-center
  name: Merced Early Learning Center
  categories:
  - child-care
  address:
    street: 1850 Wardrobe Ave
    city: Merced
    state: ca
    zip: '95341'
  place: 0646898
  geo:
    lat: 37.29458
    lng: -120.50934
  phone: 209-381-5199
  sources:
  - acf/head-start-locations
  verified:
    'on': '2026-07-19'
    method: api
- id: ca/merced/merced-east-campus-center
  name: Merced East Campus Center
  categories:
  - community-health-center
  address:
    street: 125 E 18th St
    city: Merced
    state: ca
    zip: '95340'
  place: 0646898
  geo:
    lat: 37.29889
    lng: -120.47255
  phone: 209-850-3500
  website: https://lumirahealthcare.com
  external_ids:
    bphc: BPS-H80-037411
  sources:
  - hrsa/health-center-sites
  verified:
    'on': '2026-07-19'
    method: api
- id: ca/merced/merced-home-based-head-start-early-head-start
  name: Merced Home-based Head Start/Early Head Start
  categories:
  - child-care
  address:
    street: 1850 Wardrobe Ave
    city: Merced
    state: ca
    zip: '95341'
  place: 0646898
  geo:
    lat: 37.29458
    lng: -120.50962
  phone: 209-385-5175
  sources:
  - acf/head-start-locations
  verified:
    'on': '2026-07-19'
    method: api
- id: ca/merced/merced-va-clinic
  name: Merced VA Clinic
  categories:
  - va-facility
  - health
  description: Multi-Specialty CBOC
  address: {street: 340 East Yosemite Avenue, city: Merced, state: ca, zip: '95340'}
  place: 0646898
  geo: {lat: 37.33085, lng: -120.46482}
  phone: 209-381-0105
  website: https://www.va.gov/central-california-health-care/locations/merced-va-clinic/
  hours:
  - {days: [mon, tue, wed, thu, fri], open: '08:00', close: '16:30'}
  external_ids: {va: vha_570GA}
  sources:
  - va/facilities-api
  verified: {'on': '2026-07-19', method: api}
- id: ca/merced/pioneer-elementary
  name: Pioneer Elementary
  categories:
  - meal-program
  address:
    street: 2950 Gerard Ave.
    city: Merced
    state: ca
    zip: '95341'
  description: Free summer meals for kids and teens (2026 season) — sponsored by WEAVER UNION SCHOOL DISTRICT.
  place: 0646898
  geo:
    lat: 37.28046
    lng: -120.435
  phone: (209) 725-7130
  external_ids:
    usda_master: Cycle 10_CA_SSO_1831
  sources:
  - usda/summer-meal-sites
  verified:
    'on': '2026-07-19'
    method: api
- id: ca/merced/restorative-justice-league
  name: Restorative Justice League
  categories:
  - meal-program
  address:
    street: 364 W. 27Th St.
    city: Merced
    state: ca
    zip: '95340'
  description: Free summer meals for kids and teens (2026 season) — sponsored by MERCED CITY ELEMENTARY
    SCHOOL DISTRICT.
  place: 0646898
  geo:
    lat: 37.3108
    lng: -120.47584
  phone: (209) 385-6654
  external_ids:
    usda_master: Cycle 08_CA_SSO_2090
  sources:
  - usda/summer-meal-sites
  verified:
    'on': '2026-07-19'
    method: api
- id: ca/merced/roland-d-brooks-park
  name: Roland D. Brooks Park
  categories:
  - meal-program
  address:
    street: 495 E Gerard Ave
    city: Merced
    state: ca
    zip: '95341'
  description: Free summer meals for kids and teens (2026 season) — sponsored by WEAVER UNION SCHOOL DISTRICT.
  place: 0646898
  geo:
    lat: 37.28091
    lng: -120.48284
  phone: (209) 725-7130
  external_ids:
    usda_master: Cycle 05_CA_SSO_0510
  sources:
  - usda/summer-meal-sites
  verified:
    'on': '2026-07-19'
    method: api
- id: ca/merced/stars-academy
  name: Stars Academy
  categories:
  - meal-program
  address:
    street: 740 Canal St.
    city: Merced
    state: ca
    zip: '95341'
  description: Free summer meals for kids and teens (2026 season) — sponsored by MERCED CITY ELEMENTARY
    SCHOOL DISTRICT.
  place: 0646898
  geo:
    lat: 37.29186
    lng: -120.48882
  phone: (209) 385-6654
  external_ids:
    usda_master: Cycle 08_CA_SSO_2091
  sources:
  - usda/summer-meal-sites
  verified:
    'on': '2026-07-19'
    method: api
- id: ca/merced/tenaya-head-start-early-head-start
  name: Tenaya Head Start/ Early Head Start
  categories:
  - child-care
  address:
    street: 760 W 8th St
    city: Merced
    state: ca
    zip: '95341'
  place: 0646898
  geo:
    lat: 37.29345
    lng: -120.49307
  phone: 209-381-5170
  sources:
  - acf/head-start-locations
  verified:
    'on': '2026-07-19'
    method: api
- id: ca/merced/women-infants-children
  name: Women, Infants, & Children
  categories:
  - meal-program
  address:
    street: 1235 W. Main Street
    city: Merced
    state: ca
    zip: '95340'
  description: Free summer meals for kids and teens (2026 season) — sponsored by MERCED CITY ELEMENTARY
    SCHOOL DISTRICT.
  place: 0646898
  geo:
    lat: 37.30566
    lng: -120.49473
  phone: (209) 385-6653
  external_ids:
    usda_master: Cycle 08_CA_SSO_0296
  sources:
  - usda/summer-meal-sites
  verified:
    'on': '2026-07-19'
    method: api
