- id: ca/milpitas/acts-of-courage
  name: Acts Of Courage
  org: ca/second-harvest-of-silicon-valley
  categories:
  - food-pantry
  address: {street: 529 South Main Street, city: Milpitas, state: ca, zip: '95035'}
  place: '0647766'
  geo: {lat: 37.42289, lng: -121.90548}
  external_ids: {ca-second-harvest-of-silicon-valley: 001Qo000009xzWyIAI}
  sources:
  - foodbank/ca-second-harvest-of-silicon-valley
  verified: {'on': '2026-07-21', method: api}
- id: ca/milpitas/christian-worship-center
  name: Christian Worship Center
  org: ca/second-harvest-of-silicon-valley
  categories:
  - food-pantry
  address: {street: 241 S. Main Street, city: Milpitas, state: ca, zip: '95035'}
  place: '0647766'
  geo: {lat: 37.42713, lng: -121.90691}
  external_ids: {ca-second-harvest-of-silicon-valley: 0011I00001IqtmjQAB}
  sources:
  - foodbank/ca-second-harvest-of-silicon-valley
  verified: {'on': '2026-07-21', method: api}
- id: ca/milpitas/jose-higuera-adobe-park
  name: Jose Higuera Adobe Park
  org: ca/second-harvest-of-silicon-valley
  categories:
  - food-pantry
  address: {street: Wessex Place, city: Milpitas, state: ca, zip: '95035'}
  place: '0647766'
  geo: {lat: 37.45818, lng: -121.89641}
  external_ids: {ca-second-harvest-of-silicon-valley: 0011I00001IqtuJQAR}
  sources:
  - foodbank/ca-second-harvest-of-silicon-valley
  verified: {'on': '2026-07-21', method: api}
- id: ca/milpitas/joseph-weller-elementary-school
  name: Joseph Weller Elementary School
  org: ca/second-harvest-of-silicon-valley
  categories:
  - food-pantry
  address: {street: 345 Boulder St., city: Milpitas, state: ca, zip: '95035'}
  place: '0647766'
  geo: {lat: 37.45833, lng: -121.90587}
  external_ids: {ca-second-harvest-of-silicon-valley: 0011I00001IqtjzQAB}
  sources:
  - foodbank/ca-second-harvest-of-silicon-valley
  verified: {'on': '2026-07-21', method: api}
- id: ca/milpitas/mt-olive-ministries
  name: Mt. Olive Ministries
  org: ca/second-harvest-of-silicon-valley
  categories:
  - food-pantry
  address: {street: 1989 E Calaveras Blvd, city: Milpitas, state: ca, zip: '95035'}
  place: '0647766'
  geo: {lat: 37.43827, lng: -121.87301}
  external_ids: {ca-second-harvest-of-silicon-valley: 0011I00001Iqtj5QAB}
  sources:
  - foodbank/ca-second-harvest-of-silicon-valley
  verified: {'on': '2026-07-21', method: api}
- id: ca/milpitas/our-lady-star-of-the-sea-church
  name: Our Lady Star of the Sea Church
  org: ca/second-harvest-of-silicon-valley
  categories:
  - food-pantry
  address: {street: 1392 Grand Boulevard, city: Alviso, state: ca, zip: '95002'}
  place: '0647766'
  geo: {lat: 37.42811, lng: -121.96919}
  external_ids: {ca-second-harvest-of-silicon-valley: 0011I00001IqtqZQAR}
  sources:
  - foodbank/ca-second-harvest-of-silicon-valley
  verified: {'on': '2026-07-21', method: api}
- id: ca/milpitas/valley-health-center-milpitas
  name: Valley Health Center Milpitas
  categories:
  - community-health-center
  cost: sliding-scale
  address: {street: 143 N Main St, city: Milpitas, state: ca, zip: '95035'}
  place: '0647766'
  geo: {lat: 37.43205, lng: -121.90794}
  phone: 408-885-5713
  website: https://www.sccgov.org
  external_ids: {bphc: BPS-H80-010255}
  sources:
  - hrsa/health-center-sites
  verified: {'on': '2026-07-19', method: api}
