- id: ca/morgan-hill/advent-lutheran-church
  name: Advent Lutheran Church
  org: ca/second-harvest-of-silicon-valley
  categories:
  - food-pantry
  address: {street: 16870 Murphy Avenue, city: Morgan Hill, state: ca, zip: '95037'}
  place: 0649278
  geo: {lat: 37.13264, lng: -121.62684}
  external_ids: {ca-second-harvest-of-silicon-valley: 0011I00001IqtewQAB}
  sources:
  - foodbank/ca-second-harvest-of-silicon-valley
  verified: {'on': '2026-07-21', method: api}
- id: ca/morgan-hill/morgan-hill-comm-cultural-ctr
  name: Morgan Hill Comm & Cultural Ctr
  org: ca/second-harvest-of-silicon-valley
  categories:
  - food-pantry
  address: {street: 17000 Monterey Rd, city: Morgan Hill, state: ca, zip: '95037'}
  place: 0649278
  geo: {lat: 37.12638, lng: -121.64941}
  external_ids: {ca-second-harvest-of-silicon-valley: 0011I00001IqtrHQAR}
  sources:
  - foodbank/ca-second-harvest-of-silicon-valley
  verified: {'on': '2026-07-21', method: api}
- id: ca/morgan-hill/morgan-hill-library
  name: Morgan Hill Library
  categories:
  - meal-program
  address: {street: 660 West Main Ave, city: Morgan Hill, state: ca, zip: '95037'}
  description: Free summer meals for kids and teens (2026 season) — sponsored by YMCA OF SILICON VALLEY.
  place: 0649278
  geo: {lat: 37.12538, lng: -121.66331}
  phone: (408) 779-3196
  external_ids: {usda_master: Cycle 06_CA_SFSP_0715}
  sources:
  - usda/summer-meal-sites
  verified: {'on': '2026-07-19', method: api}
- id: ca/morgan-hill/p-a-walsh-steam-academy
  name: P.A. Walsh Steam Academy
  org: ca/second-harvest-of-silicon-valley
  categories:
  - food-pantry
  address: {street: 305 W. Main Ave, city: Morgan Hill, state: ca, zip: '95037'}
  place: 0649278
  geo: {lat: 37.12754, lng: -121.66069}
  external_ids: {ca-second-harvest-of-silicon-valley: 0011I00001EjX2oQAF}
  sources:
  - foodbank/ca-second-harvest-of-silicon-valley
  verified: {'on': '2026-07-21', method: api}
- id: ca/morgan-hill/pathway-society-inc-south-county-outpatient
  name: Pathway Society Inc South County Outpatient
  categories:
  - su-treatment
  address: {street: 16433 Monterey Road, city: Morgan Hill, state: ca, zip: '95037'}
  place: 0649278
  geo: {lat: 37.11804, lng: -121.64667}
  phone: 408-782-6300
  website: https://www.pathwayinc.com
  services:
  - Outpatient
  - Regular outpatient treatment
  - Adult women
  - Adult men
  languages:
  - en
  - es
  eligibility: Serves young adults, adults, seniors.
  cost: varies
  sources:
  - samhsa/findtreatment
  verified: {'on': '2026-07-19', method: api}
- id: ca/morgan-hill/st-catherine-church-reachout
  name: St. Catherine Church - Reachout
  org: ca/second-harvest-of-silicon-valley
  categories:
  - food-pantry
  address: {street: 17400 Peak Ave., city: Morgan Hill, state: ca, zip: '95037'}
  place: 0649278
  geo: {lat: 37.12472, lng: -121.66054}
  external_ids: {ca-second-harvest-of-silicon-valley: 0011I00001Iqtg2QAB}
  sources:
  - foodbank/ca-second-harvest-of-silicon-valley
  verified: {'on': '2026-07-21', method: api}
- id: ca/morgan-hill/valley-health-center-morgan-hill
  name: Valley Health Center - Morgan Hill
  categories:
  - community-health-center
  cost: sliding-scale
  address: {street: '18550 De Paul Dr, Suite 208', city: Morgan Hill, state: ca, zip: '95037'}
  place: 0649278
  geo: {lat: 37.15373, lng: -121.64582}
  phone: 669-263-4017
  external_ids: {bphc: BPS-H80-038482}
  sources:
  - hrsa/health-center-sites
  verified: {'on': '2026-07-19', method: api}
