- id: ca/morgan-hill/advent-lutheran-church
  name: Advent Lutheran Church
  org: ca/second-harvest-of-silicon-valley
  categories:
  - food-pantry
  address: {street: 16870 Murphy Avenue, city: Morgan Hill, state: ca, zip: '95037'}
  place: 0649278
  geo: {lat: 37.13264, lng: -121.62684}
  external_ids: {ca-second-harvest-of-silicon-valley: 0011I00001IqtewQAB}
  sources:
  - foodbank/ca-second-harvest-of-silicon-valley
  verified: {'on': '2026-07-21', method: api}
- id: ca/morgan-hill/cochrane-village
  name: Cochrane Village
  categories:
  - family-youth
  description: Boys & Girls Club
  address: {street: 18555 Butterfield Blvd, city: Morgan Hill, state: ca, zip: '95037'}
  geo: {lat: 37.14642, lng: -121.66199}
  place: 0649278
  phone: 408-778-7318
  website: http://www.bgclub.org
  external_ids: {bgca_site: '12344', bgca_org: '10787'}
  sources:
  - bgca/find-a-club
  verified: {'on': '2026-07-21', method: api}
- id: ca/morgan-hill/future-grads-live-oak-high-school
  name: Future Grads Live Oak High School
  categories:
  - family-youth
  description: Boys & Girls Club
  address: {street: 1505 East Main Avenue, city: Morgan Hill, state: ca, zip: '95037'}
  geo: {lat: 37.14798, lng: -121.63615}
  place: 0649278
  website: http://www.bgclub.org
  external_ids: {bgca_site: '29582', bgca_org: '10787'}
  sources:
  - bgca/find-a-club
  verified: {'on': '2026-07-21', method: api}
- id: ca/morgan-hill/future-grads-sobrato-high-school
  name: Future Grads Sobrato High School
  categories:
  - family-youth
  description: Boys & Girls Club
  address: {street: 401 Burnett Avenue, city: Morgan Hill, state: ca, zip: '95037'}
  geo: {lat: 37.15911, lng: -121.66923}
  place: 0649278
  website: http://www.bgclub.org
  external_ids: {bgca_site: '29519', bgca_org: '10787'}
  sources:
  - bgca/find-a-club
  verified: {'on': '2026-07-21', method: api}
- id: ca/morgan-hill/jasmine-square
  name: Jasmine Square
  categories:
  - family-youth
  description: Boys & Girls Club
  address: {street: 16530 Monterey Rd, city: Morgan Hill, state: ca, zip: '95037'}
  geo: {lat: 37.11946, lng: -121.64564}
  place: 0649278
  phone: 408-779-1004
  website: http://www.bgclub.org
  external_ids: {bgca_site: '10454', bgca_org: '10787'}
  sources:
  - bgca/find-a-club
  verified: {'on': '2026-07-21', method: api}
- id: ca/morgan-hill/lori-escobar-el-toro-clubhouse
  name: Lori Escobar El Toro Clubhouse
  categories:
  - family-youth
  description: Boys & Girls Club
  address: {street: 17620 CREST AVE, city: Morgan Hill, state: ca, zip: '95037'}
  geo: {lat: 37.12794, lng: -121.66033}
  place: 0649278
  phone: 408-779-6002
  website: http://www.bgclub.org
  services:
  - Teen center
  - Summer programs
  - Meals
  - Military youth partnership
  external_ids: {bgca_site: '8329', bgca_org: '10787'}
  sources:
  - bgca/find-a-club
  verified: {'on': '2026-07-21', method: api}
- id: ca/morgan-hill/morgan-hill-comm-cultural-ctr
  name: Morgan Hill Comm & Cultural Ctr
  org: ca/second-harvest-of-silicon-valley
  categories:
  - food-pantry
  address: {street: 17000 Monterey Rd, city: Morgan Hill, state: ca, zip: '95037'}
  place: 0649278
  geo: {lat: 37.12638, lng: -121.64941}
  external_ids: {ca-second-harvest-of-silicon-valley: 0011I00001IqtrHQAR}
  sources:
  - foodbank/ca-second-harvest-of-silicon-valley
  verified: {'on': '2026-07-21', method: api}
- id: ca/morgan-hill/morgan-hill-library
  name: Morgan Hill Library
  categories:
  - meal-program
  address: {street: 660 West Main Ave, city: Morgan Hill, state: ca, zip: '95037'}
  description: Free summer meals for kids and teens (2026 season) — sponsored by YMCA OF SILICON VALLEY.
  place: 0649278
  geo: {lat: 37.12538, lng: -121.66331}
  phone: (408) 779-3196
  external_ids: {usda_master: Cycle 06_CA_SFSP_0715}
  sources:
  - usda/summer-meal-sites
  verified: {'on': '2026-07-19', method: api}
- id: ca/morgan-hill/p-a-walsh-steam-academy
  name: P.A. Walsh Steam Academy
  org: ca/second-harvest-of-silicon-valley
  categories:
  - food-pantry
  address: {street: 305 W. Main Ave, city: Morgan Hill, state: ca, zip: '95037'}
  place: 0649278
  geo: {lat: 37.12754, lng: -121.66069}
  external_ids: {ca-second-harvest-of-silicon-valley: 0011I00001EjX2oQAF}
  sources:
  - foodbank/ca-second-harvest-of-silicon-valley
  verified: {'on': '2026-07-21', method: api}
- id: ca/morgan-hill/park-place-boys-girls-club
  name: Park Place Boys & Girls Club
  categories:
  - family-youth
  description: Boys & Girls Club
  address: {street: 16480 Del Monte Ave, city: Morgan Hill, state: ca, zip: '95037'}
  geo: {lat: 37.11867, lng: -121.64902}
  place: 0649278
  phone: 408-779-4361
  website: http://www.bgclub.org
  external_ids: {bgca_site: '10013', bgca_org: '10787'}
  sources:
  - bgca/find-a-club
  verified: {'on': '2026-07-21', method: api}
- id: ca/morgan-hill/pathway-society-inc-south-county-outpatient
  name: Pathway Society Inc South County Outpatient
  categories:
  - su-treatment
  address: {street: 16433 Monterey Road, city: Morgan Hill, state: ca, zip: '95037'}
  place: 0649278
  geo: {lat: 37.11804, lng: -121.64667}
  phone: 408-782-6300
  website: https://www.pathwayinc.com
  services:
  - Outpatient
  - Regular outpatient treatment
  - Adult women
  - Adult men
  languages:
  - en
  - es
  eligibility: Serves young adults, adults, seniors.
  cost: varies
  sources:
  - samhsa/findtreatment
  verified: {'on': '2026-07-19', method: api}
- id: ca/morgan-hill/st-catherine-church-reachout
  name: St. Catherine Church - Reachout
  org: ca/second-harvest-of-silicon-valley
  categories:
  - food-pantry
  address: {street: 17400 Peak Ave., city: Morgan Hill, state: ca, zip: '95037'}
  place: 0649278
  geo: {lat: 37.12472, lng: -121.66054}
  external_ids: {ca-second-harvest-of-silicon-valley: 0011I00001Iqtg2QAB}
  sources:
  - foodbank/ca-second-harvest-of-silicon-valley
  verified: {'on': '2026-07-21', method: api}
- id: ca/morgan-hill/valley-health-center-morgan-hill
  name: Valley Health Center - Morgan Hill
  categories:
  - community-health-center
  cost: sliding-scale
  address: {street: '18550 De Paul Dr, Suite 208', city: Morgan Hill, state: ca, zip: '95037'}
  place: 0649278
  geo: {lat: 37.15373, lng: -121.64582}
  phone: 669-263-4017
  external_ids: {bphc: BPS-H80-038482}
  sources:
  - hrsa/health-center-sites
  verified: {'on': '2026-07-19', method: api}
- id: ca/morgan-hill/voices-morgan-hill-ccc
  name: Voices Morgan Hill CCC
  categories:
  - family-youth
  description: Boys & Girls Club
  address: {street: 17000 Monterey St, city: Morgan Hill, state: ca, zip: '95037'}
  geo: {lat: 37.12582, lng: -121.64966}
  place: 0649278
  phone: 408-782-0008
  website: http://www.bgclub.org
  external_ids: {bgca_site: '12678', bgca_org: '10787'}
  sources:
  - bgca/find-a-club
  verified: {'on': '2026-07-21', method: api}
