- id: ca/newbury-park/boys-girls-club-morton
  name: Boys & Girls Club Morton
  categories:
  - meal-program
  address:
    street: 2855 Borchard Road
    city: Newbury Park
    state: ca
    zip: '91320'
  description: Free summer meals for kids and teens (2026 season) — sponsored by LIGHTHOUSE 4KIDS INC.
  geo:
    lat: 34.17879
    lng: -118.93664
  phone: (805) 296-9614
  external_ids:
    usda_master: Cycle 07_CA_SFSP_1428
  sources:
  - usda/summer-meal-sites
  verified:
    'on': '2026-07-19'
    method: api
- id: ca/newbury-park/clinicas-del-camino-real-inc-newbury-park
  name: Clinicas Del Camino Real Inc - Newbury Park
  categories:
  - community-health-center
  address:
    street: 1000 Newbury Rd STE 150
    city: Newbury Park
    state: ca
    zip: '91320'
  geo:
    lat: 34.18343
    lng: -118.90429
  phone: 805-498-3640
  website: https://www.clinicas.org
  external_ids:
    bphc: BPS-H80-007979
  sources:
  - hrsa/health-center-sites
  verified:
    'on': '2026-07-19'
    method: api
- id: ca/newbury-park/clinicas-del-camino-real-inc-newbury-park-dental
  name: Clinicas del Camino Real, Inc. - Newbury Park Dental
  categories:
  - community-health-center
  address:
    street: 1000 Newbury Rd STE 195
    city: Newbury Park
    state: ca
    zip: '91320'
  geo:
    lat: 34.18337
    lng: -118.90415
  phone: 805-498-8238
  external_ids:
    bphc: BPS-H80-018927
  sources:
  - hrsa/health-center-sites
  verified:
    'on': '2026-07-19'
    method: api
- id: ca/newbury-park/clinicas-del-camino-real-inc-newbury-park-optica
  name: Clinicas del Camino Real Inc - Newbury Park Optical
  categories:
  - community-health-center
  address:
    street: 1000 Newbury Rd, Suite 170
    city: Newbury Park
    state: ca
    zip: '91320'
  geo:
    lat: 34.18285
    lng: -118.90481
  phone: 805-498-3640
  external_ids:
    bphc: BPS-H80-031728
  sources:
  - hrsa/health-center-sites
  verified:
    'on': '2026-07-19'
    method: api
- id: ca/newbury-park/housing-authority-of-the-county-of-ventura
  name: Housing Authority Of The County Of Ventura
  categories:
  - housing-assistance
  address:
    street: 1400 W Hillcrest Dr
    city: Newbury Park
    state: ca
    zip: '91320'
  description: Public housing and Housing Choice Voucher agency
  geo:
    lat: 34.18747
    lng: -118.90974
  phone: 805-480-9991
  sources:
  - hud/resource-locator
  verified:
    'on': '2026-07-19'
    method: api
