- id: ca/nipomo/ehs-home-visitor-socialization-site
  name: EHS Home Visitor/Socialization Site
  categories:
  - child-care
  address:
    street: 157 S Thompson Ave
    city: Nipomo
    state: ca
    zip: '93444'
  place: '0651476'
  geo:
    lat: 35.04135
    lng: -120.47428
  phone: 805-929-3366
  sources:
  - acf/head-start-locations
  verified:
    'on': '2026-07-19'
    method: api
- id: ca/nipomo/mayors-place
  name: Mayor’s Place
  categories:
  - food-pantry
  place: '0651476'
  geo:
    lat: 35.04143
    lng: -120.47755
  external_ids:
    lfp: '5798'
  sources:
  - littlefreepantry/map
  verified:
    'on': '2026-07-19'
    method: scrape
- id: ca/nipomo/nipomo-community-medical-center
  name: NIPOMO COMMUNITY MEDICAL CENTER
  categories:
  - community-health-center
  address:
    street: 150 Tejas Pl
    city: Nipomo
    state: ca
    zip: '93444'
  place: '0651476'
  geo:
    lat: 35.02703
    lng: -120.49835
  phone: 805-929-3211
  website: https://WWW.CHCCC.ORG
  external_ids:
    bphc: BPS-H80-002350
  sources:
  - hrsa/health-center-sites
  verified:
    'on': '2026-07-19'
    method: api
- id: ca/nipomo/nipomo-head-start
  name: Nipomo Head Start
  categories:
  - child-care
  address:
    street: 291 N Thompson Ave
    city: Nipomo
    state: ca
    zip: '93444'
  place: '0651476'
  geo:
    lat: 35.04553
    lng: -120.47944
  phone: 805-929-5614
  sources:
  - acf/head-start-locations
  verified:
    'on': '2026-07-19'
    method: api
- id: ca/nipomo/tefft-and-wilson
  name: Tefft and Wilson
  categories:
  - food-pantry
  place: '0651476'
  geo:
    lat: 35.04001
    lng: -120.47937
  external_ids:
    lfp: '5797'
  sources:
  - littlefreepantry/map
  verified:
    'on': '2026-07-19'
    method: scrape
- id: ca/nipomo/william-bill-castellanos
  name: William ?Bill? Castellanos
  categories:
  - child-care
  address:
    street: 525 N Thompson Ave
    city: Nipomo
    state: ca
    zip: '93444'
  place: '0651476'
  geo:
    lat: 35.05339
    lng: -120.48748
  phone: 805-929-0016
  sources:
  - acf/head-start-locations
  verified:
    'on': '2026-07-19'
    method: api
- id: ca/nipomo/william-bill-castellanos-early-head-start
  name: William "Bill" Castellanos Early Head Start
  categories:
  - child-care
  address:
    street: 525 N Thompson Ave
    city: Nipomo
    state: ca
    zip: '93444'
  place: '0651476'
  geo:
    lat: 35.04999
    lng: -120.48663
  phone: 805-929-0016
  sources:
  - acf/head-start-locations
  verified:
    'on': '2026-07-19'
    method: api
