- id: ca/north-hills/ccrc-sepulveda-head-start
  name: CCRC - Sepulveda Head Start
  categories:
  - child-care
  address:
    street: 15435 Rayen St
    city: North Hills
    state: ca
    zip: '91343'
  geo:
    lat: 34.23245
    lng: -118.46918
  phone: 818-892-0728
  sources:
  - acf/head-start-locations
  verified:
    'on': '2026-07-19'
    method: api
- id: ca/north-hills/mission-city-community-network-inc
  name: MISSION CITY COMMUNITY NETWORK, INC.
  categories:
  - community-health-center
  address:
    street: 15206 Parthenia St
    city: North Hills
    state: ca
    zip: '91343'
  geo:
    lat: 34.22811
    lng: -118.46383
  phone: 818-895-3100
  website: https://www.mccn.org
  external_ids:
    bphc: BPS-H80-001755
  sources:
  - hrsa/health-center-sites
  verified:
    'on': '2026-07-19'
    method: api
- id: ca/north-hills/mission-city-community-network-north-hills
  name: Mission City Community Network North Hills
  categories:
  - su-treatment
  - mh-treatment
  address:
    street: 15206 Parthenia Street
    city: North Hills
    state: ca
    zip: '91343'
  geo:
    lat: 34.22797
    lng: -118.46361
  phone: 818-895-3100 x399
  website: https://mccn.org
  sources:
  - samhsa/findtreatment
  verified:
    'on': '2026-07-19'
    method: api
- id: ca/north-hills/mission-city-community-network-parthenia
  name: Mission City Community Network -  Parthenia
  categories:
  - community-health-center
  address:
    street: 15210 Parthenia St
    city: North Hills
    state: ca
    zip: '91343'
  geo:
    lat: 34.22804
    lng: -118.46385
  phone: 818-895-3100
  external_ids:
    bphc: BPS-H80-010990
  sources:
  - hrsa/health-center-sites
  verified:
    'on': '2026-07-19'
    method: api
- id: ca/north-hills/mission-city-community-network-sepulveda
  name: Mission City Community Network- Sepulveda
  categories:
  - community-health-center
  address:
    street: 8527 Sepulveda Blvd
    city: North Hills
    state: ca
    zip: '91343'
  geo:
    lat: 34.22544
    lng: -118.468
  phone: 818-895-3100
  external_ids:
    bphc: BPS-H80-017376
  sources:
  - hrsa/health-center-sites
  verified:
    'on': '2026-07-19'
    method: api
- id: ca/north-hills/mission-city-community-network-sfv-mobile
  name: Mission City Community Network - SFV- Mobile
  categories:
  - community-health-center
  address:
    street: 8527 Sepulveda Blvd
    city: North Hills
    state: ca
    zip: '91343'
  geo:
    lat: 34.22544
    lng: -118.468
  phone: 818-895-3100
  external_ids:
    bphc: BPS-H80-016820
  sources:
  - hrsa/health-center-sites
  verified:
    'on': '2026-07-19'
    method: api
- id: ca/north-hills/north-hills-wellness-center
  name: NORTH HILLS WELLNESS CENTER
  categories:
  - community-health-center
  address:
    street: 9119 Haskell Ave
    city: North Hills
    state: ca
    zip: '91343'
  geo:
    lat: 34.23627
    lng: -118.47666
  phone: 818-763-8836
  external_ids:
    bphc: BPS-H80-014773
  sources:
  - hrsa/health-center-sites
  verified:
    'on': '2026-07-19'
    method: api
- id: ca/north-hills/penny-lane-centers-north-hills-family-center
  name: Penny Lane Centers North Hills Family Center
  categories:
  - su-treatment
  - mh-treatment
  address:
    street: 15305 Rayen Street
    city: North Hills
    state: ca
    zip: '91343'
  geo:
    lat: 34.23219
    lng: -118.46564
  phone: 818-892-3423
  website: https://www.pennylane.org
  sources:
  - samhsa/findtreatment
  verified:
    'on': '2026-07-19'
    method: api
- id: ca/north-hills/so-cal-community-health-center-north-hills
  name: So-Cal Community Health Center- North Hills
  categories:
  - community-health-center
  address:
    street: 15343 Parthenia St
    city: North Hills
    state: ca
    zip: '91343'
  geo:
    lat: 34.22842
    lng: -118.4669
  phone: 818-839-5666
  website: https://www.socalchc.org
  external_ids:
    bphc: BPS-LAL-041211
  sources:
  - hrsa/health-center-sites
  verified:
    'on': '2026-07-19'
    method: api
- id: ca/north-hills/va-greater-la-healthcare-system-otp-treatment-ma
  name: VA Greater LA Healthcare System OTP Treatment/Maintenance
  categories:
  - su-treatment
  - mh-treatment
  address:
    street: 16111 Plummer Street
    city: North Hills
    state: ca
    zip: '91343'
  geo:
    lat: 34.24463
    lng: -118.48221
  phone: 818-891-7711 x31225
  website: https://www.va.gov/greater-los-angeles-health-care/locations/sepulveda-va-medical-center/
  sources:
  - samhsa/findtreatment
  verified:
    'on': '2026-07-19'
    method: api
