- id: ca/northridge/aichc-northridge
  name: AICHC-Northridge
  categories:
  - community-health-center
  address:
    street: 17114 Devonshire St
    city: Northridge
    state: ca
    zip: '91325'
  geo:
    lat: 34.25726
    lng: -118.50605
  phone: 818-646-1771
  website: https://www.aichc.org
  external_ids:
    bphc: BPS-H80-019366
  sources:
  - hrsa/health-center-sites
  verified:
    'on': '2026-07-19'
    method: api
- id: ca/northridge/aichc-northridge-suite-101
  name: AICHC  -  Northridge - Suite 101
  categories:
  - community-health-center
  address:
    street: 17114 Devonshire St, Suite 101
    city: Northridge
    state: ca
    zip: '91325'
  geo:
    lat: 34.25727
    lng: -118.50606
  phone: 818-646-1771
  external_ids:
    bphc: BPS-H80-039278
  sources:
  - hrsa/health-center-sites
  verified:
    'on': '2026-07-19'
    method: api
- id: ca/northridge/alfred-b-nobel-charter-middle
  name: Alfred B. Nobel Charter Middle
  categories:
  - meal-program
  address: {street: 9950 Tampa Ave., city: Northridge, state: ca, zip: '91324'}
  description: Free summer meals for kids and teens (2026 season) — sponsored by LOS ANGELES UNIFIED SCHOOL
    DISTRICT.
  geo: {lat: 34.25095, lng: -118.55355}
  phone: (213) 241-2993
  external_ids: {usda_master: Cycle 10_CA_SSO_2713}
  sources:
  - usda/summer-meal-sites
  verified: {'on': '2026-07-19', method: api}
- id: ca/northridge/bright-paths-recovery
  name: Bright Paths Recovery
  categories:
  - su-treatment
  address:
    street: 10014 Louise Avenue
    city: Northridge
    state: ca
    zip: '91325'
  geo:
    lat: 34.25267
    lng: -118.51084
  phone: 866-933-1061
  website: https://brightpathsrecovery.com
  sources:
  - samhsa/findtreatment
  verified:
    'on': '2026-07-19'
    method: api
- id: ca/northridge/ccrc-napa-head-start
  name: CCRC - Napa Head Start
  categories:
  - child-care
  address:
    street: 19010 Napa St
    city: Northridge
    state: ca
    zip: '91324'
  geo:
    lat: 34.22532
    lng: -118.54733
  phone: 818-993-8462
  sources:
  - acf/head-start-locations
  verified:
    'on': '2026-07-19'
    method: api
- id: ca/northridge/centro-medico-reseda
  name: Centro Medico Reseda
  categories:
  - community-health-center
  address:
    street: 9017 Reseda Blvd
    city: Northridge
    state: ca
    zip: '91324'
  geo:
    lat: 34.23415
    lng: -118.53612
  phone: 951-278-3196
  website: https://centromedicoclinic.com
  external_ids:
    bphc: BPS-LAL-040167
  sources:
  - hrsa/health-center-sites
  verified:
    'on': '2026-07-19'
    method: api
- id: ca/northridge/child-and-family-guidance-center-balboa-site
  name: Child and Family Guidance Center Balboa Site
  categories:
  - su-treatment
  - mh-treatment
  address:
    street: 8550 Balboa Boulevard
    city: Northridge
    state: ca
    zip: '91325'
  geo:
    lat: 34.2262
    lng: -118.50181
  phone: 818-830-0200
  website: https://www.childguidance.org
  sources:
  - samhsa/findtreatment
  verified:
    'on': '2026-07-19'
    method: api
- id: ca/northridge/child-and-family-guidance-center-op-servs-northp
  name: Child and Family Guidance Center OP Servs/Northpoint School and Int
  categories:
  - su-treatment
  - mh-treatment
  address:
    street: 9650 Zelzah Avenue
    city: Northridge
    state: ca
    zip: '91325'
  geo:
    lat: 34.24631
    lng: -118.5225
  phone: 818-993-9311
  website: https://www.childguidance.org
  sources:
  - samhsa/findtreatment
  verified:
    'on': '2026-07-19'
    method: api
- id: ca/northridge/darby-avenue-elementary
  name: Darby Avenue Elementary
  categories:
  - meal-program
  address: {street: 10818 Darby Ave., city: Northridge, state: ca, zip: '91326'}
  description: Free summer meals for kids and teens (2026 season) — sponsored by LOS ANGELES UNIFIED SCHOOL
    DISTRICT.
  geo: {lat: 34.26642, lng: -118.53357}
  phone: (213) 241-2993
  external_ids: {usda_master: Cycle 07_CA_SSO_2578}
  sources:
  - usda/summer-meal-sites
  verified: {'on': '2026-07-19', method: api}
- id: ca/northridge/dearborn-elementary-charter-academy
  name: Dearborn Elementary Charter Academy
  categories:
  - meal-program
  address: {street: 9240 Wish Ave., city: Northridge, state: ca, zip: '91325'}
  description: Free summer meals for kids and teens (2026 season) — sponsored by LOS ANGELES UNIFIED SCHOOL
    DISTRICT.
  geo: {lat: 34.2387, lng: -118.50753}
  phone: (213) 241-2993
  external_ids: {usda_master: Cycle 07_CA_SSO_2580}
  sources:
  - usda/summer-meal-sites
  verified: {'on': '2026-07-19', method: api}
- id: ca/northridge/el-proyecto-del-barrio-northridge-community-clin
  name: EL PROYECTO DEL BARRIO--NORTHRIDGE COMMUNITY CLINIC
  categories:
  - community-health-center
  address:
    street: 18250 Roscoe Blvd, Ste 200
    city: Northridge
    state: ca
    zip: '91325'
  geo:
    lat: 34.22079
    lng: -118.53132
  phone: 818-721-4800
  external_ids:
    bphc: BPS-H80-016982
  sources:
  - hrsa/health-center-sites
  verified:
    'on': '2026-07-19'
    method: api
- id: ca/northridge/miracles-in-action-addiction-and-mental
  name: Miracles in Action Addiction and Mental
  categories:
  - su-treatment
  - mh-treatment
  address:
    street: 9241 Reseda Boulevard
    city: Northridge
    state: ca
    zip: '91324'
  geo:
    lat: 34.23843
    lng: -118.53634
  phone: 818-299-3925
  website: https://www.miraclesinaction.info
  sources:
  - samhsa/findtreatment
  verified:
    'on': '2026-07-19'
    method: api
- id: ca/northridge/napa-street-elementary
  name: Napa Street Elementary
  categories:
  - meal-program
  address: {street: 19010 Napa St., city: Northridge, state: ca, zip: '91324'}
  description: Free summer meals for kids and teens (2026 season) — sponsored by LOS ANGELES UNIFIED SCHOOL
    DISTRICT.
  geo: {lat: 34.22639, lng: -118.54687}
  phone: (213) 241-2993
  external_ids: {usda_master: Cycle 08_CA_SSO_2784}
  sources:
  - usda/summer-meal-sites
  verified: {'on': '2026-07-19', method: api}
- id: ca/northridge/northridge-academy-high
  name: Northridge Academy High
  categories:
  - meal-program
  address: {street: 9601 Zelzah Ave., city: Northridge, state: ca, zip: '91325'}
  description: Free summer meals for kids and teens (2026 season) — sponsored by LOS ANGELES UNIFIED SCHOOL
    DISTRICT.
  geo: {lat: 34.24546, lng: -118.52331}
  phone: (213) 241-2993
  external_ids: {usda_master: Cycle 08_CA_SSO_0100}
  sources:
  - usda/summer-meal-sites
  verified: {'on': '2026-07-19', method: api}
- id: ca/northridge/northridge-middle
  name: Northridge Middle
  categories:
  - meal-program
  address: {street: 17960 Chase St., city: Northridge, state: ca, zip: '91325'}
  description: Free summer meals for kids and teens (2026 season) — sponsored by LOS ANGELES UNIFIED SCHOOL
    DISTRICT.
  geo: {lat: 34.22458, lng: -118.5248}
  phone: (213) 241-2993
  external_ids: {usda_master: Cycle 08_CA_SSO_2793}
  sources:
  - usda/summer-meal-sites
  verified: {'on': '2026-07-19', method: api}
- id: ca/northridge/tarzana-treatment-centers-inc
  name: Tarzana Treatment Centers Inc
  categories:
  - su-treatment
  - mh-treatment
  address:
    street: 8330 Reseda Boulevard
    city: Northridge
    state: ca
    zip: '91324'
  geo:
    lat: 34.22162
    lng: -118.53568
  phone: 800-996-1051 x1387
  website: https://www.tarzanatc.org
  sources:
  - samhsa/findtreatment
  verified:
    'on': '2026-07-19'
    method: api
- id: ca/northridge/tarzana-treatment-centers-northridge
  name: Tarzana Treatment Centers-Northridge
  categories:
  - community-health-center
  address:
    street: 8330 Reseda Blvd
    city: Northridge
    state: ca
    zip: '91324'
  geo:
    lat: 34.22161
    lng: -118.53576
  phone: 818-534-1820
  website: https://www.tarzanatc.org/location-detail/northridge/8330-reseda-boulevard/
  external_ids:
    bphc: BPS-LAL-031691
  sources:
  - hrsa/health-center-sites
  verified:
    'on': '2026-07-19'
    method: api
- id: ca/northridge/topeka-charter-school-for-advanced-studies
  name: Topeka Charter School For Advanced Studies
  categories:
  - meal-program
  address: {street: 9815 Topeka Dr., city: Northridge, state: ca, zip: '91324'}
  description: Free summer meals for kids and teens (2026 season) — sponsored by LOS ANGELES UNIFIED SCHOOL
    DISTRICT.
  geo: {lat: 34.24823, lng: -118.54572}
  phone: (213) 241-2993
  external_ids: {usda_master: Cycle 11_CA_SSO_2528}
  sources:
  - usda/summer-meal-sites
  verified: {'on': '2026-07-19', method: api}
