- id: ca/oceano/community-health-centers-del-mar
  name: COMMUNITY HEALTH CENTERS - DEL MAR
  categories:
  - community-health-center
  cost: sliding-scale
  address:
    street: 2120 Cienaga St
    city: Oceano
    state: ca
    zip: '93445'
  place: 0653294
  geo:
    lat: 35.09784
    lng: -120.60865
  phone: 805-929-3211
  external_ids:
    bphc: BPS-H80-019701
  sources:
  - hrsa/health-center-sites
  verified:
    'on': '2026-07-19'
    method: api
- id: ca/oceano/five-cities-head-start
  name: Five Cities Head Start
  categories:
  - child-care
  address:
    street: 1800 Wilmar Ave
    street2: Bldg A
    city: Oceano
    state: ca
    zip: '93445'
  place: 0653294
  geo:
    lat: 35.1029
    lng: -120.61158
  phone: 805-473-1657
  sources:
  - acf/head-start-locations
  verified:
    'on': '2026-07-19'
    method: api
- id: ca/oceano/oceano
  name: Oceano
  categories:
  - food-pantry
  place: 0653294
  geo:
    lat: 35.09973
    lng: -120.61042
  website: https://mapping.littlefreepantry.org/pantry/2692
  external_ids:
    lfp: '2692'
  sources:
  - littlefreepantry/map
  verified:
    'on': '2026-07-19'
    method: scrape
- id: ca/oceano/oceano-elementary
  name: Oceano Elementary
  categories:
  - meal-program
  address: {street: 1551 17Th St., city: Oceano, state: ca, zip: '93445'}
  description: Free summer meals for kids and teens (2026 season) — sponsored by LUCIA MAR UNIFIED SCHOOL
    DISTRICT.
  place: 0653294
  geo: {lat: 35.10294, lng: -120.61242}
  phone: (805) 474-3000
  external_ids: {usda_master: Cycle 07_CA_SSO_1185}
  sources:
  - usda/summer-meal-sites
  verified: {'on': '2026-07-19', method: api}
- id: ca/oceano/oceano-ridge
  name: Oceano Ridge
  categories:
  - food-pantry
  place: 0653294
  geo:
    lat: 35.10275
    lng: -120.60365
  website: https://mapping.littlefreepantry.org/pantry/1430
  external_ids:
    lfp: '1430'
  sources:
  - littlefreepantry/map
  verified:
    'on': '2026-07-19'
    method: scrape
