- id: ca/pacifica/boys-girls-club-pacifica
  name: Boys & Girls Club Pacifica
  categories:
  - family-youth
  description: Boys & Girls Club
  address: {street: 955 Yosemite Dr, city: Pacifica, state: ca, zip: '94044'}
  geo: {lat: 37.58563, lng: -122.46922}
  place: 0654806
  phone: 650-355-1334
  website: http://www.theclubs.org
  services:
  - Teen center
  - Summer programs
  - Meals
  external_ids: {bgca_site: '4133', bgca_org: '10806'}
  sources:
  - bgca/find-a-club
  verified: {'on': '2026-07-21', method: api}
- id: ca/pacifica/cabrillo-clubhouse
  name: Cabrillo Clubhouse
  categories:
  - family-youth
  description: Boys & Girls Club
  address: {street: 601 Crespi Drive, city: Pacifica, state: ca, zip: '94044'}
  geo: {lat: 37.59804, lng: -122.4959}
  place: 0654806
  website: http://www.theclubs.org
  external_ids: {bgca_site: '29681', bgca_org: '10806'}
  sources:
  - bgca/find-a-club
  verified: {'on': '2026-07-21', method: api}
- id: ca/pacifica/ingrid-b-lacy-boys-girls-club
  name: Ingrid B. Lacy Boys & Girls Club
  categories:
  - family-youth
  description: Boys & Girls Club
  address: {street: 1427 Palmetto Ave, city: Pacifica, state: ca, zip: '94044'}
  geo: {lat: 37.63853, lng: -122.4913}
  place: 0654806
  phone: 650-359-6118
  website: http://www.theclubs.org
  services:
  - Teen center
  - Summer programs
  - Meals
  external_ids: {bgca_site: '1051', bgca_org: '10806'}
  sources:
  - bgca/find-a-club
  verified: {'on': '2026-07-21', method: api}
- id: ca/pacifica/ortega-clubhouse
  name: Ortega Clubhouse
  categories:
  - family-youth
  description: Boys & Girls Club
  address: {street: 1283 Terra Nova Blvd, city: Pacifica, state: ca, zip: '94044'}
  geo: {lat: 37.58756, lng: -122.47857}
  place: 0654806
  phone: 650-296-5439
  website: http://www.theclubs.org
  external_ids: {bgca_site: '12549', bgca_org: '10806'}
  sources:
  - bgca/find-a-club
  verified: {'on': '2026-07-21', method: api}
- id: ca/pacifica/pacifica-resource-center-buel
  name: Pacifica Resource Center - Buel
  org: ca/second-harvest-of-silicon-valley
  categories:
  - food-pantry
  address: {street: 555 Buel Ave, city: Pacifica, state: ca, zip: '94044'}
  place: 0654806
  geo: {lat: 37.60635, lng: -122.49248}
  external_ids: {ca-second-harvest-of-silicon-valley: 0011I00001IqjrQQAR}
  sources:
  - foodbank/ca-second-harvest-of-silicon-valley
  verified: {'on': '2026-07-21', method: api}
- id: ca/pacifica/pacifica-resource-center-palmetto-office
  name: Pacifica Resource Center - Palmetto Office
  org: ca/second-harvest-of-silicon-valley
  categories:
  - food-pantry
  address: {street: 1809 Palmetto Avenue, city: Pacifica, state: ca, zip: '94044'}
  place: 0654806
  geo: {lat: 37.63507, lng: -122.4919}
  external_ids: {ca-second-harvest-of-silicon-valley: 0011I00000TVQ4cQAH}
  sources:
  - foodbank/ca-second-harvest-of-silicon-valley
  verified: {'on': '2026-07-21', method: api}
- id: ca/pacifica/pacifica-resource-center-palmetto-pantry
  name: Pacifica Resource Center - Palmetto Pantry
  org: ca/second-harvest-of-silicon-valley
  categories:
  - food-pantry
  address: {street: 2316 Palmetto Avenue, city: Pacifica, state: ca, zip: '94044'}
  place: 0654806
  geo: {lat: 37.6309, lng: -122.49289}
  external_ids: {ca-second-harvest-of-silicon-valley: 001Qo00000nVjJIIA0}
  sources:
  - foodbank/ca-second-harvest-of-silicon-valley
  verified: {'on': '2026-07-21', method: api}
- id: ca/pacifica/sunset-ridge-osc-clubhouse
  name: Sunset Ridge & OSC Clubhouse
  categories:
  - family-youth
  description: Boys & Girls Club
  address: {street: 340 Inverness Dr, city: Pacifica, state: ca, zip: '94044'}
  geo: {lat: 37.6531, lng: -122.47981}
  place: 0654806
  phone: 650-534-7067
  website: http://www.theclubs.org
  external_ids: {bgca_site: '12548', bgca_org: '10806'}
  sources:
  - bgca/find-a-club
  verified: {'on': '2026-07-21', method: api}
- id: ca/pacifica/vallemar-clubhouse
  name: Vallemar Clubhouse
  categories:
  - family-youth
  description: Boys & Girls Club
  address: {street: 377 Reina Del Mar Avenue, city: Pacifica, state: ca, zip: '94044'}
  geo: {lat: 37.61458, lng: -122.48408}
  place: 0654806
  website: http://www.theclubs.org
  external_ids: {bgca_site: '29680', bgca_org: '10806'}
  sources:
  - bgca/find-a-club
  verified: {'on': '2026-07-21', method: api}
