- id: ca/palm-desert/banyan-palm-springs-llc
  name: Banyan Palm Springs LLC
  categories:
  - su-treatment
  address:
    street: 73771 Dinah Shore Drive
    city: Palm Desert
    state: ca
    zip: '92211'
  place: 0655184
  geo:
    lat: 33.79554
    lng: -116.37675
  phone: 800-547-4615
  website: https://www.banyanpalmsprings.com/
  sources:
  - samhsa/findtreatment
  verified:
    'on': '2026-07-19'
    method: api
- id: ca/palm-desert/dap-health-college-of-the-desert-student-health
  name: DAP Health - College of the Desert Student Health Center
  categories:
  - community-health-center
  address:
    street: 43500 Monterey Ave
    city: Palm Desert
    state: ca
    zip: '92260'
  place: 0655184
  geo:
    lat: 33.73324
    lng: -116.38686
  phone: 833-624-9399
  external_ids:
    bphc: BPS-H80-037581
  sources:
  - hrsa/health-center-sites
  verified:
    'on': '2026-07-19'
    method: api
- id: ca/palm-desert/dsusd-lincoln-head-start
  name: DSUSD-LINCOLN HEAD START
  categories:
  - child-care
  address:
    street: 74100 Rutledge Way
    city: Palm Desert
    state: ca
    zip: '92260'
  place: 0655184
  geo:
    lat: 33.73439
    lng: -116.37264
  phone: 760-771-8678
  sources:
  - acf/head-start-locations
  verified:
    'on': '2026-07-19'
    method: api
- id: ca/palm-desert/health-service-alliance-palm-desert-community-he
  name: Health Service Alliance Palm Desert Community Health Center
  categories:
  - su-treatment
  - mh-treatment
  address:
    street: 41990 Cook Street
    city: Palm Desert
    state: ca
    zip: '92211'
  place: 0655184
  geo:
    lat: 33.7488
    lng: -116.35557
  phone: 760-674-7132
  website: https://Healthservicealliance.Org
  sources:
  - samhsa/findtreatment
  verified:
    'on': '2026-07-19'
    method: api
- id: ca/palm-desert/olive-crest
  name: Olive Crest
  categories:
  - su-treatment
  - mh-treatment
  address:
    street: 39820 Portola Avenue
    city: Palm Desert
    state: ca
    zip: '92260'
  place: 0655184
  geo:
    lat: 33.76041
    lng: -116.37335
  phone: 951-656-8500
  website: https://www.olivecrest.org
  sources:
  - samhsa/findtreatment
  verified:
    'on': '2026-07-19'
    method: api
- id: ca/palm-desert/palm-desert-community-health-center
  name: Palm Desert Community Health Center
  categories:
  - community-health-center
  address:
    street: 41990 Cook St, Suite F 2007
    city: Palm Desert
    state: ca
    zip: '92211'
  place: 0655184
  geo:
    lat: 33.74871
    lng: -116.35522
  phone: 909-281-5800
  external_ids:
    bphc: BPS-LAL-039995
  sources:
  - hrsa/health-center-sites
  verified:
    'on': '2026-07-19'
    method: api
