- id: ca/pico-rivera/altamed-medical-group-pico-rivera-passons
  name: 'AltaMed Medical Group: Pico Rivera, Passons'
  categories:
  - community-health-center
  address:
    street: 6336 Passons Boulevard
    city: Pico Rivera
    state: ca
    zip: '90660'
  place: 0656924
  geo:
    lat: 33.98525
    lng: -118.0862
  phone: 888-499-9303
  website: https://www.altamed.org
  external_ids:
    bphc: BPS-H80-000019
  sources:
  - hrsa/health-center-sites
  verified:
    'on': '2026-07-19'
    method: api
- id: ca/pico-rivera/altamed-medical-group-pico-rivera-slauson
  name: 'AltaMed Medical Group: Pico Rivera, Slauson'
  categories:
  - community-health-center
  address:
    street: 9436 Slauson Ave
    city: Pico Rivera
    state: ca
    zip: '90660'
  place: 0656924
  geo:
    lat: 33.96774
    lng: -118.09656
  phone: 888-499-9303
  website: https://www.altamed.org
  external_ids:
    bphc: BPS-H80-005522
  sources:
  - hrsa/health-center-sites
  verified:
    'on': '2026-07-19'
    method: api
- id: ca/pico-rivera/altamed-medical-group-pico-rivera-washington
  name: AltaMed Medical Group - Pico Rivera, Washington
  categories:
  - community-health-center
  address:
    street: 9406 Washington Blvd
    city: Pico Rivera
    state: ca
    zip: '90660'
  place: 0656924
  geo:
    lat: 33.97874
    lng: -118.08942
  phone: 888-499-9303
  external_ids:
    bphc: BPS-H80-040444
  sources:
  - hrsa/health-center-sites
  verified:
    'on': '2026-07-19'
    method: api
- id: ca/pico-rivera/altamed-pharmacy-pico-passons
  name: AltaMed Pharmacy - Pico Passons
  categories:
  - community-health-center
  address:
    street: 6336 Passons Blvd
    city: Pico Rivera
    state: ca
    zip: '90660'
  place: 0656924
  geo:
    lat: 33.9849
    lng: -118.08563
  phone: 888-499-9303
  website: https://www.altamed.org
  external_ids:
    bphc: BPS-H80-030605
  sources:
  - hrsa/health-center-sites
  verified:
    'on': '2026-07-19'
    method: api
- id: ca/pico-rivera/friends-of-family-health-center-pico-rivera
  name: Friends of Family Health Center - Pico Rivera
  categories:
  - community-health-center
  address:
    street: 5062 Rosemead Blvd
    city: Pico Rivera
    state: ca
    zip: '90660'
  place: 0656924
  geo:
    lat: 34.00008
    lng: -118.08398
  phone: 562-801-2287
  website: https://fofhealthcenter.org/
  external_ids:
    bphc: BPS-H80-034911
  sources:
  - hrsa/health-center-sites
  verified:
    'on': '2026-07-19'
    method: api
- id: ca/pico-rivera/maizeland-plaza
  name: Maizeland (Plaza)
  categories:
  - child-care
  address:
    street: 7601 Cord Ave
    city: Pico Rivera
    state: ca
    zip: '90660'
  place: 0656924
  geo:
    lat: 33.97015
    lng: -118.09445
  phone: 562-205-2792
  sources:
  - acf/head-start-locations
  verified:
    'on': '2026-07-19'
    method: api
- id: ca/pico-rivera/montebello-gardens
  name: Montebello Gardens
  categories:
  - child-care
  address:
    street: 4700 Pine St
    city: Pico Rivera
    state: ca
    zip: '90660'
  place: 0656924
  geo:
    lat: 34.0089
    lng: -118.08967
  phone: 323-887-7963
  sources:
  - acf/head-start-locations
  verified:
    'on': '2026-07-19'
    method: api
- id: ca/pico-rivera/montebello-gardens-elementary
  name: Montebello Gardens Elementary
  categories:
  - child-care
  address:
    street: 4700 Pine St
    city: Pico Rivera
    state: ca
    zip: '90660'
  place: 0656924
  geo:
    lat: 34.009
    lng: -118.08964
  phone: 323-887-7963
  sources:
  - acf/head-start-locations
  verified:
    'on': '2026-07-19'
    method: api
- id: ca/pico-rivera/pico-rivera-housing-assistance-agency
  name: Pico Rivera Housing Assistance Agency
  categories:
  - housing-assistance
  address: {street: 6615 Passons Blvd, city: Pico Rivera, state: ca, zip: '90660'}
  description: Housing Choice Voucher (Section 8) agency
  place: 0656924
  geo: {lat: 33.9821, lng: -118.08837}
  phone: 562-801-4347
  sources:
  - hud/resource-locator
  verified: {'on': '2026-07-19', method: api}
- id: ca/pico-rivera/pico-rivera-maof
  name: Pico Rivera (MAOF)
  categories:
  - child-care
  address:
    street: 9125 Burke St
    city: Pico Rivera
    state: ca
    zip: '90660'
  place: 0656924
  geo:
    lat: 33.96938
    lng: -118.10241
  phone: 532-949-3189
  sources:
  - acf/head-start-locations
  verified:
    'on': '2026-07-19'
    method: api
- id: ca/pico-rivera/pio-pico-plaza
  name: Pio Pico (Plaza)
  categories:
  - child-care
  address:
    street: 4211 Columbia Ave
    city: Pico Rivera
    state: ca
    zip: '90660'
  place: 0656924
  geo:
    lat: 34.01404
    lng: -118.08373
  phone: 562-463-9496
  sources:
  - acf/head-start-locations
  verified:
    'on': '2026-07-19'
    method: api
- id: ca/pico-rivera/southern-california-medical-center
  name: Southern California Medical Center
  categories:
  - community-health-center
  address:
    street: 8825 Whittier Blvd
    city: Pico Rivera
    state: ca
    zip: '90660'
  place: 0656924
  geo:
    lat: 34.00198
    lng: -118.0846
  phone: 562-699-3333
  website: https://www.scmedcenter.org
  external_ids:
    bphc: BPS-H80-017131
  sources:
  - hrsa/health-center-sites
  verified:
    'on': '2026-07-19'
    method: api
- id: ca/pico-rivera/tavarua-health-services
  name: Tavarua Health Services
  categories:
  - su-treatment
  address:
    street: 8207 Whittier Boulevard
    city: Pico Rivera
    state: ca
    zip: '90660'
  place: 0656924
  geo:
    lat: 34.00686
    lng: -118.09604
  phone: 562-695-0737
  website: https://www.americanhealthservices.org
  sources:
  - samhsa/findtreatment
  verified:
    'on': '2026-07-19'
    method: api
- id: ca/pico-rivera/united-plaza
  name: United (Plaza)
  categories:
  - child-care
  address:
    street: 6440 Paramount Blvd
    city: Pico Rivera
    state: ca
    zip: '90660'
  place: 0656924
  geo:
    lat: 33.98974
    lng: -118.09971
  phone: 562-949-1981
  sources:
  - acf/head-start-locations
  verified:
    'on': '2026-07-19'
    method: api
