- id: ca/redway/community-supports-annex
  name: Community Supports Annex
  categories:
  - community-health-center
  cost: sliding-scale
  address:
    street: 76 Briceland Thorn Rd
    city: Redway
    state: ca
    zip: '95560'
  place: 0660088
  geo:
    lat: 40.1206
    lng: -123.82501
  phone: 707-923-2783
  external_ids:
    bphc: BPS-H80-036900
  sources:
  - hrsa/health-center-sites
  verified:
    'on': '2026-07-19'
    method: api
- id: ca/redway/redway
  name: Redway
  categories:
  - child-care
  address:
    street: 334 Empire Ave
    city: Redway
    state: ca
    zip: '95560'
  description: Head Start early childhood program — 12 funded slots; operated by NORTHCOAST CHILDREN'S
    SERVICE, INC.
  place: 0660088
  geo:
    lat: 40.12017
    lng: -123.82545
  phone: 707-923-4691
  sources:
  - acf/head-start-locations
  verified:
    'on': '2026-07-19'
    method: api
- id: ca/redway/redway-family-resource-center-redway-elementary
  name: REDWAY FAMILY RESOURCE CENTER/REDWAY ELEMENTARY
  categories:
  - community-health-center
  cost: sliding-scale
  address:
    street: 344 Humboldt Ave
    city: Redway
    state: ca
    zip: '95560'
  place: 0660088
  geo:
    lat: 40.11948
    lng: -123.82492
  phone: 707-923-2783
  website: https://rrhc.org
  external_ids:
    bphc: BPS-H80-005958
  sources:
  - hrsa/health-center-sites
  verified:
    'on': '2026-07-19'
    method: api
- id: ca/redway/redwoods-rural-health-center
  name: REDWOODS RURAL HEALTH CENTER
  categories:
  - community-health-center
  cost: sliding-scale
  address:
    street: 101 W Coast Rd
    city: Redway
    state: ca
    zip: '95560'
  place: 0660088
  geo:
    lat: 40.117
    lng: -123.81314
  phone: 707-923-2783
  website: https://www.rrhc.org
  external_ids:
    bphc: BPS-H80-000605
  sources:
  - hrsa/health-center-sites
  verified:
    'on': '2026-07-19'
    method: api
- id: ca/redway/rrhc-mobile-dental-services
  name: RRHC Mobile Dental Services
  categories:
  - community-health-center
  cost: sliding-scale
  address:
    street: 101 W Coast Rd
    city: Redway
    state: ca
    zip: '95560'
  place: 0660088
  geo:
    lat: 40.117
    lng: -123.81314
  phone: 707-923-2783
  website: https://www.rrhc.org
  external_ids:
    bphc: BPS-H80-014694
  sources:
  - hrsa/health-center-sites
  verified:
    'on': '2026-07-19'
    method: api
- id: ca/redway/rrhc-mobile-medical-office
  name: RRHC Mobile Medical Office
  categories:
  - community-health-center
  cost: sliding-scale
  address:
    street: 101 W Coast Rd
    city: Redway
    state: ca
    zip: '95560'
  place: 0660088
  geo:
    lat: 40.117
    lng: -123.81314
  phone: 707-923-2783
  website: https://www.rrhc.org
  external_ids:
    bphc: BPS-H80-030035
  sources:
  - hrsa/health-center-sites
  verified:
    'on': '2026-07-19'
    method: api
- id: ca/redway/rrhc-satellite-dental
  name: RRHC Satellite Dental
  categories:
  - community-health-center
  cost: sliding-scale
  address:
    street: 217 Briceland-Thorne Rd
    city: Redway
    state: ca
    zip: '95560'
  place: 0660088
  geo:
    lat: 40.121
    lng: -123.8265
  phone: 707-923-2783
  website: https://www.rrhc.org
  external_ids:
    bphc: BPS-H80-029769
  sources:
  - hrsa/health-center-sites
  verified:
    'on': '2026-07-19'
    method: api
