- id: ca/rialto/rialto-early-head-start
  name: Rialto Early Head Start
  categories:
  - child-care
  address:
    street: 304 N Pepper Ave
    city: Rialto
    state: ca
    zip: '92376'
  place: '0660466'
  geo:
    lat: 34.10565
    lng: -117.35357
  phone: 909-562-0901
  sources:
  - acf/head-start-locations
  verified:
    'on': '2026-07-19'
    method: api
- id: ca/rialto/rialto-eucalyptus-head-start
  name: Rialto Eucalyptus Head Start
  categories:
  - child-care
  address:
    street: 485 N Eucalyptus Ave
    city: Rialto
    state: ca
    zip: '92376'
  place: '0660466'
  geo:
    lat: 34.10835
    lng: -117.35629
  phone: 909-421-7180
  sources:
  - acf/head-start-locations
  verified:
    'on': '2026-07-19'
    method: api
- id: ca/rialto/rialto-renaissance-head-start
  name: Rialto Renaissance Head Start
  categories:
  - child-care
  address:
    street: 1360 W Foothill Blvd
    city: Rialto
    state: ca
    zip: '92376'
  place: '0660466'
  geo:
    lat: 34.10694
    lng: -117.39792
  phone: 909-875-6863
  sources:
  - acf/head-start-locations
  verified:
    'on': '2026-07-19'
    method: api
- id: ca/rialto/rialto-willow-head-start
  name: Rialto Willow Head Start
  categories:
  - child-care
  address:
    street: 1432 N Willow Ave
    city: Rialto
    state: ca
    zip: '92376'
  place: '0660466'
  geo:
    lat: 34.12567
    lng: -117.3748
  phone: 909-421-7042
  sources:
  - acf/head-start-locations
  verified:
    'on': '2026-07-19'
    method: api
- id: ca/rialto/sac-rialto-usd
  name: SAC Rialto USD
  categories:
  - community-health-center
  address:
    street: 815 S Willow Ave
    city: Rialto
    state: ca
    zip: '92376'
  place: '0660466'
  geo:
    lat: 34.08624
    lng: -117.37461
  phone: 909-382-7100
  external_ids:
    bphc: BPS-H80-030921
  sources:
  - hrsa/health-center-sites
  verified:
    'on': '2026-07-19'
    method: api
- id: ca/rialto/san-bernardino-county-rialto-behav-and-addiction
  name: San Bernardino County Rialto Behav and Addiction Trt Serv
  categories:
  - su-treatment
  address:
    street: 850 East Foothill Boulevard
    city: Rialto
    state: ca
    zip: '92376'
  place: '0660466'
  geo:
    lat: 34.10698
    lng: -117.35431
  phone: 909-421-9465
  website: https://wp.sbcounty.gov/dbh/
  sources:
  - samhsa/findtreatment
  verified:
    'on': '2026-07-19'
    method: api
