- id: ca/riverbank/california-avenue-elementary
  name: California Avenue Elementary
  categories:
  - meal-program
  address:
    street: 3800 California Ave.
    city: Riverbank
    state: ca
    zip: '95367'
  description: Free summer meals for kids and teens (2026 season) — sponsored by RIVERBANK UNIFIED SCHOOL
    DISTRICT.
  place: 0661068
  geo:
    lat: 37.72901
    lng: -120.9258
  phone: (209) 869-2538
  external_ids:
    usda_master: Cycle 01_CA_SSO_0529
  sources:
  - usda/summer-meal-sites
  verified:
    'on': '2026-07-19'
    method: api
- id: ca/riverbank/cardozo-middle
  name: Cardozo Middle
  categories:
  - meal-program
  address:
    street: 3525 Santa Fe St.
    city: Riverbank
    state: ca
    zip: '95367'
  description: Free summer meals for kids and teens (2026 season) — sponsored by RIVERBANK UNIFIED SCHOOL
    DISTRICT.
  place: 0661068
  geo:
    lat: 37.73605
    lng: -120.93129
  phone: (209) 869-2538
  external_ids:
    usda_master: Cycle 01_CA_SSO_0530
  sources:
  - usda/summer-meal-sites
  verified:
    'on': '2026-07-19'
    method: api
- id: ca/riverbank/gvhc-riverbank
  name: GVHC - RIVERBANK
  categories:
  - community-health-center
  address:
    street: 4150 Patterson Rd
    city: Riverbank
    state: ca
    zip: '95367'
  place: 0661068
  geo:
    lat: 37.73174
    lng: -120.92014
  phone: 209-383-1848
  website: https://www.gvhc.org
  external_ids:
    bphc: BPS-H80-008705
  sources:
  - hrsa/health-center-sites
  verified:
    'on': '2026-07-19'
    method: api
- id: ca/riverbank/housing-authority-of-the-city-of-riverbank
  name: Housing Authority Of The City Of Riverbank
  categories:
  - housing-assistance
  address:
    street: 3309 Stanislaus St
    city: Riverbank
    state: ca
    zip: '95367'
  description: Public housing (Low-Rent) agency
  place: 0661068
  geo:
    lat: 37.73519
    lng: -120.93522
  phone: 209-869-4501
  sources:
  - hud/resource-locator
  verified:
    'on': '2026-07-19'
    method: api
- id: ca/riverbank/riverbank-child-development-center
  name: Riverbank Child Development Center
  categories:
  - child-care
  address:
    street: 6200 Claus Rd
    city: Riverbank
    state: ca
    zip: '95367'
  place: 0661068
  geo:
    lat: 37.73089
    lng: -120.92061
  phone: 209-869-0973
  sources:
  - acf/head-start-locations
  verified:
    'on': '2026-07-19'
    method: api
- id: ca/riverbank/riverbank-head-start
  name: Riverbank Head Start
  categories:
  - child-care
  address:
    street: 6200 Claus Rd
    city: Riverbank
    state: ca
    zip: '95367'
  place: 0661068
  geo:
    lat: 37.73174
    lng: -120.92115
  phone: 209-869-7005
  sources:
  - acf/head-start-locations
  verified:
    'on': '2026-07-19'
    method: api
- id: ca/riverbank/riverbank-language-academy
  name: Riverbank Language Academy
  categories:
  - meal-program
  address:
    street: 2400 Stanislaus St.
    city: Riverbank
    state: ca
    zip: '95367'
  description: Free summer meals for kids and teens (2026 season) — sponsored by RIVERBANK UNIFIED SCHOOL
    DISTRICT.
  place: 0661068
  geo:
    lat: 37.73498
    lng: -120.95338
  phone: (209) 869-2538
  external_ids:
    usda_master: Cycle 01_CA_SSO_0053
  sources:
  - usda/summer-meal-sites
  verified:
    'on': '2026-07-19'
    method: api
