- id: ca/san-ysidro/ecs-san-ysidro-head-start
  name: ECS -- San Ysidro Head Start
  categories:
  - child-care
  address:
    street: 249 Willow Rd
    city: San Ysidro
    state: ca
    zip: '92173'
  geo:
    lat: 32.5477
    lng: -117.04232
  phone: 619-428-6614
  sources:
  - acf/head-start-locations
  verified:
    'on': '2026-07-19'
    method: api
- id: ca/san-ysidro/ecs-sbusd-nicoloff-center
  name: ECS -- SBUSD Nicoloff Center
  categories:
  - child-care
  address:
    street: 1777 Howard Ave
    city: San Ysidro
    state: ca
    zip: '92173'
  geo:
    lat: 32.56523
    lng: -117.06672
  phone: 619-428-7084
  sources:
  - acf/head-start-locations
  verified:
    'on': '2026-07-19'
    method: api
- id: ca/san-ysidro/ecs-sysd-cdc
  name: ECS -- SYSD CDC
  categories:
  - child-care
  address:
    street: 1880 Smythe Ave
    city: San Ysidro
    state: ca
    zip: '92173'
  geo:
    lat: 32.5636
    lng: -117.05029
  phone: 619-428-2352
  sources:
  - acf/head-start-locations
  verified:
    'on': '2026-07-19'
    method: api
- id: ca/san-ysidro/ecs-sysd-sunset
  name: ECS -- SYSD Sunset
  categories:
  - child-care
  address:
    street: 3825 Sunset Ln
    city: San Ysidro
    state: ca
    zip: '92173'
  geo:
    lat: 32.55808
    lng: -117.05113
  phone: 619-428-4476
  sources:
  - acf/head-start-locations
  verified:
    'on': '2026-07-19'
    method: api
- id: ca/san-ysidro/la-mirada-elementary
  name: La Mirada Elementary
  categories:
  - meal-program
  address: {street: 222 Avenida De La Madrid, city: San Ysidro, state: ca, zip: '92173'}
  description: Free summer meals for kids and teens (2026 season) — sponsored by SAN YSIDRO ELEMENTARY
    SCHOOL DISTRICT.
  geo: {lat: 32.56289, lng: -117.04651}
  phone: (619) 601-1385
  external_ids: {usda_master: Cycle 03_CA_SSO_0579}
  sources:
  - usda/summer-meal-sites
  verified: {'on': '2026-07-19', method: api}
- id: ca/san-ysidro/maof-san-ysidro
  name: MAOF San Ysidro
  categories:
  - child-care
  address:
    street: 1901 Del Sur Blvd
    street2: Fl 1
    city: San Ysidro
    state: ca
    zip: '92173'
  geo:
    lat: 32.56334
    lng: -117.05564
  phone: 619-621-2525
  sources:
  - acf/head-start-locations
  verified:
    'on': '2026-07-19'
    method: api
- id: ca/san-ysidro/san-ysidro-adult-day-healthcare-center
  name: San Ysidro Adult Day Healthcare Center
  categories:
  - community-health-center
  address:
    street: 3364 Beyer Blvd
    city: San Ysidro
    state: ca
    zip: '92173'
  geo:
    lat: 32.5667
    lng: -117.06079
  phone: 619-662-4100
  website: https://www.syhc.org
  external_ids:
    bphc: BPS-H80-009108
  sources:
  - hrsa/health-center-sites
  verified:
    'on': '2026-07-19'
    method: api
- id: ca/san-ysidro/san-ysidro-health-center
  name: San Ysidro Health Center
  categories:
  - su-treatment
  - mh-treatment
  address:
    street: 4004 Beyer Boulevard
    city: San Ysidro
    state: ca
    zip: '92173'
  geo:
    lat: 32.55873
    lng: -117.04764
  phone: 619-662-4100
  website: https://www.syhealth.org
  sources:
  - samhsa/findtreatment
  verified:
    'on': '2026-07-19'
    method: api
- id: ca/san-ysidro/san-ysidro-health-central-processing-center
  name: San Ysidro Health Central Processing Center
  categories:
  - community-health-center
  address:
    street: 1660 Precision Park Ln
    city: San Ysidro
    state: ca
    zip: '92173'
  geo:
    lat: 32.566
    lng: -117.05962
  phone: 619-662-4100
  external_ids:
    bphc: BPS-H80-032419
  sources:
  - hrsa/health-center-sites
  verified:
    'on': '2026-07-19'
    method: api
- id: ca/san-ysidro/san-ysidro-health-corporate-office
  name: San Ysidro Health Corporate Office
  categories:
  - community-health-center
  address:
    street: 1601 Precision Park Ln
    city: San Ysidro
    state: ca
    zip: '92173'
  geo:
    lat: 32.56698
    lng: -117.05883
  phone: 619-662-4100
  external_ids:
    bphc: BPS-H80-027073
  sources:
  - hrsa/health-center-sites
  verified:
    'on': '2026-07-19'
    method: api
- id: ca/san-ysidro/san-ysidro-health-idsp-mobile-unit
  name: San Ysidro Health IDSP Mobile Unit
  categories:
  - community-health-center
  address:
    street: 4004 Beyer Blvd
    city: San Ysidro
    state: ca
    zip: '92173'
  geo:
    lat: 32.5587
    lng: -117.04747
  phone: 619-662-4100
  external_ids:
    bphc: BPS-H80-037712
  sources:
  - hrsa/health-center-sites
  verified:
    'on': '2026-07-19'
    method: api
- id: ca/san-ysidro/san-ysidro-health-maternal-child-health-center
  name: San Ysidro Health Maternal & Child Health Center
  categories:
  - community-health-center
  address:
    street: 4050 Beyer Blvd
    city: San Ysidro
    state: ca
    zip: '92173'
  geo:
    lat: 32.55894
    lng: -117.04732
  phone: 619-662-4100
  external_ids:
    bphc: BPS-H80-008546
  sources:
  - hrsa/health-center-sites
  verified:
    'on': '2026-07-19'
    method: api
- id: ca/san-ysidro/san-ysidro-health-mobile-health-services-1f
  name: San Ysidro Health Mobile Health Services 1F
  categories:
  - community-health-center
  address:
    street: 4004 Beyer Blvd
    city: San Ysidro
    state: ca
    zip: '92173'
  geo:
    lat: 32.5587
    lng: -117.04747
  phone: 619-662-4100
  website: https://www.syjc.org
  external_ids:
    bphc: BPS-H80-001488
  sources:
  - hrsa/health-center-sites
  verified:
    'on': '2026-07-19'
    method: api
- id: ca/san-ysidro/san-ysidro-health-mobile-health-services-1g
  name: San Ysidro Health Mobile Health Services 1G
  categories:
  - community-health-center
  address:
    street: 4004 Beyer Blvd
    city: San Ysidro
    state: ca
    zip: '92173'
  geo:
    lat: 32.5587
    lng: -117.04747
  phone: 619-662-4100
  website: https://www.syhc.org
  external_ids:
    bphc: BPS-H80-003812
  sources:
  - hrsa/health-center-sites
  verified:
    'on': '2026-07-19'
    method: api
- id: ca/san-ysidro/san-ysidro-health-mobile-health-services-1h
  name: San Ysidro Health Mobile Health Services 1H
  categories:
  - community-health-center
  address:
    street: 4004 Beyer Blvd
    city: San Ysidro
    state: ca
    zip: '92173'
  geo:
    lat: 32.5587
    lng: -117.04747
  phone: 619-662-4100
  external_ids:
    bphc: BPS-H80-028255
  sources:
  - hrsa/health-center-sites
  verified:
    'on': '2026-07-19'
    method: api
- id: ca/san-ysidro/san-ysidro-health-mobile-health-services-1j
  name: San Ysidro Health Mobile Health Services 1J
  categories:
  - community-health-center
  address:
    street: 4004 Beyer Blvd
    city: San Ysidro
    state: ca
    zip: '92173'
  geo:
    lat: 32.5587
    lng: -117.04747
  phone: 619-662-4100
  external_ids:
    bphc: BPS-H80-037711
  sources:
  - hrsa/health-center-sites
  verified:
    'on': '2026-07-19'
    method: api
- id: ca/san-ysidro/san-ysidro-health-precision-park
  name: San Ysidro Health Precision Park
  categories:
  - su-treatment
  - mh-treatment
  address:
    street: 1666 Precision Park Lane
    city: San Ysidro
    state: ca
    zip: '92173'
  geo:
    lat: 32.56602
    lng: -117.06024
  phone: 619-662-4100
  website: https://www.syhealth.org
  sources:
  - samhsa/findtreatment
  verified:
    'on': '2026-07-19'
    method: api
- id: ca/san-ysidro/san-ysidro-health-precision-park-2
  name: San Ysidro Health Precision Park
  categories:
  - community-health-center
  address:
    street: 1666 Precision Park Ln
    city: San Ysidro
    state: ca
    zip: '92173'
  geo:
    lat: 32.5662
    lng: -117.06011
  phone: 619-662-4100
  external_ids:
    bphc: BPS-H80-034393
  sources:
  - hrsa/health-center-sites
  verified:
    'on': '2026-07-19'
    method: api
- id: ca/san-ysidro/san-ysidro-health-san-diego-pace-senior-health-s
  name: San Ysidro Health San Diego PACE/Senior Health Services
  categories:
  - community-health-center
  address:
    street: 3364 Beyer Blvd STE 102
    city: San Ysidro
    state: ca
    zip: '92173'
  geo:
    lat: 32.56619
    lng: -117.06111
  phone: 619-662-4100
  external_ids:
    bphc: BPS-H80-018653
  sources:
  - hrsa/health-center-sites
  verified:
    'on': '2026-07-19'
    method: api
- id: ca/san-ysidro/san-ysidro-health-san-ysidro-health-center
  name: San Ysidro Health San Ysidro Health Center
  categories:
  - community-health-center
  address:
    street: 4004 Beyer Blvd
    city: San Ysidro
    state: ca
    zip: '92173'
  geo:
    lat: 32.5587
    lng: -117.04747
  phone: 619-662-4100
  website: https://www.syhc.org
  external_ids:
    bphc: BPS-H80-005050
  sources:
  - hrsa/health-center-sites
  verified:
    'on': '2026-07-19'
    method: api
- id: ca/san-ysidro/san-ysidro-teen-center
  name: San Ysidro Teen Center
  categories:
  - meal-program
  address: {street: 101 W. San Ysidro Blvd., city: San Ysidro, state: ca, zip: '92173'}
  description: Free summer meals for kids and teens (2026 season) — sponsored by HEAVEN'S WINDOWS.
  geo: {lat: 32.5523, lng: -117.04436}
  phone: (619) 541-0160
  external_ids: {usda_master: Cycle 03_CA_SFSP_0490}
  sources:
  - usda/summer-meal-sites
  verified: {'on': '2026-07-19', method: api}
