- id: ca/san-marcos/capalina-comprehensive-treatment-center
  name: Capalina Comprehensive Treatment Center
  categories:
  - su-treatment
  address:
    street: 1560 Capalina Road
    city: San Marcos
    state: ca
    zip: '92069'
  place: 0668196
  geo:
    lat: 33.15123
    lng: -117.19458
  phone: 760-744-2104
  website: https://www.sandiegoctcs.com
  sources:
  - samhsa/findtreatment
  verified:
    'on': '2026-07-19'
    method: api
- id: ca/san-marcos/gosnell
  name: Gosnell
  categories:
  - child-care
  address:
    street: 139 Gosnell Way
    city: San Marcos
    state: ca
    zip: '92069'
  place: 0668196
  geo:
    lat: 33.14515
    lng: -117.16383
  phone: 760-736-3066
  sources:
  - acf/head-start-locations
  verified:
    'on': '2026-07-19'
    method: api
- id: ca/san-marcos/linda-vista-ehs
  name: Linda Vista EHS
  categories:
  - child-care
  address:
    street: 1587 Linda Vista Drive
    city: San Marcos
    state: ca
    zip: '92069'
  place: 0668196
  geo:
    lat: 33.13943
    lng: -117.20097
  phone: 760-744-7995
  sources:
  - acf/head-start-locations
  verified:
    'on': '2026-07-19'
    method: api
- id: ca/san-marcos/mcalister-institute-for-trt-and-educ-mite-north
  name: McAlister Institute for Trt and Educ (MITE)/North Inland Women/Adol Recov
  categories:
  - su-treatment
  address:
    street: 751 Rancheros Drive
    city: San Marcos
    state: ca
    zip: '92069'
  place: 0668196
  geo:
    lat: 33.13978
    lng: -117.14327
  phone: 760-761-0515
  website: https://www.mcalisterinc.org
  sources:
  - samhsa/findtreatment
  verified:
    'on': '2026-07-19'
    method: api
- id: ca/san-marcos/neighborhood-healthcare-san-marcos
  name: Neighborhood Healthcare ~ San Marcos
  categories:
  - community-health-center
  address:
    street: 2085 Montiel Rd, Suite 102
    city: San Marcos
    state: ca
    zip: '92069'
  place: 0668196
  geo:
    lat: 33.13248
    lng: -117.11809
  phone: 760-520-8300
  external_ids:
    bphc: BPS-H80-035405
  sources:
  - hrsa/health-center-sites
  verified:
    'on': '2026-07-19'
    method: api
- id: ca/san-marcos/present-moments-recovery
  name: Present Moments Recovery
  categories:
  - su-treatment
  - mh-treatment
  address:
    street: 1809 Windriver Street
    city: San Marcos
    state: ca
    zip: '92078'
  place: 0668196
  geo:
    lat: 33.09778
    lng: -117.18111
  phone: 619-363-4767
  website: https://www.presentmomentsrecovery.com
  sources:
  - samhsa/findtreatment
  verified:
    'on': '2026-07-19'
    method: api
- id: ca/san-marcos/truecare
  name: TrueCare
  categories:
  - community-health-center
  address:
    street: 1595 Grand Ave, Suite 100
    city: San Marcos
    state: ca
    zip: '92078'
  place: 0668196
  geo:
    lat: 33.14483
    lng: -117.19854
  phone: 760-736-6767
  external_ids:
    bphc: BPS-H80-036032
  sources:
  - hrsa/health-center-sites
  verified:
    'on': '2026-07-19'
    method: api
- id: ca/san-marcos/truecare-2
  name: TrueCare
  categories:
  - community-health-center
  address:
    street: 1595 Grand Ave, Suite 106
    city: San Marcos
    state: ca
    zip: '92078'
  place: 0668196
  geo:
    lat: 33.14483
    lng: -117.19854
  phone: 760-736-6700
  website: https://truecare.org
  external_ids:
    bphc: BPS-H80-035455
  sources:
  - hrsa/health-center-sites
  verified:
    'on': '2026-07-19'
    method: api
- id: ca/san-marcos/truecare-3
  name: TrueCare
  categories:
  - community-health-center
  address:
    street: 150 Valpreda Rd
    city: San Marcos
    state: ca
    zip: '92069'
  place: 0668196
  geo:
    lat: 33.14042
    lng: -117.15697
  phone: 760-736-6767
  website: https://www.nchs-health.org
  external_ids:
    bphc: BPS-H80-001768
  sources:
  - hrsa/health-center-sites
  verified:
    'on': '2026-07-19'
    method: api
- id: ca/san-marcos/truecare-casa-de-amparo
  name: TrueCare - Casa de Amparo
  categories:
  - community-health-center
  address:
    street: 325 Buena Creek Rd
    city: San Marcos
    state: ca
    zip: '92069'
  place: 0668196
  geo:
    lat: 33.18263
    lng: -117.15996
  phone: 760-736-6767
  website: https://www.truecare.org
  external_ids:
    bphc: BPS-H80-034338
  sources:
  - hrsa/health-center-sites
  verified:
    'on': '2026-07-19'
    method: api
- id: ca/san-marcos/truecare-mobile-unit
  name: TrueCare Mobile Unit
  categories:
  - community-health-center
  address:
    street: 150 Valpreda Rd
    city: San Marcos
    state: ca
    zip: '92069'
  place: 0668196
  geo:
    lat: 33.14042
    lng: -117.15697
  phone: 760-736-6767
  website: https://www.nchs-health.org
  external_ids:
    bphc: BPS-H80-000939
  sources:
  - hrsa/health-center-sites
  verified:
    'on': '2026-07-19'
    method: api
- id: ca/san-marcos/truecare-mobile-unit-2
  name: TrueCare Mobile Unit 2
  categories:
  - community-health-center
  address:
    street: 150 Valpreda Rd
    city: San Marcos
    state: ca
    zip: '92069'
  place: 0668196
  geo:
    lat: 33.14042
    lng: -117.15697
  phone: 760-736-6767
  external_ids:
    bphc: BPS-H80-035631
  sources:
  - hrsa/health-center-sites
  verified:
    'on': '2026-07-19'
    method: api
- id: ca/san-marcos/truecare-mobile-unit-3
  name: TrueCare Mobile Unit 3
  categories:
  - community-health-center
  address:
    street: 150 Valpreda Rd
    city: San Marcos
    state: ca
    zip: '92069'
  place: 0668196
  geo:
    lat: 33.14042
    lng: -117.15697
  phone: 760-736-6767
  external_ids:
    bphc: BPS-H80-036031
  sources:
  - hrsa/health-center-sites
  verified:
    'on': '2026-07-19'
    method: api
- id: ca/san-marcos/truecare-rancho-sante-fe-quickcare
  name: TrueCare Rancho Sante Fe QuickCare
  categories:
  - community-health-center
  address:
    street: 295 S Rancho Santa Fe Rd
    city: San Marcos
    state: ca
    zip: '92078'
  place: 0668196
  geo:
    lat: 33.14332
    lng: -117.20129
  phone: 760-736-6767
  website: https://truecare.org/
  external_ids:
    bphc: BPS-H80-039620
  sources:
  - hrsa/health-center-sites
  verified:
    'on': '2026-07-19'
    method: api
- id: ca/san-marcos/truecare-richmar-health-center
  name: TrueCare Richmar Health Center
  categories:
  - community-health-center
  address:
    street: 309 Richmar Ave, Suite 102
    city: San Marcos
    state: ca
    zip: '92069'
  place: 0668196
  geo:
    lat: 33.14401
    lng: -117.16736
  phone: 760-566-1802
  external_ids:
    bphc: BPS-H80-038999
  sources:
  - hrsa/health-center-sites
  verified:
    'on': '2026-07-19'
    method: api
- id: ca/san-marcos/truecare-san-marcos-rancheros-administrative-off
  name: TrueCare San Marcos Rancheros Administrative Offices
  categories:
  - community-health-center
  address:
    street: 330 Rancheros Dr, Ste 232
    city: San Marcos
    state: ca
    zip: '92069'
  place: 0668196
  geo:
    lat: 33.13882
    lng: -117.15643
  phone: 760-736-6767
  website: https://truecare.org/
  external_ids:
    bphc: BPS-H80-040244
  sources:
  - hrsa/health-center-sites
  verified:
    'on': '2026-07-19'
    method: api
- id: ca/san-marcos/truecare-san-marcos-rancheros-administrative-off-2
  name: TrueCare San Marcos Rancheros Administrative Offices
  categories:
  - community-health-center
  address:
    street: 340 Rancheros Dr, Ste 298
    city: San Marcos
    state: ca
    zip: '92069'
  place: 0668196
  geo:
    lat: 33.13882
    lng: -117.15643
  phone: 760-736-7676
  external_ids:
    bphc: BPS-H80-040245
  sources:
  - hrsa/health-center-sites
  verified:
    'on': '2026-07-19'
    method: api
- id: ca/san-marcos/westlake
  name: Westlake
  categories:
  - child-care
  address:
    street: 415 Autumn Dr
    city: San Marcos
    state: ca
    zip: '92069'
  place: 0668196
  geo:
    lat: 33.14153
    lng: -117.17107
  phone: 760-798-4857
  sources:
  - acf/head-start-locations
  verified:
    'on': '2026-07-19'
    method: api
