- id: ca/san-luis-obispo/aspire-counseling-services-llc
  name: Aspire Counseling Services LLC
  categories:
  - su-treatment
  - mh-treatment
  address:
    street: 895 Aerovista Place
    city: San Luis Obispo
    state: ca
    zip: '93401'
  place: 0668154
  geo:
    lat: 35.24244
    lng: -120.64003
  phone: 888-585-7373
  website: https://www.aspirecounselingservice.com
  sources:
  - samhsa/findtreatment
  verified:
    'on': '2026-07-19'
    method: api
- id: ca/san-luis-obispo/bishop-s-peak-elementary
  name: Bishop'S Peak Elementary
  categories:
  - meal-program
  address: {street: 451 Jaycee Dr., city: San Luis Obispo, state: ca, zip: '93405'}
  description: Free summer meals for kids and teens (2026 season) — sponsored by SAN LUIS COASTAL UNIFIED
    SCHOOL DISTRICT.
  place: 0668154
  geo: {lat: 35.29713, lng: -120.68435}
  phone: (805) 549-1234
  external_ids: {usda_master: Cycle 07_CA_SSO_1842}
  sources:
  - usda/summer-meal-sites
  verified: {'on': '2026-07-19', method: api}
- id: ca/san-luis-obispo/c-l-smith-elementary
  name: C L Smith Elementary
  categories:
  - meal-program
  address: {street: 1375 Balboa St., city: San Luis Obispo, state: ca, zip: '93405'}
  description: Free summer meals for kids and teens (2026 season) — sponsored by SAN LUIS COASTAL UNIFIED
    SCHOOL DISTRICT.
  place: 0668154
  geo: {lat: 35.26264, lng: -120.68911}
  phone: (805) 549-1234
  external_ids: {usda_master: Cycle 07_CA_SSO_1852}
  sources:
  - usda/summer-meal-sites
  verified: {'on': '2026-07-19', method: api}
- id: ca/san-luis-obispo/community-health-centers-casa
  name: Community Health Centers Casa
  categories:
  - community-health-center
  address:
    street: 77 Casa St STE 201
    city: San Luis Obispo
    state: ca
    zip: '93405'
  place: 0668154
  geo:
    lat: 35.29307
    lng: -120.66507
  phone: 805-269-1571
  external_ids:
    bphc: BPS-H80-018283
  sources:
  - hrsa/health-center-sites
  verified:
    'on': '2026-07-19'
    method: api
- id: ca/san-luis-obispo/community-health-centers-prado
  name: COMMUNITY HEALTH CENTERS - PRADO
  categories:
  - community-health-center
  address:
    street: 40 Prado Rd
    city: San Luis Obispo
    state: ca
    zip: '93401'
  place: 0668154
  geo:
    lat: 35.25594
    lng: -120.67224
  phone: 805-929-3211
  external_ids:
    bphc: BPS-H80-027327
  sources:
  - hrsa/health-center-sites
  verified:
    'on': '2026-07-19'
    method: api
- id: ca/san-luis-obispo/community-health-centers-san-luis-obispo-ii
  name: COMMUNITY HEALTH CENTERS SAN LUIS OBISPO II
  categories:
  - community-health-center
  address:
    street: 1551 Bishop St STE B-260
    city: San Luis Obispo
    state: ca
    zip: '93401'
  place: 0668154
  geo:
    lat: 35.27476
    lng: -120.64545
  phone: 805-269-1350
  website: https://www.chccc.org
  external_ids:
    bphc: BPS-H80-017291
  sources:
  - hrsa/health-center-sites
  verified:
    'on': '2026-07-19'
    method: api
- id: ca/san-luis-obispo/community-health-centers-womens-health
  name: COMMUNITY HEALTH CENTERS WOMENS HEALTH
  categories:
  - community-health-center
  address:
    street: 1551 Bishop St, Ste 240
    city: San Luis Obispo
    state: ca
    zip: '93401'
  place: 0668154
  geo:
    lat: 35.27457
    lng: -120.64577
  phone: 805-549-0402
  website: https://WWW.CHCCC.ORG
  external_ids:
    bphc: BPS-H80-005121
  sources:
  - hrsa/health-center-sites
  verified:
    'on': '2026-07-19'
    method: api
- id: ca/san-luis-obispo/cuesta-infant-toddler-center
  name: Cuesta Infant Toddler Center
  categories:
  - child-care
  address:
    street: 4000 Chorro Valley Road
    street2: Room 4021
    city: San Luis Obispo
    state: ca
    zip: '93405'
  place: 0668154
  geo:
    lat: 35.32846
    lng: -120.74442
  phone: 805-544-4355
  sources:
  - acf/head-start-locations
  verified:
    'on': '2026-07-19'
    method: api
- id: ca/san-luis-obispo/family-care-network-inc
  name: Family Care Network Inc
  categories:
  - su-treatment
  - mh-treatment
  address:
    street: 1255 Kendall Road
    city: San Luis Obispo
    state: ca
    zip: '93401'
  place: 0668154
  geo:
    lat: 35.23699
    lng: -120.62944
  phone: 805-781-3535
  website: https://fcni.org
  sources:
  - samhsa/findtreatment
  verified:
    'on': '2026-07-19'
    method: api
- id: ca/san-luis-obispo/housing-authority-of-the-city-of-san-luis-obispo
  name: Housing Authority Of The City Of San Luis Obispo
  categories:
  - housing-assistance
  address:
    street: 487 Leff St
    city: San Luis Obispo
    state: ca
    zip: '93401'
  description: Public housing and Housing Choice Voucher agency
  place: 0668154
  geo:
    lat: 35.27244
    lng: -120.6631
  phone: 805-543-4478
  sources:
  - hud/resource-locator
  verified:
    'on': '2026-07-19'
    method: api
- id: ca/san-luis-obispo/pismo-street-pantry
  name: Pismo Street Pantry
  categories:
  - food-pantry
  place: 0668154
  geo:
    lat: 35.27638
    lng: -120.66264
  external_ids:
    lfp: '1309'
  sources:
  - littlefreepantry/map
  verified:
    'on': '2026-07-19'
    method: scrape
- id: ca/san-luis-obispo/san-luis-obispo-high
  name: San Luis Obispo High
  categories:
  - meal-program
  address: {street: 1499 San Luis Dr., city: San Luis Obispo, state: ca, zip: '93401'}
  description: Free summer meals for kids and teens (2026 season) — sponsored by SAN LUIS COASTAL UNIFIED
    SCHOOL DISTRICT.
  place: 0668154
  geo: {lat: 35.28579, lng: -120.6512}
  phone: (805) 549-1234
  external_ids: {usda_master: Cycle 07_CA_SSO_1848}
  sources:
  - usda/summer-meal-sites
  verified: {'on': '2026-07-19', method: api}
- id: ca/san-luis-obispo/santa-rosa-early-education-and-child-care
  name: Santa Rosa Early Education and Child Care
  categories:
  - child-care
  address:
    street: 864 Santa Rosa St
    city: San Luis Obispo
    state: ca
    zip: '93401'
  place: 0668154
  geo:
    lat: 35.28427
    lng: -120.66084
  phone: 805-594-1752
  sources:
  - acf/head-start-locations
  verified:
    'on': '2026-07-19'
    method: api
- id: ca/san-luis-obispo/slo-early-education-and-child-care-center
  name: SLO Early Education and Child Care Center
  categories:
  - child-care
  address:
    street: 981 Marsh St
    city: San Luis Obispo
    state: ca
    zip: '93401'
  place: 0668154
  geo:
    lat: 35.27997
    lng: -120.66039
  phone: 805-783-2479
  sources:
  - acf/head-start-locations
  verified:
    'on': '2026-07-19'
    method: api
