- id: ca/saticoy/buenaventura-mobile-home-estates
  name: Buenaventura Mobile Home Estates
  org: ca/food-share-inc
  categories:
  - food-pantry
  address: {street: 11405 Darling Rd, city: Ventura, state: ca, zip: '93004'}
  place: '0670322'
  geo: {lat: 34.29131, lng: -119.15}
  hours:
  - {days: [mon], open: '13:30', close: '14:30'}
  external_ids: {ca-food-share-inc: '411'}
  sources:
  - foodbank/ca-food-share-inc
  verified: {'on': '2026-07-20', method: api}
- id: ca/saticoy/cedc-azahar-place-apartments
  name: CEDC - Azahar Place Apartments
  org: ca/food-share-inc
  categories:
  - food-pantry
  address: {street: 11370 Mimosa St, city: Ventura, state: ca, zip: '93004'}
  place: '0670322'
  geo: {lat: 34.29308, lng: -119.15176}
  phone: 805-647-2700
  hours:
  - {days: [wed], open: '16:00', close: '17:00'}
  external_ids: {ca-food-share-inc: '276'}
  sources:
  - foodbank/ca-food-share-inc
  verified: {'on': '2026-07-20', method: api}
- id: ca/saticoy/sacred-heart-food-pantry-cabrillo-village
  name: Sacred Heart Food Pantry @ Cabrillo Village *
  org: ca/food-share-inc
  categories:
  - food-pantry
  address: {street: 1515 S Saticoy Ave, city: Ventura, state: ca, zip: '93004'}
  place: '0670322'
  geo: {lat: 34.27533, lng: -119.15473}
  phone: 805-794-0046
  hours:
  - {days: [wed], open: '10:00', close: '12:00'}
  external_ids: {ca-food-share-inc: '277'}
  sources:
  - foodbank/ca-food-share-inc
  verified: {'on': '2026-07-20', method: api}
- id: ca/saticoy/salvation-army-east-end
  name: Salvation Army (East End)*
  org: ca/food-share-inc
  categories:
  - food-pantry
  address: {street: 650 S Petit, city: Ventura, state: ca, zip: '93004'}
  place: '0670322'
  geo: {lat: 34.2769, lng: -119.175}
  phone: 805-659-3598
  hours:
  - {days: [wed, fri], open: '11:00', close: '13:00'}
  external_ids: {ca-food-share-inc: '283'}
  sources:
  - foodbank/ca-food-share-inc
  verified: {'on': '2026-07-20', method: api}
- id: ca/saticoy/salvation-army-ventura
  name: Salvation Army Ventura
  org: ca/food-share-inc
  categories:
  - food-pantry
  address: {street: 650 S Petit Ave, city: Ventura, state: ca, zip: '93004'}
  place: '0670322'
  geo: {lat: 34.2769, lng: -119.175}
  phone: 805-983-7100
  hours:
  - {days: [mon], open: '09:30', close: '10:30'}
  external_ids: {ca-food-share-inc: '333'}
  sources:
  - foodbank/ca-food-share-inc
  verified: {'on': '2026-07-20', method: api}
- id: ca/saticoy/temple-beth-torah
  name: Temple Beth Torah
  org: ca/food-share-inc
  categories:
  - food-pantry
  address: {street: 7620 Foothill Rd, city: Ventura, state: ca, zip: '93004'}
  place: '0670322'
  geo: {lat: 34.28765, lng: -119.19443}
  phone: 805-647-4181
  hours:
  - {days: [tue], open: '09:30', close: '10:30'}
  external_ids: {ca-food-share-inc: '286'}
  sources:
  - foodbank/ca-food-share-inc
  verified: {'on': '2026-07-20', method: api}
