- id: ca/sausalito/alta-mira-recovery-center-llc
  name: Alta Mira Recovery Center LLC
  categories:
  - su-treatment
  - mh-treatment
  address:
    street: 125 Bulkley Avenue
    city: Sausalito
    state: ca
    zip: '94965'
  place: '0670364'
  geo:
    lat: 37.85568
    lng: -122.48119
  phone: 877-798-2377
  website: https://www.altamirarecovery.com
  sources:
  - samhsa/findtreatment
  verified:
    'on': '2026-07-19'
    method: api
- id: ca/sausalito/bayside-martin-luther-king-jr-academy
  name: Bayside Martin Luther King Jr. Academy
  categories:
  - meal-program
  address:
    street: 200 Phillips Dr.
    city: Sausalito
    state: ca
    zip: '94965'
  description: Free summer meals for kids and teens (2026 season) — sponsored by SAUSALITO MARIN CITY
    SCHOOL DISTRICT.
  place: '0670364'
  geo:
    lat: 37.8728
    lng: -122.51375
  phone: (415) 430-7864
  external_ids:
    usda_master: Cycle 03_CA_SSO_0501
  sources:
  - usda/summer-meal-sites
  verified:
    'on': '2026-07-19'
    method: api
- id: ca/sausalito/manzanita-children-s-center
  name: Manzanita Children's Center
  categories:
  - child-care
  address:
    street: 630 Drake Ave
    city: Sausalito
    state: ca
    zip: '94965'
  place: '0670364'
  geo:
    lat: 37.87294
    lng: -122.51308
  phone: 415-332-3460
  sources:
  - acf/head-start-locations
  verified:
    'on': '2026-07-19'
    method: api
- id: ca/sausalito/marin-city-health-and-wellness-center-phillips-d
  name: Marin City Health and Wellness Center - Phillips Drive
  categories:
  - community-health-center
  address:
    street: 100 Phillips Dr
    city: Sausalito
    state: ca
    zip: '94965'
  place: '0670364'
  geo:
    lat: 37.87291
    lng: -122.51307
  phone: 415-339-8813
  website: https://www.marincityclinic.org
  external_ids:
    bphc: BPS-H80-031580
  sources:
  - hrsa/health-center-sites
  verified:
    'on': '2026-07-19'
    method: api
- id: ca/sausalito/marin-city-health-and-wellness-dental-van
  name: Marin City Health and Wellness Dental Van
  categories:
  - community-health-center
  address:
    street: 630 Drake Ave
    city: Sausalito
    state: ca
    zip: '94965'
  place: '0670364'
  geo:
    lat: 37.87296
    lng: -122.5145
  phone: 415-339-8813
  external_ids:
    bphc: BPS-H80-018085
  sources:
  - hrsa/health-center-sites
  verified:
    'on': '2026-07-19'
    method: api
