- id: ca/sebastopol/analy-high
  name: Analy High
  categories:
  - meal-program
  address:
    street: 6950 Analy Ave.
    city: Sebastopol
    state: ca
    zip: '95472'
  description: Free summer meals for kids and teens (2026 season) — sponsored by WEST SONOMA COUNTY UNION
    HIGH SCHOOL DISTRICT.
  place: '0670770'
  geo:
    lat: 38.4069
    lng: -122.82581
  phone: (707) 337-5971
  external_ids:
    usda_master: Cycle 05_CA_SSO_0591
  sources:
  - usda/summer-meal-sites
  verified:
    'on': '2026-07-19'
    method: api
- id: ca/sebastopol/gravenstein-community-health-center
  name: Gravenstein Community Health Center
  categories:
  - community-health-center
  address:
    street: 652 Petaluma Ave STE H
    city: Sebastopol
    state: ca
    zip: '95472'
  place: '0670770'
  geo:
    lat: 38.39663
    lng: -122.82014
  phone: 707-823-7616
  website: https://www.wchealth.org
  external_ids:
    bphc: BPS-H80-014044
  sources:
  - hrsa/health-center-sites
  verified:
    'on': '2026-07-19'
    method: api
- id: ca/sebastopol/gravenstein-south
  name: Gravenstein South
  categories:
  - community-health-center
  address:
    street: 652 Petaluma Ave, Suite C
    city: Sebastopol
    state: ca
    zip: '95472'
  place: '0670770'
  geo:
    lat: 38.39652
    lng: -122.82039
  phone: 707-869-5977
  external_ids:
    bphc: BPS-H80-035199
  sources:
  - hrsa/health-center-sites
  verified:
    'on': '2026-07-19'
    method: api
- id: ca/sebastopol/school-clinic-analy
  name: School Clinic - Analy
  categories:
  - community-health-center
  address:
    street: 445 Taft St
    city: Sebastopol
    state: ca
    zip: '95472'
  place: '0670770'
  geo:
    lat: 38.40623
    lng: -122.82367
  phone: 707-869-5977
  external_ids:
    bphc: BPS-H80-035545
  sources:
  - hrsa/health-center-sites
  verified:
    'on': '2026-07-19'
    method: api
- id: ca/sebastopol/sebastopol-community-health-center
  name: Sebastopol Community Health Center
  categories:
  - community-health-center
  address:
    street: 6800 Palm Ave STE C
    city: Sebastopol
    state: ca
    zip: '95472'
  place: '0670770'
  geo:
    lat: 38.39603
    lng: -122.81854
  phone: 707-824-9999
  website: https://www.wchealth.org
  external_ids:
    bphc: BPS-H80-000069
  sources:
  - hrsa/health-center-sites
  verified:
    'on': '2026-07-19'
    method: api
- id: ca/sebastopol/sebastopol-community-health-center-building-2
  name: 'Sebastopol Community Health Center Building #2'
  categories:
  - community-health-center
  address:
    street: 6800 Palm Ave, Suite A
    city: Sebastopol
    state: ca
    zip: '95472'
  place: '0670770'
  geo:
    lat: 38.39666
    lng: -122.819
  phone: 707-869-5977
  website: https://www.wchealth.org
  external_ids:
    bphc: BPS-H80-039515
  sources:
  - hrsa/health-center-sites
  verified:
    'on': '2026-07-19'
    method: api
- id: ca/sebastopol/tlc-child-and-family-services
  name: TLC Child and Family Services
  categories:
  - su-treatment
  - mh-treatment
  address:
    street: 1800 Gravenstein Highway 116 North
    city: Sebastopol
    state: ca
    zip: '95472'
  place: '0670770'
  geo:
    lat: 38.4224
    lng: -122.84691
  phone: 707-823-7300
  website: https://www.tlc4kids.org
  sources:
  - samhsa/findtreatment
  verified:
    'on': '2026-07-19'
    method: api
