- id: ca/selma/boys-club-of-america-fresno-selma
  name: Boys Club Of America - Fresno (Selma)
  categories:
  - meal-program
  address: {street: 1800 Sheridan Street, city: Selma, state: ca, zip: '93662'}
  description: Free summer meals for kids and teens (2026 season) — sponsored by BUILDING BETTER COMMUNITIES.
  place: 0670882
  geo: {lat: 36.55823, lng: -119.61311}
  phone: (559) 318-9588
  external_ids: {usda_master: Cycle 10_CA_SFSP_1146}
  sources:
  - usda/summer-meal-sites
  verified: {'on': '2026-07-19', method: api}
- id: ca/selma/eric-white-early-head-start
  name: Eric White Early Head Start
  categories:
  - child-care
  address:
    street: 2751 Fig St
    city: Selma
    state: ca
    zip: '93662'
  place: 0670882
  geo:
    lat: 36.56507
    lng: -119.62594
  phone: 559-263-1200
  sources:
  - acf/head-start-locations
  verified:
    'on': '2026-07-19'
    method: api
- id: ca/selma/family-healthcare-network-selma
  name: Family HealthCare Network - Selma
  categories:
  - community-health-center
  address:
    street: 1850 Whitson St
    city: Selma
    state: ca
    zip: '93662'
  place: 0670882
  geo:
    lat: 36.5658
    lng: -119.61257
  phone: 877-960-3426
  website: https://fhcn.org
  external_ids:
    bphc: BPS-H80-027708
  sources:
  - hrsa/health-center-sites
  verified:
    'on': '2026-07-19'
    method: api
- id: ca/selma/floral-gardens
  name: Floral Gardens
  categories:
  - meal-program
  address: {street: 2375 Floral Ave, city: Selma, state: ca, zip: '93662'}
  description: Free summer meals for kids and teens (2026 season) — sponsored by FRESNO COUNTY ECONOMIC
    OPPORTUNITIES COMMISSION.
  place: 0670882
  geo: {lat: 36.57628, lng: -119.61658}
  phone: (559) 266-3663
  external_ids: {usda_master: Cycle 07_CA_SFSP_0896}
  sources:
  - usda/summer-meal-sites
  verified: {'on': '2026-07-19', method: api}
- id: ca/selma/hs-ehs-home-based-selma-satellite
  name: HS/EHS Home-Based Selma Satellite
  categories:
  - child-care
  address:
    street: 2056 2nd St
    city: Selma
    state: ca
    zip: '93662'
  place: 0670882
  geo:
    lat: 36.56755
    lng: -119.61039
  phone: 559-263-1550
  sources:
  - acf/head-start-locations
  verified:
    'on': '2026-07-19'
    method: api
- id: ca/selma/roosevelt-head-start
  name: Roosevelt Head Start
  categories:
  - child-care
  address:
    street: 1701 Alton St
    street2: Ste A
    city: Selma
    state: ca
    zip: '93662'
  place: 0670882
  geo:
    lat: 36.57856
    lng: -119.60802
  phone: 559-263-1200
  sources:
  - acf/head-start-locations
  verified:
    'on': '2026-07-19'
    method: api
- id: ca/selma/selma-high
  name: Selma High
  categories:
  - meal-program
  address: {street: 3125 Wright St., city: Selma, state: ca, zip: '93662'}
  description: Free summer meals for kids and teens (2026 season) — sponsored by SELMA UNIFIED SCHOOL
    DISTRICT.
  place: 0670882
  geo: {lat: 36.58039, lng: -119.61516}
  phone: (559) 898-6500
  external_ids: {usda_master: Cycle 07_CA_SSO_2659}
  sources:
  - usda/summer-meal-sites
  verified: {'on': '2026-07-19', method: api}
- id: ca/selma/selma-migrant
  name: Selma Migrant
  categories:
  - child-care
  address:
    street: 12898 S. Fowler Ave
    city: Selma
    state: ca
    zip: '93662'
  place: 0670882
  geo:
    lat: 36.54822
    lng: -119.68273
  phone: 559-896-4479
  sources:
  - acf/head-start-locations
  verified:
    'on': '2026-07-19'
    method: api
- id: ca/selma/terry-elementary
  name: Terry Elementary
  categories:
  - meal-program
  address: {street: 12906 South Fowler Ave., city: Selma, state: ca, zip: '93662'}
  description: Free summer meals for kids and teens (2026 season) — sponsored by SELMA UNIFIED SCHOOL
    DISTRICT.
  place: 0670882
  geo: {lat: 36.54808, lng: -119.68274}
  phone: (559) 898-6500
  external_ids: {usda_master: Cycle 08_CA_SSO_2954}
  sources:
  - usda/summer-meal-sites
  verified: {'on': '2026-07-19', method: api}
- id: ca/selma/united-health-centers-selma-highland
  name: United Health Centers Selma Highland
  categories:
  - community-health-center
  address:
    street: 2705 Highland Ave
    city: Selma
    state: ca
    zip: '93662'
  place: 0670882
  geo:
    lat: 36.57291
    lng: -119.62956
  phone: 559-646-6618
  website: https://www.unitedhealthcenters.org
  external_ids:
    bphc: BPS-H80-024625
  sources:
  - hrsa/health-center-sites
  verified:
    'on': '2026-07-19'
    method: api
- id: ca/selma/united-health-centers-selma-rose
  name: United Health Centers Selma Rose
  categories:
  - community-health-center
  address:
    street: 1201 Rose Ave
    city: Selma
    state: ca
    zip: '93662'
  place: 0670882
  geo:
    lat: 36.56852
    lng: -119.59982
  phone: 559-646-6618
  website: https://www.unitedhealthcenters.org
  external_ids:
    bphc: BPS-H80-027882
  sources:
  - hrsa/health-center-sites
  verified:
    'on': '2026-07-19'
    method: api
- id: ca/selma/washington-head-start
  name: Washington Head Start
  categories:
  - child-care
  address:
    street: 1420 2nd St
    city: Selma
    state: ca
    zip: '93662'
  place: 0670882
  geo:
    lat: 36.56281
    lng: -119.6173
  phone: 559-263-1200
  sources:
  - acf/head-start-locations
  verified:
    'on': '2026-07-19'
    method: api
- id: ca/selma/wilson-head-start
  name: Wilson Head Start
  categories:
  - child-care
  address:
    street: 1325 Stillman St
    city: Selma
    state: ca
    zip: '93662'
  place: 0670882
  geo:
    lat: 36.57248
    lng: -119.60256
  phone: 559-263-1200
  sources:
  - acf/head-start-locations
  verified:
    'on': '2026-07-19'
    method: api
- id: ca/selma/woodrow-wilson-elementary
  name: Woodrow Wilson Elementary
  categories:
  - meal-program
  address: {street: 1325 Stillman St., city: Selma, state: ca, zip: '93662'}
  description: Free summer meals for kids and teens (2026 season) — sponsored by SELMA UNIFIED SCHOOL
    DISTRICT.
  place: 0670882
  geo: {lat: 36.57253, lng: -119.60297}
  phone: (559) 898-6500
  external_ids: {usda_master: Cycle 07_CA_SSO_2660}
  sources:
  - usda/summer-meal-sites
  verified: {'on': '2026-07-19', method: api}
