- id: ca/spring-valley-3690/aka-casa-de-oro
  name: AKA - Casa de Oro
  categories:
  - child-care
  address:
    street: 10235 Ramona Dr
    street2: '# A'
    city: Spring Valley
    state: ca
    zip: '91977'
  place: 0673690
  geo:
    lat: 32.74782
    lng: -116.97242
  phone: 619-660-9772
  sources:
  - acf/head-start-locations
  verified:
    'on': '2026-07-19'
    method: api
- id: ca/spring-valley-3690/aka-granada
  name: AKA - Granada
  categories:
  - child-care
  address:
    street: 3920 N Granada Ave
    city: Spring Valley
    state: ca
    zip: '91977'
  place: 0673690
  geo:
    lat: 32.74852
    lng: -116.97924
  phone: 619-670-6101
  sources:
  - acf/head-start-locations
  verified:
    'on': '2026-07-19'
    method: api
- id: ca/spring-valley-3690/aka-san-martin
  name: AKA - San Martin
  categories:
  - child-care
  address:
    street: 9119 Jamacha Rd
    street2: Ste 100A
    city: Spring Valley
    state: ca
    zip: '91977'
  place: 0673690
  geo:
    lat: 32.7142
    lng: -117.00222
  phone: 619-461-8200
  sources:
  - acf/head-start-locations
  verified:
    'on': '2026-07-19'
    method: api
- id: ca/spring-valley-3690/aka-spring
  name: AKA - Spring
  categories:
  - child-care
  address:
    street: 3845 Spring Dr
    city: Spring Valley
    state: ca
    zip: '91977'
  place: 0673690
  geo:
    lat: 32.74943
    lng: -117.00292
  phone: 619-713-2262
  sources:
  - acf/head-start-locations
  verified:
    'on': '2026-07-19'
    method: api
- id: ca/spring-valley-3690/bancroft-elementary
  name: Bancroft Elementary
  categories:
  - meal-program
  address: {street: 8805 Tyler St., city: Spring Valley, state: ca, zip: '91977'}
  description: Free summer meals for kids and teens (2026 season) — sponsored by LA MESA-SPRING VALLEY
    SCHOOL DISTRICT.
  place: 0673690
  geo: {lat: 32.73027, lng: -117.00726}
  phone: (619) 668-5764
  external_ids: {usda_master: Cycle 01_CA_SSO_0511}
  sources:
  - usda/summer-meal-sites
  verified: {'on': '2026-07-19', method: api}
- id: ca/spring-valley-3690/casa-de-oro-elementary
  name: Casa De Oro Elementary
  categories:
  - meal-program
  address: {street: 10227 Ramona Dr., city: Spring Valley, state: ca, zip: '91977'}
  description: Free summer meals for kids and teens (2026 season) — sponsored by LA MESA-SPRING VALLEY
    SCHOOL DISTRICT.
  place: 0673690
  geo: {lat: 32.74782, lng: -116.97302}
  phone: (619) 668-5700
  external_ids: {usda_master: Cycle 01_CA_SSO_0512}
  sources:
  - usda/summer-meal-sites
  verified: {'on': '2026-07-19', method: api}
- id: ca/spring-valley-3690/grossmont-spring-valley-family-health-center
  name: Grossmont Spring Valley Family Health Center
  categories:
  - community-health-center
  cost: sliding-scale
  address:
    street: 8788 Jamacha Rd
    city: Spring Valley
    state: ca
    zip: '91977'
  place: 0673690
  geo:
    lat: 32.71506
    lng: -117.00984
  phone: 619-515-2555
  website: https://www.fhcsd.org
  external_ids:
    bphc: BPS-H80-000918
  sources:
  - hrsa/health-center-sites
  verified:
    'on': '2026-07-19'
    method: api
- id: ca/spring-valley-3690/rancho-elementary
  name: Rancho Elementary
  categories:
  - meal-program
  address: {street: 8845 Noeline Ave., city: Spring Valley, state: ca, zip: '91977'}
  description: Free summer meals for kids and teens (2026 season) — sponsored by LA MESA-SPRING VALLEY
    SCHOOL DISTRICT.
  place: 0673690
  geo: {lat: 32.70502, lng: -117.01604}
  phone: (619) 668-5700
  external_ids: {usda_master: Cycle 01_CA_SSO_0518}
  sources:
  - usda/summer-meal-sites
  verified: {'on': '2026-07-19', method: api}
- id: ca/spring-valley-3690/science-technology-engineering-arts-and-math-aca
  name: Science, Technology, Engineering, Arts, And Math Academy At La P
  categories:
  - meal-program
  address: {street: 1001 Leland St., city: Spring Valley, state: ca, zip: '91977'}
  description: Free summer meals for kids and teens (2026 season) — sponsored by LA MESA-SPRING VALLEY
    SCHOOL DISTRICT.
  place: 0673690
  geo: {lat: 32.71197, lng: -117.00598}
  phone: (619) 668-5700
  external_ids: {usda_master: Cycle 01_CA_SSO_0514}
  sources:
  - usda/summer-meal-sites
  verified: {'on': '2026-07-19', method: api}
- id: ca/spring-valley-3690/spring-valley-academy
  name: Spring Valley Academy
  categories:
  - meal-program
  address: {street: 3900 Conrad Dr., city: Spring Valley, state: ca, zip: '91977'}
  description: Free summer meals for kids and teens (2026 season) — sponsored by LA MESA-SPRING VALLEY
    SCHOOL DISTRICT.
  place: 0673690
  geo: {lat: 32.74917, lng: -116.98795}
  phone: (619) 668-5700
  external_ids: {usda_master: Cycle 01_CA_SSO_0519}
  sources:
  - usda/summer-meal-sites
  verified: {'on': '2026-07-19', method: api}
- id: ca/spring-valley-3690/spring-valley-branch-library
  name: Spring Valley Branch Library
  categories:
  - meal-program
  address: {street: 836 Kempton Street, city: Spring Valley, state: ca, zip: '91977'}
  description: Free summer meals for kids and teens (2026 season) — sponsored by HEAVEN'S WINDOWS.
  place: 0673690
  geo: {lat: 32.71243, lng: -117.00177}
  phone: (619) 463-1796
  external_ids: {usda_master: Cycle 03_CA_SFSP_0463}
  sources:
  - usda/summer-meal-sites
  verified: {'on': '2026-07-19', method: api}
- id: ca/spring-valley-3690/spring-valley-community-center
  name: Spring Valley Community Center
  categories:
  - meal-program
  address: {street: 8735 Jamacha Blvd., city: Spring Valley, state: ca, zip: '91977'}
  description: Free summer meals for kids and teens (2026 season) — sponsored by HEAVEN'S WINDOWS.
  place: 0673690
  geo: {lat: 32.70714, lng: -117.00814}
  phone: (619) 479-1832
  external_ids: {usda_master: Cycle 03_CA_SFSP_0431}
  sources:
  - usda/summer-meal-sites
  verified: {'on': '2026-07-19', method: api}
- id: ca/spring-valley-3690/spring-valley-family-counseling-center
  name: Spring Valley Family Counseling Center
  categories:
  - community-health-center
  cost: sliding-scale
  address:
    street: 3845 Spring Dr
    city: Spring Valley
    state: ca
    zip: '91977'
  place: 0673690
  geo:
    lat: 32.7486
    lng: -117.00271
  phone: 619-515-2385
  website: https://www.fhcsd.org
  external_ids:
    bphc: BPS-H80-009401
  sources:
  - hrsa/health-center-sites
  verified:
    'on': '2026-07-19'
    method: api
- id: ca/spring-valley-3690/spring-valley-rec-club
  name: Spring Valley Rec Club
  categories:
  - meal-program
  address: {street: 838 Kempton Street, city: Spring Valley, state: ca, zip: '91977'}
  description: Free summer meals for kids and teens (2026 season) — sponsored by HEAVEN'S WINDOWS.
  place: 0673690
  geo: {lat: 32.71247, lng: -117.00177}
  phone: (619) 667-6839
  external_ids: {usda_master: Cycle 03_CA_SFSP_0245}
  sources:
  - usda/summer-meal-sites
  verified: {'on': '2026-07-19', method: api}
