- id: ca/spring-valley-3690/aka-casa-de-oro
  name: AKA - Casa de Oro
  categories:
  - child-care
  address:
    street: 10235 Ramona Dr
    street2: '# A'
    city: Spring Valley
    state: ca
    zip: '91977'
  place: 0673690
  geo:
    lat: 32.74782
    lng: -116.97242
  phone: 619-660-9772
  sources:
  - acf/head-start-locations
  verified:
    'on': '2026-07-19'
    method: api
- id: ca/spring-valley-3690/aka-granada
  name: AKA - Granada
  categories:
  - child-care
  address:
    street: 3920 N Granada Ave
    city: Spring Valley
    state: ca
    zip: '91977'
  place: 0673690
  geo:
    lat: 32.74852
    lng: -116.97924
  phone: 619-670-6101
  sources:
  - acf/head-start-locations
  verified:
    'on': '2026-07-19'
    method: api
- id: ca/spring-valley-3690/aka-san-martin
  name: AKA - San Martin
  categories:
  - child-care
  address:
    street: 9119 Jamacha Rd
    street2: Ste 100A
    city: Spring Valley
    state: ca
    zip: '91977'
  place: 0673690
  geo:
    lat: 32.7142
    lng: -117.00222
  phone: 619-461-8200
  sources:
  - acf/head-start-locations
  verified:
    'on': '2026-07-19'
    method: api
- id: ca/spring-valley-3690/aka-spring
  name: AKA - Spring
  categories:
  - child-care
  address:
    street: 3845 Spring Dr
    city: Spring Valley
    state: ca
    zip: '91977'
  place: 0673690
  geo:
    lat: 32.74943
    lng: -117.00292
  phone: 619-713-2262
  sources:
  - acf/head-start-locations
  verified:
    'on': '2026-07-19'
    method: api
- id: ca/spring-valley-3690/grossmont-spring-valley-family-health-center
  name: Grossmont Spring Valley Family Health Center
  categories:
  - community-health-center
  address:
    street: 8788 Jamacha Rd
    city: Spring Valley
    state: ca
    zip: '91977'
  place: 0673690
  geo:
    lat: 32.71506
    lng: -117.00984
  phone: 619-515-2555
  website: https://www.fhcsd.org
  external_ids:
    bphc: BPS-H80-000918
  sources:
  - hrsa/health-center-sites
  verified:
    'on': '2026-07-19'
    method: api
- id: ca/spring-valley-3690/spring-valley-family-counseling-center
  name: Spring Valley Family Counseling Center
  categories:
  - community-health-center
  address:
    street: 3845 Spring Dr
    city: Spring Valley
    state: ca
    zip: '91977'
  place: 0673690
  geo:
    lat: 32.7486
    lng: -117.00271
  phone: 619-515-2385
  website: https://www.fhcsd.org
  external_ids:
    bphc: BPS-H80-009401
  sources:
  - hrsa/health-center-sites
  verified:
    'on': '2026-07-19'
    method: api
