- id: ca/tustin/altamed-dental-group-at-barbara-benson-elementar
  name: AltaMed Dental Group at Barbara Benson Elementary
  categories:
  - community-health-center
  cost: sliding-scale
  address: {street: 12712 Elizabeth Way, city: Tustin, state: ca, zip: '92780'}
  place: 0680854
  geo: {lat: 33.75148, lng: -117.8053}
  phone: 888-499-9303
  external_ids: {bphc: BPS-H80-037951}
  sources:
  - hrsa/health-center-sites
  verified: {'on': '2026-07-19', method: api}
- id: ca/tustin/altamed-dental-group-at-helen-estock-elementary
  name: AltaMed Dental Group at Helen Estock Elementary
  categories:
  - community-health-center
  cost: sliding-scale
  address: {street: 14741 N B St, city: Tustin, state: ca, zip: '92780'}
  place: 0680854
  geo: {lat: 33.75017, lng: -117.82585}
  phone: 888-499-9303
  external_ids: {bphc: BPS-H80-037955}
  sources:
  - hrsa/health-center-sites
  verified: {'on': '2026-07-19', method: api}
- id: ca/tustin/families-together-of-orange-county
  name: Families Together of Orange County
  categories:
  - community-health-center
  cost: sliding-scale
  address: {street: 661 W 1st St STE A, city: Tustin, state: ca, zip: '92780'}
  place: 0680854
  geo: {lat: 33.74578, lng: -117.83123}
  phone: 714-665-9890
  external_ids: {bphc: BPS-LAL-021969}
  sources:
  - hrsa/health-center-sites
  verified: {'on': '2026-07-19', method: api}
- id: ca/tustin/families-together-of-orange-county-2
  name: Families Together of Orange County
  categories:
  - community-health-center
  cost: sliding-scale
  address: {street: '661 W 1st St, Suite G', city: Tustin, state: ca, zip: '92780'}
  place: 0680854
  geo: {lat: 33.74622, lng: -117.83118}
  phone: 714-665-9890
  website: https://www.familiestogetheroc.org
  external_ids: {bphc: BPS-LAL-018923}
  sources:
  - hrsa/health-center-sites
  verified: {'on': '2026-07-19', method: api}
- id: ca/tustin/families-together-of-orange-county-mobile-clinic
  name: Families Together of Orange County-Mobile Clinic
  categories:
  - community-health-center
  cost: sliding-scale
  address: {street: '661 W 1st St, Suite G', city: Tustin, state: ca, zip: '92780'}
  place: 0680854
  geo: {lat: 33.74622, lng: -117.83118}
  phone: 714-665-9890
  external_ids: {bphc: BPS-LAL-030237}
  sources:
  - hrsa/health-center-sites
  verified: {'on': '2026-07-19', method: api}
- id: ca/tustin/families-together-of-orange-county-mobile-dental
  name: Families Together of Orange County - Mobile Dental
  categories:
  - community-health-center
  cost: sliding-scale
  address: {street: '661 W 1st St, Suite G 1', city: Tustin, state: ca, zip: '92780'}
  place: 0680854
  geo: {lat: 33.74605, lng: -117.83124}
  phone: 714-665-9890
  external_ids: {bphc: BPS-LAL-034508}
  sources:
  - hrsa/health-center-sites
  verified: {'on': '2026-07-19', method: api}
- id: ca/tustin/families-together-of-orange-county-wellness-cent
  name: Families Together of Orange County-Wellness Center
  categories:
  - community-health-center
  cost: sliding-scale
  address: {street: 621 W 1st St, city: Tustin, state: ca, zip: '92780'}
  place: 0680854
  geo: {lat: 33.746, lng: -117.83054}
  phone: 714-665-9890
  website: http://www.familiestogetheroc.org/
  external_ids: {bphc: BPS-LAL-028368}
  sources:
  - hrsa/health-center-sites
  verified: {'on': '2026-07-19', method: api}
- id: ca/tustin/friends-of-family-health-center-tustin
  name: Friends of Family Health Center - Tustin
  categories:
  - community-health-center
  cost: sliding-scale
  address: {street: 13152 Newport Ave STE B, city: Tustin, state: ca, zip: '92780'}
  place: 0680854
  geo: {lat: 33.74738, lng: -117.81267}
  phone: 562-690-0400
  website: https://www.fofhealthcenter.org
  external_ids: {bphc: BPS-H80-016822}
  sources:
  - hrsa/health-center-sites
  verified: {'on': '2026-07-19', method: api}
- id: ca/tustin/ftoc-vision-mobile-unit
  name: FTOC Vision Mobile Unit
  categories:
  - community-health-center
  cost: sliding-scale
  address: {street: '661 W 1st St, Suite G 1', city: Tustin, state: ca, zip: '92780'}
  place: 0680854
  geo: {lat: 33.74605, lng: -117.83124}
  phone: 716-665-2939
  external_ids: {bphc: BPS-LAL-040785}
  sources:
  - hrsa/health-center-sites
  verified: {'on': '2026-07-19', method: api}
- id: ca/tustin/hurtt-family-health-clinic
  name: Hurtt Family Health Clinic
  categories:
  - community-health-center
  cost: sliding-scale
  address: {street: '14642 Newport Ave, Suite 310', city: Tustin, state: ca, zip: '92780'}
  place: 0680854
  geo: {lat: 33.73057, lng: -117.82891}
  phone: 714-247-0300
  external_ids: {bphc: BPS-H80-039759}
  sources:
  - hrsa/health-center-sites
  verified: {'on': '2026-07-19', method: api}
- id: ca/tustin/hurtt-family-health-clinic-administration
  name: Hurtt Family Health Clinic - Administration
  categories:
  - community-health-center
  cost: sliding-scale
  address: {street: '14642 Newport Ave, Suite 300', city: Tustin, state: ca, zip: '92780'}
  place: 0680854
  geo: {lat: 33.73055, lng: -117.82892}
  phone: 714-247-0300
  website: https://www.hurtclinic.org
  external_ids: {bphc: BPS-H80-039758}
  sources:
  - hrsa/health-center-sites
  verified: {'on': '2026-07-19', method: api}
- id: ca/tustin/hurtt-family-health-clinic-administration-offfic
  name: Hurtt Family Health Clinic - Administration Offfice 3
  categories:
  - community-health-center
  cost: sliding-scale
  address: {street: '14642 Newport Ave, Suite 260', city: Tustin, state: ca, zip: '92780'}
  place: 0680854
  geo: {lat: 33.7305, lng: -117.82892}
  phone: 714-247-0300
  external_ids: {bphc: BPS-H80-039852}
  sources:
  - hrsa/health-center-sites
  verified: {'on': '2026-07-19', method: api}
- id: ca/tustin/hurtt-family-health-clinic-medical-and-dental
  name: Hurtt Family Health Clinic - Medical and Dental
  categories:
  - community-health-center
  cost: sliding-scale
  address: {street: '14642 Newport Ave, Ste 200', city: Tustin, state: ca, zip: '92780'}
  place: 0680854
  geo: {lat: 33.73088, lng: -117.82936}
  phone: 714-247-0300
  external_ids: {bphc: BPS-H80-032292}
  sources:
  - hrsa/health-center-sites
  verified: {'on': '2026-07-19', method: api}
- id: ca/tustin/hurtt-family-health-clinic-mobile-clinic-1
  name: Hurtt Family Health Clinic -  Mobile Clinic 1
  categories:
  - community-health-center
  cost: sliding-scale
  address: {street: 1 Hope Dr, city: Tustin, state: ca, zip: '92782'}
  place: 0680854
  geo: {lat: 33.71554, lng: -117.83263}
  phone: 714-247-0300
  website: https://www.hurttclinic.org
  external_ids: {bphc: BPS-H80-008359}
  sources:
  - hrsa/health-center-sites
  verified: {'on': '2026-07-19', method: api}
- id: ca/tustin/hurtt-family-health-clinic-pediatric-mobile-clin
  name: Hurtt Family Health Clinic - Pediatric Mobile Clinic 2
  categories:
  - community-health-center
  cost: sliding-scale
  address: {street: 1 Hope Dr, city: Tustin, state: ca, zip: '92782'}
  place: 0680854
  geo: {lat: 33.71554, lng: -117.83263}
  phone: 714-240-2070
  external_ids: {bphc: BPS-H80-011067}
  sources:
  - hrsa/health-center-sites
  verified: {'on': '2026-07-19', method: api}
- id: ca/tustin/hurtt-family-health-clinic-tustin-newport-bh
  name: Hurtt Family Health Clinic - Tustin Newport BH
  categories:
  - community-health-center
  cost: sliding-scale
  address: {street: '14642 Newport Ave, Suite 410', city: Tustin, state: ca, zip: '92780'}
  place: 0680854
  geo: {lat: 33.7307, lng: -117.8289}
  phone: 714-247-0300
  website: https://www.hurtclinic.org
  external_ids: {bphc: BPS-H80-040132}
  sources:
  - hrsa/health-center-sites
  verified: {'on': '2026-07-19', method: api}
- id: ca/tustin/hurtt-family-health-clinic-village-of-hope
  name: Hurtt Family Health Clinic - Village of Hope
  categories:
  - community-health-center
  cost: sliding-scale
  address: {street: 1 Hope Dr, city: Tustin, state: ca, zip: '92782'}
  place: 0680854
  geo: {lat: 33.71554, lng: -117.83263}
  phone: 714-247-0300
  website: https://www.hurtclinic.org
  external_ids: {bphc: BPS-H80-008358}
  sources:
  - hrsa/health-center-sites
  verified: {'on': '2026-07-19', method: api}
- id: ca/tustin/oc-public-library-tustin-branch
  name: Oc Public Library - Tustin Branch
  categories:
  - meal-program
  address:
    street: 345 E. Main St.
    city: Tustin
    state: ca
    zip: '92780'
  description: Free summer meals for kids and teens (2026 season) — sponsored by TUSTIN UNIFIED SCHOOL
    DISTRICT.
  place: 0680854
  geo:
    lat: 33.7421
    lng: -117.82078
  phone: (714) 730-7301
  external_ids:
    usda_master: Cycle 02_CA_SSO_0266
  sources:
  - usda/summer-meal-sites
  verified:
    'on': '2026-07-19'
    method: api
- id: ca/tustin/tustin-city-community-services
  name: Tustin City Community Services
  categories:
  - meal-program
  address:
    street: 14722 Newport Avenue
    city: Tustin
    state: ca
    zip: '92780'
  description: Free summer meals for kids and teens (2026 season) — sponsored by SECOND HARVEST FOOD BANK
    OF ORANGE COUNTY, INC.
  place: 0680854
  geo:
    lat: 33.73016
    lng: -117.83006
  phone: (714) 573-3370
  external_ids:
    usda_master: Cycle 05_CA_SFSP_0385
  sources:
  - usda/summer-meal-sites
  verified:
    'on': '2026-07-19'
    method: api
