- id: ca/tustin/altamed-dental-group-at-barbara-benson-elementar
  name: AltaMed Dental Group at Barbara Benson Elementary
  categories:
  - community-health-center
  cost: sliding-scale
  address: {street: 12712 Elizabeth Way, city: Tustin, state: ca, zip: '92780'}
  place: 0680854
  geo: {lat: 33.75148, lng: -117.8053}
  phone: 888-499-9303
  external_ids: {bphc: BPS-H80-037951}
  sources:
  - hrsa/health-center-sites
  verified: {'on': '2026-07-19', method: api}
- id: ca/tustin/altamed-dental-group-at-helen-estock-elementary
  name: AltaMed Dental Group at Helen Estock Elementary
  categories:
  - community-health-center
  cost: sliding-scale
  address: {street: 14741 N B St, city: Tustin, state: ca, zip: '92780'}
  place: 0680854
  geo: {lat: 33.75017, lng: -117.82585}
  phone: 888-499-9303
  external_ids: {bphc: BPS-H80-037955}
  sources:
  - hrsa/health-center-sites
  verified: {'on': '2026-07-19', method: api}
- id: ca/tustin/beswick-kids-center
  name: Beswick Kid’s Center
  org: ca/second-harvest-food-bank-of-orange-county
  categories:
  - food-pantry
  address: {street: 1362 Mitchell Ave., city: Tustin, state: ca, zip: '92780'}
  place: 0680854
  geo: {lat: 33.73127, lng: -117.81972}
  external_ids: {ca-second-harvest-food-bank-of-orange-county: '19158'}
  sources:
  - foodbank/ca-second-harvest-food-bank-of-orange-county
  verified: {'on': '2026-07-21', method: api}
- id: ca/tustin/boys-girls-club-of-tustin
  name: Boys & Girls Club of Tustin
  org: ca/second-harvest-food-bank-of-orange-county
  categories:
  - food-pantry
  address: {street: 580 W Sixth Street, city: Tustin, state: ca, zip: '92780'}
  place: 0680854
  geo: {lat: 33.73971, lng: -117.82927}
  external_ids: {ca-second-harvest-food-bank-of-orange-county: '19125'}
  sources:
  - foodbank/ca-second-harvest-food-bank-of-orange-county
  verified: {'on': '2026-07-21', method: api}
- id: ca/tustin/boys-girls-club-of-tustin-dba
  name: Boys & Girls Club of Tustin (DBA)
  categories:
  - family-youth
  description: Boys & Girls Club
  address: {street: 580 W 6th St, city: Tustin, state: ca, zip: '92780'}
  geo: {lat: 33.7397, lng: -117.82932}
  place: 0680854
  phone: 714-838-5223
  website: http://www.bgctustin.org
  services:
  - Teen center
  - Summer programs
  - Meals
  external_ids: {bgca_site: '1143', bgca_org: '10811'}
  sources:
  - bgca/find-a-club
  verified: {'on': '2026-07-21', method: api}
- id: ca/tustin/families-together-of-orange-county
  name: Families Together of Orange County
  categories:
  - community-health-center
  cost: sliding-scale
  address: {street: 661 W 1st St STE A, city: Tustin, state: ca, zip: '92780'}
  place: 0680854
  geo: {lat: 33.74578, lng: -117.83123}
  phone: 714-665-9890
  external_ids: {bphc: BPS-LAL-021969}
  sources:
  - hrsa/health-center-sites
  verified: {'on': '2026-07-19', method: api}
- id: ca/tustin/families-together-of-orange-county-2
  name: Families Together of Orange County
  categories:
  - community-health-center
  cost: sliding-scale
  address: {street: '661 W 1st St, Suite G', city: Tustin, state: ca, zip: '92780'}
  place: 0680854
  geo: {lat: 33.74622, lng: -117.83118}
  phone: 714-665-9890
  website: https://www.familiestogetheroc.org
  external_ids: {bphc: BPS-LAL-018923}
  sources:
  - hrsa/health-center-sites
  verified: {'on': '2026-07-19', method: api}
- id: ca/tustin/families-together-of-orange-county-mobile-clinic
  name: Families Together of Orange County-Mobile Clinic
  categories:
  - community-health-center
  cost: sliding-scale
  address: {street: '661 W 1st St, Suite G', city: Tustin, state: ca, zip: '92780'}
  place: 0680854
  geo: {lat: 33.74622, lng: -117.83118}
  phone: 714-665-9890
  external_ids: {bphc: BPS-LAL-030237}
  sources:
  - hrsa/health-center-sites
  verified: {'on': '2026-07-19', method: api}
- id: ca/tustin/families-together-of-orange-county-mobile-dental
  name: Families Together of Orange County - Mobile Dental
  categories:
  - community-health-center
  cost: sliding-scale
  address: {street: '661 W 1st St, Suite G 1', city: Tustin, state: ca, zip: '92780'}
  place: 0680854
  geo: {lat: 33.74605, lng: -117.83124}
  phone: 714-665-9890
  external_ids: {bphc: BPS-LAL-034508}
  sources:
  - hrsa/health-center-sites
  verified: {'on': '2026-07-19', method: api}
- id: ca/tustin/families-together-of-orange-county-wellness-cent
  name: Families Together of Orange County-Wellness Center
  categories:
  - community-health-center
  cost: sliding-scale
  address: {street: 621 W 1st St, city: Tustin, state: ca, zip: '92780'}
  place: 0680854
  geo: {lat: 33.746, lng: -117.83054}
  phone: 714-665-9890
  website: http://www.familiestogetheroc.org/
  external_ids: {bphc: BPS-LAL-028368}
  sources:
  - hrsa/health-center-sites
  verified: {'on': '2026-07-19', method: api}
- id: ca/tustin/friends-of-family-health-center-tustin
  name: Friends of Family Health Center - Tustin
  categories:
  - community-health-center
  cost: sliding-scale
  address: {street: 13152 Newport Ave STE B, city: Tustin, state: ca, zip: '92780'}
  place: 0680854
  geo: {lat: 33.74738, lng: -117.81267}
  phone: 562-690-0400
  website: https://www.fofhealthcenter.org
  external_ids: {bphc: BPS-H80-016822}
  sources:
  - hrsa/health-center-sites
  verified: {'on': '2026-07-19', method: api}
- id: ca/tustin/ftoc-vision-mobile-unit
  name: FTOC Vision Mobile Unit
  categories:
  - community-health-center
  cost: sliding-scale
  address: {street: '661 W 1st St, Suite G 1', city: Tustin, state: ca, zip: '92780'}
  place: 0680854
  geo: {lat: 33.74605, lng: -117.83124}
  phone: 716-665-2939
  external_ids: {bphc: BPS-LAL-040785}
  sources:
  - hrsa/health-center-sites
  verified: {'on': '2026-07-19', method: api}
- id: ca/tustin/hurtt-family-health-clinic-medical-and-dental
  name: Hurtt Family Health Clinic - Medical and Dental
  categories:
  - community-health-center
  cost: sliding-scale
  address: {street: '14642 Newport Ave, Ste 200', city: Tustin, state: ca, zip: '92780'}
  place: 0680854
  geo: {lat: 33.73088, lng: -117.82936}
  phone: 714-247-0300
  external_ids: {bphc: BPS-H80-032292}
  sources:
  - hrsa/health-center-sites
  verified: {'on': '2026-07-19', method: api}
- id: ca/tustin/hurtt-family-health-clinic-mobile-clinic-1
  name: Hurtt Family Health Clinic -  Mobile Clinic 1
  categories:
  - community-health-center
  cost: sliding-scale
  address: {street: 1 Hope Dr, city: Tustin, state: ca, zip: '92782'}
  place: 0680854
  geo: {lat: 33.71554, lng: -117.83263}
  phone: 714-247-0300
  website: https://www.hurttclinic.org
  external_ids: {bphc: BPS-H80-008359}
  sources:
  - hrsa/health-center-sites
  verified: {'on': '2026-07-19', method: api}
- id: ca/tustin/hurtt-family-health-clinic-pediatric-mobile-clin
  name: Hurtt Family Health Clinic - Pediatric Mobile Clinic 2
  categories:
  - community-health-center
  cost: sliding-scale
  address: {street: 1 Hope Dr, city: Tustin, state: ca, zip: '92782'}
  place: 0680854
  geo: {lat: 33.71554, lng: -117.83263}
  phone: 714-240-2070
  external_ids: {bphc: BPS-H80-011067}
  sources:
  - hrsa/health-center-sites
  verified: {'on': '2026-07-19', method: api}
- id: ca/tustin/hurtt-family-health-clinic-tustin-newport-bh
  name: Hurtt Family Health Clinic - Tustin Newport BH
  categories:
  - community-health-center
  cost: sliding-scale
  address: {street: '14642 Newport Ave, Suite 410', city: Tustin, state: ca, zip: '92780'}
  place: 0680854
  geo: {lat: 33.7307, lng: -117.8289}
  phone: 714-247-0300
  website: https://www.hurtclinic.org
  external_ids: {bphc: BPS-H80-040132}
  sources:
  - hrsa/health-center-sites
  verified: {'on': '2026-07-19', method: api}
- id: ca/tustin/hurtt-family-health-clinic-village-of-hope
  name: Hurtt Family Health Clinic - Village of Hope
  categories:
  - community-health-center
  cost: sliding-scale
  address: {street: 1 Hope Dr, city: Tustin, state: ca, zip: '92782'}
  place: 0680854
  geo: {lat: 33.71554, lng: -117.83263}
  phone: 714-247-0300
  website: https://www.hurtclinic.org
  external_ids: {bphc: BPS-H80-008358}
  sources:
  - hrsa/health-center-sites
  verified: {'on': '2026-07-19', method: api}
- id: ca/tustin/oc-public-library-tustin-branch
  name: Oc Public Library - Tustin Branch
  categories:
  - meal-program
  address: {street: 345 E. Main St., city: Tustin, state: ca, zip: '92780'}
  description: Free summer meals for kids and teens (2026 season) — sponsored by TUSTIN UNIFIED SCHOOL
    DISTRICT.
  place: 0680854
  geo: {lat: 33.7421, lng: -117.82078}
  phone: (714) 730-7301
  external_ids: {usda_master: Cycle 02_CA_SSO_0266}
  sources:
  - usda/summer-meal-sites
  verified: {'on': '2026-07-19', method: api}
- id: ca/tustin/orange-county-rescue-mission
  name: Orange County Rescue Mission
  org: ca/second-harvest-food-bank-of-orange-county
  categories:
  - food-pantry
  address: {street: 1 Hope Drive, city: Tustin, state: ca, zip: '92782'}
  place: 0680854
  geo: {lat: 33.71509, lng: -117.83219}
  external_ids: {ca-second-harvest-food-bank-of-orange-county: '19163'}
  sources:
  - foodbank/ca-second-harvest-food-bank-of-orange-county
  verified: {'on': '2026-07-21', method: api}
- id: ca/tustin/st-cecilias-christian-service
  name: St. Cecilia’s Christian Service
  org: ca/second-harvest-food-bank-of-orange-county
  categories:
  - food-pantry
  address: {street: 1301 SE Sycamore Avenue, city: Tustin, state: ca, zip: '92780'}
  place: 0680854
  geo: {lat: 33.72697, lng: -117.82569}
  external_ids: {ca-second-harvest-food-bank-of-orange-county: '19194'}
  sources:
  - foodbank/ca-second-harvest-food-bank-of-orange-county
  verified: {'on': '2026-07-21', method: api}
- id: ca/tustin/tustin-area-senior-center
  name: Tustin Area Senior Center
  org: ca/second-harvest-food-bank-of-orange-county
  categories:
  - food-pantry
  address: {street: 200 South C Street, city: Tustin, state: ca, zip: '92780'}
  place: 0680854
  geo: {lat: 33.74399, lng: -117.82574}
  external_ids: {ca-second-harvest-food-bank-of-orange-county: '19318'}
  sources:
  - foodbank/ca-second-harvest-food-bank-of-orange-county
  verified: {'on': '2026-07-21', method: api}
- id: ca/tustin/tustin-city-community-services
  name: Tustin City Community Services
  categories:
  - meal-program
  address: {street: 14722 Newport Avenue, city: Tustin, state: ca, zip: '92780'}
  description: Free summer meals for kids and teens (2026 season) — sponsored by SECOND HARVEST FOOD BANK
    OF ORANGE COUNTY, INC.
  place: 0680854
  geo: {lat: 33.73016, lng: -117.83006}
  phone: (714) 573-3370
  external_ids: {usda_master: Cycle 05_CA_SFSP_0385}
  sources:
  - usda/summer-meal-sites
  verified: {'on': '2026-07-19', method: api}
- id: ca/tustin/tustin-community-services-chatham-apartments
  name: Tustin Community Services@Chatham Apartments
  org: ca/second-harvest-food-bank-of-orange-county
  categories:
  - food-pantry
  address: {street: 16331 McFadden Ave., city: Tustin, state: ca, zip: '92780'}
  place: 0680854
  geo: {lat: 33.7338, lng: -117.84144}
  external_ids: {ca-second-harvest-food-bank-of-orange-county: '19340'}
  sources:
  - foodbank/ca-second-harvest-food-bank-of-orange-county
  verified: {'on': '2026-07-21', method: api}
- id: ca/tustin/tustin-community-services-tustin-youth-family
  name: Tustin Community Services@Tustin Youth & Family
  org: ca/second-harvest-food-bank-of-orange-county
  categories:
  - food-pantry
  address: {street: 14722 Newport Ave, city: Tustin, state: ca, zip: '92780'}
  place: 0680854
  geo: {lat: 33.72986, lng: -117.82972}
  external_ids: {ca-second-harvest-food-bank-of-orange-county: '19169'}
  sources:
  - foodbank/ca-second-harvest-food-bank-of-orange-county
  verified: {'on': '2026-07-21', method: api}
- id: ca/tustin/tustin-family-and-youth-center
  name: Tustin Family and Youth Center
  org: ca/second-harvest-food-bank-of-orange-county
  categories:
  - food-pantry
  address: {street: 14722 Newport Ave., city: Tustin, state: ca, zip: '92780'}
  place: 0680854
  geo: {lat: 33.72986, lng: -117.82972}
  external_ids: {ca-second-harvest-food-bank-of-orange-county: '19128'}
  sources:
  - foodbank/ca-second-harvest-food-bank-of-orange-county
  verified: {'on': '2026-07-21', method: api}
- id: ca/tustin/tustin-ranch-corps-community-center
  name: Tustin Ranch Corps Community Center
  categories:
  - family-support
  - family-youth
  description: Salvation Army community center
  address: {street: 10200 Pioneer Rd., city: Tustin, state: ca, zip: '92782'}
  geo: {lat: 33.76781, lng: -117.75962}
  place: 0680854
  phone: 714-832-7100
  website: https://www.salvationarmyusa.org/ca/tustin/pioneer-road-corps/
  services:
  - Family Services
  - Giving Back
  - Holiday Giving
  - Worship and Spiritual Programs
  - Adult Program Services
  - Youth Services
  external_ids: {gdos: 8a808375559c116c0155bece676202e0}
  sources:
  - salvationarmy/location-finder
  verified: {'on': '2026-07-20', method: api}
- id: ca/tustin/veeh-elementary
  name: Veeh Elementary
  org: ca/second-harvest-food-bank-of-orange-county
  categories:
  - food-pantry
  address: {street: 1701 San Juan St., city: Tustin, state: ca, zip: '92780'}
  place: 0680854
  geo: {lat: 33.73466, lng: -117.80976}
  external_ids: {ca-second-harvest-food-bank-of-orange-county: '19285'}
  sources:
  - foodbank/ca-second-harvest-food-bank-of-orange-county
  verified: {'on': '2026-07-21', method: api}
- id: ca/tustin/ymca-benson-elementary
  name: YMCA – Benson Elementary
  org: ca/second-harvest-food-bank-of-orange-county
  categories:
  - food-pantry
  address: {street: 12712 Elizabeth Way, city: Tustin, state: ca, zip: '92780'}
  place: 0680854
  geo: {lat: 33.75133, lng: -117.80415}
  external_ids: {ca-second-harvest-food-bank-of-orange-county: '19156'}
  sources:
  - foodbank/ca-second-harvest-food-bank-of-orange-county
  verified: {'on': '2026-07-21', method: api}
