- id: ca/westminster/altamed-dental-group-at-john-marshall-elementary
  name: AltaMed Dental Group at John Marshall Elementary School
  categories:
  - community-health-center
  address:
    street: 15791 Bushard St
    city: Westminster
    state: ca
    zip: '92683'
  place: 0684550
  geo:
    lat: 33.73309
    lng: -117.96342
  phone: 888-499-9303
  website: https://www.altamed.org
  external_ids:
    bphc: BPS-H80-037546
  sources:
  - hrsa/health-center-sites
  verified:
    'on': '2026-07-19'
    method: api
- id: ca/westminster/county-of-orange-healthcare-agency-children-and
  name: County of Orange Healthcare Agency Children and Youth Services West
  categories:
  - su-treatment
  - mh-treatment
  address:
    street: 14140 Beach Boulevard
    city: Westminster
    state: ca
    zip: '92683'
  place: 0684550
  geo:
    lat: 33.75697
    lng: -117.98796
  phone: 714-896-7556
  website: https://www.ochealthinfo.com
  sources:
  - samhsa/findtreatment
  verified:
    'on': '2026-07-19'
    method: api
- id: ca/westminster/families-together-of-orange-county-magnolia
  name: Families Together of Orange County - Magnolia
  categories:
  - community-health-center
  address:
    street: 14571 Magnolia St, Suite 101
    city: Westminster
    state: ca
    zip: '92683'
  place: 0684550
  geo:
    lat: 33.75113
    lng: -117.97288
  phone: 714-665-9890
  website: https://familiestogetheroc.org
  external_ids:
    bphc: BPS-LAL-040378
  sources:
  - hrsa/health-center-sites
  verified:
    'on': '2026-07-19'
    method: api
- id: ca/westminster/families-together-of-orange-county-magnolia-2
  name: Families Together of Orange County - Magnolia
  categories:
  - community-health-center
  address:
    street: 14571 Magnolia St, Suite 204
    city: Westminster
    state: ca
    zip: '92683'
  place: 0684550
  geo:
    lat: 33.75099
    lng: -117.9728
  phone: 714-665-9890
  external_ids:
    bphc: BPS-LAL-040795
  sources:
  - hrsa/health-center-sites
  verified:
    'on': '2026-07-19'
    method: api
- id: ca/westminster/ftoc-magnolia-medical-clinic
  name: FTOC Magnolia Medical Clinic
  categories:
  - community-health-center
  address:
    street: 14571 Magnolia St, Suite 207
    city: Westminster
    state: ca
    zip: '92683'
  place: 0684550
  geo:
    lat: 33.75078
    lng: -117.97295
  phone: 714-665-9890
  external_ids:
    bphc: BPS-LAL-041362
  sources:
  - hrsa/health-center-sites
  verified:
    'on': '2026-07-19'
    method: api
- id: ca/westminster/hope-center
  name: Hope Center
  categories:
  - child-care
  address:
    street: 13841 Milton Ave
    city: Westminster
    state: ca
    zip: '92683'
  place: 0684550
  geo:
    lat: 33.76069
    lng: -118.0217
  phone: 714-230-3832
  sources:
  - acf/head-start-locations
  verified:
    'on': '2026-07-19'
    method: api
- id: ca/westminster/orange-county-healthcare-agency-bhs-west-substan
  name: Orange County Healthcare Agency BHS West Substance Use Disorder
  categories:
  - su-treatment
  address:
    street: 14140 Beach Boulevard
    city: Westminster
    state: ca
    zip: '92683'
  place: 0684550
  geo:
    lat: 33.75697
    lng: -117.98796
  phone: 714-834-3840
  website: https://www.ochealthinfo.com
  sources:
  - samhsa/findtreatment
  verified:
    'on': '2026-07-19'
    method: api
