- id: oh/ashland/9th-street-dental
  name: 9th Street Dental
  categories:
  - community-health-center
  address:
    street: 431 E 9th St
    city: Ashland
    state: oh
    zip: '44805'
  place: '3902568'
  geo:
    lat: 40.87465
    lng: -82.3066
  phone: 567-217-7040
  external_ids:
    bphc: BPS-H80-030947
  sources:
  - hrsa/health-center-sites
  verified:
    'on': '2026-07-19'
    method: api
- id: oh/ashland/appleseed-community-mental-health-ctr
  name: Appleseed Community Mental Health Ctr
  categories:
  - su-treatment
  - mh-treatment
  address:
    street: 2233 Rocky Lane
    city: Ashland
    state: oh
    zip: '44805'
  place: '3902568'
  geo:
    lat: 40.8922
    lng: -82.32015
  phone: 419-281-3716
  website: https://www.appleseedmentalhealth.com
  sources:
  - samhsa/findtreatment
  verified:
    'on': '2026-07-19'
    method: api
- id: oh/ashland/ashland-county-council-on-alcoholism-and-drug-ab
  name: Ashland County Council on Alcoholism and Drug Abuse Inc
  categories:
  - su-treatment
  - mh-treatment
  address:
    street: 310 College Avenue
    city: Ashland
    state: oh
    zip: '44805'
  place: '3902568'
  geo:
    lat: 40.86263
    lng: -82.3181
  phone: 419-289-9490
  website: https://www.accada.org
  sources:
  - samhsa/findtreatment
  verified:
    'on': '2026-07-19'
    method: api
- id: oh/ashland/ashland-head-start
  name: Ashland Head Start
  categories:
  - child-care
  address:
    street: 527 E Liberty St
    street2: Ray and Joan Kroc Salvation Army Center
    city: Ashland
    state: oh
    zip: '44805'
  place: '3902568'
  geo:
    lat: 40.86497
    lng: -82.30389
  phone: 419-281-8001
  sources:
  - acf/head-start-locations
  verified:
    'on': '2026-07-19'
    method: api
- id: oh/ashland/ashland-health-and-wellness
  name: Ashland Health and Wellness
  categories:
  - community-health-center
  address:
    street: 309 Arthur St
    city: Ashland
    state: oh
    zip: '44805'
  place: '3902568'
  geo:
    lat: 40.86747
    lng: -82.31139
  phone: 567-217-7778
  external_ids:
    bphc: BPS-H80-030361
  sources:
  - hrsa/health-center-sites
  verified:
    'on': '2026-07-19'
    method: api
- id: oh/ashland/ashland-west-head-start
  name: Ashland West Head Start
  categories:
  - child-care
  address:
    street: 1797 Seddon Ct
    city: Ashland
    state: oh
    zip: '44805'
  place: '3902568'
  geo:
    lat: 40.84746
    lng: -82.3407
  phone: 419-496-0466
  sources:
  - acf/head-start-locations
  verified:
    'on': '2026-07-19'
    method: api
- id: oh/ashland/catholic-charities-corporation-ashland-county
  name: Catholic Charities Corporation Ashland County
  categories:
  - su-treatment
  - mh-treatment
  address:
    street: 34 West Second Street
    city: Ashland
    state: oh
    zip: '44805'
  place: '3902568'
  geo:
    lat: 40.86959
    lng: -82.31662
  phone: 419-289-1903
  website: https://www.ccdocle.org/counties/ashland
  sources:
  - samhsa/findtreatment
  verified:
    'on': '2026-07-19'
    method: api
