- id: oh/berea/church-street-ministries
  name: Church Street Ministries
  org: oh/greater-cleveland-food-bank
  categories:
  - food-pantry
  address: {street: 1480 W Bagley Rd, city: Berea, state: oh, zip: '44017'}
  place: '3905690'
  geo: {lat: 41.37259, lng: -81.89437}
  phone: 440-387-8272
  external_ids: {oh-greater-cleveland-food-bank: '282'}
  sources:
  - foodbank/oh-greater-cleveland-food-bank
  verified: {'on': '2026-07-20', method: scrape}
- id: oh/berea/city-of-berea
  name: City of Berea
  org: oh/greater-cleveland-food-bank
  categories:
  - food-pantry
  address: {street: 398 W. Bagley Rd Suite 3, city: Berea, state: oh, zip: '44017'}
  place: '3905690'
  geo: {lat: 41.36521, lng: -81.85407}
  phone: 440-826-4891
  external_ids: {oh-greater-cleveland-food-bank: '351'}
  sources:
  - foodbank/oh-greater-cleveland-food-bank
  verified: {'on': '2026-07-20', method: scrape}
- id: oh/berea/little-free-pantry-berea-coe-lake-library-area
  name: Little Free Pantry Berea- Coe Lake/ library area
  categories:
  - food-pantry
  place: '3905690'
  geo: {lat: 41.36496, lng: -81.85298}
  website: https://mapping.littlefreepantry.org/pantry/3894
  external_ids: {lfp: '3894'}
  sources:
  - littlefreepantry/map
  verified: {'on': '2026-07-19', method: scrape}
- id: oh/berea/people-s-community-church
  name: People's Community Church
  categories:
  - food-pantry
  place: '3905690'
  geo: {lat: 41.38276, lng: -81.85757}
  website: https://mapping.littlefreepantry.org/pantry/3635
  external_ids: {lfp: '3635'}
  sources:
  - littlefreepantry/map
  verified: {'on': '2026-07-19', method: scrape}
- id: oh/berea/people-s-community-church-2
  name: People's Community Church
  org: oh/greater-cleveland-food-bank
  categories:
  - food-pantry
  address: {street: 628 Wesley Dr, city: Berea, state: oh, zip: '44017'}
  place: '3905690'
  geo: {lat: 41.38315, lng: -81.85832}
  phone: 440-773-3080
  external_ids: {oh-greater-cleveland-food-bank: '324'}
  sources:
  - foodbank/oh-greater-cleveland-food-bank
  verified: {'on': '2026-07-20', method: scrape}
- id: oh/berea/scan-hunger-center-pantry
  name: SCAN Hunger Center Pantry
  org: oh/greater-cleveland-food-bank
  categories:
  - food-pantry
  address: {street: '398 W Bagley Rd #7', city: Berea, state: oh, zip: '44017'}
  place: '3905690'
  geo: {lat: 41.37222, lng: -81.87011}
  phone: 216-410-5065
  external_ids: {oh-greater-cleveland-food-bank: '247'}
  sources:
  - foodbank/oh-greater-cleveland-food-bank
  verified: {'on': '2026-07-20', method: scrape}
