- id: oh/bexley/franklin-park-conservatory-free-little-farmstand
  name: Franklin Park Conservatory Free Little Farmstand
  categories:
  - food-pantry
  place: '3906278'
  geo:
    lat: 39.96314
    lng: -82.95129
  external_ids:
    lfp: '1633'
  sources:
  - littlefreepantry/map
  verified:
    'on': '2026-07-19'
    method: scrape
- id: oh/bexley/little-free-pantry
  name: Little Free Pantry
  categories:
  - food-pantry
  place: '3906278'
  geo:
    lat: 39.95557
    lng: -82.94385
  external_ids:
    lfp: '1377'
  sources:
  - littlefreepantry/map
  verified:
    'on': '2026-07-19'
    method: scrape
- id: oh/bexley/little-free-pantry-2
  name: little free pantry
  categories:
  - food-pantry
  place: '3906278'
  geo:
    lat: 39.98181
    lng: -82.93125
  external_ids:
    lfp: '2930'
  sources:
  - littlefreepantry/map
  verified:
    'on': '2026-07-19'
    method: scrape
- id: oh/bexley/mayfair-street-pantry
  name: Mayfair Street Pantry
  categories:
  - food-pantry
  place: '3906278'
  geo:
    lat: 39.96909
    lng: -82.91131
  external_ids:
    lfp: '3275'
  sources:
  - littlefreepantry/map
  verified:
    'on': '2026-07-19'
    method: scrape
- id: oh/bexley/montrose-pantry
  name: Montrose Pantry
  categories:
  - food-pantry
  place: '3906278'
  geo:
    lat: 39.95636
    lng: -82.93049
  external_ids:
    lfp: '175'
  sources:
  - littlefreepantry/map
  verified:
    'on': '2026-07-19'
    method: scrape
- id: oh/bexley/temple-israel-columbus-little-free-pantry
  name: Temple Israel Columbus Little Free Pantry
  categories:
  - food-pantry
  place: '3906278'
  geo:
    lat: 39.97203
    lng: -82.91851
  external_ids:
    lfp: '3239'
  sources:
  - littlefreepantry/map
  verified:
    'on': '2026-07-19'
    method: scrape
- id: oh/bexley/wings-of-victory-church-lfp
  name: Wings of Victory Church LFP
  categories:
  - food-pantry
  place: '3906278'
  geo:
    lat: 39.93692
    lng: -82.90622
  external_ids:
    lfp: '2127'
  sources:
  - littlefreepantry/map
  verified:
    'on': '2026-07-19'
    method: scrape
