- id: oh/bryan/bryan-community-health-center
  name: Bryan Community Health Center
  categories:
  - community-health-center
  cost: sliding-scale
  address: {street: 228 S Main St, city: Bryan, state: oh, zip: '43506'}
  place: '3909792'
  geo: {lat: 41.47241, lng: -84.55142}
  phone: 567-239-4562
  website: https://www.hpwohio.org
  external_ids: {bphc: BPS-H80-017283}
  sources:
  - hrsa/health-center-sites
  verified: {'on': '2026-07-19', method: api}
- id: oh/bryan/bryan-mobile-health-van
  name: Bryan - Mobile Health Van
  categories:
  - community-health-center
  cost: sliding-scale
  address: {street: 228 S Main St, city: Bryan, state: oh, zip: '43506'}
  place: '3909792'
  geo: {lat: 41.47241, lng: -84.55142}
  phone: 567-239-4562
  website: https://www.hpwohio.org
  external_ids: {bphc: BPS-H80-027147}
  sources:
  - hrsa/health-center-sites
  verified: {'on': '2026-07-19', method: api}
- id: oh/bryan/mattie-marsh-park
  name: Mattie Marsh Park
  categories:
  - meal-program
  address: {street: 410 East Trevitt Street, city: Bryan, state: oh, zip: '43506'}
  description: Free summer meals for kids and teens (2026 season) — sponsored by Northwestern Ohio Community
    Action Commission.
  place: '3909792'
  geo: {lat: 41.47848, lng: -84.54537}
  phone: (419) 542-9500
  external_ids: {usda_master: Cycle 06_OH_SFSP_0161}
  sources:
  - usda/summer-meal-sites
  verified: {'on': '2026-07-19', method: api}
- id: oh/bryan/new-life-worship-center
  name: New Life Worship Center
  org: oh/toledo-northwestern-ohio-food-bank
  categories:
  - food-pantry
  address: {street: 14451 County Road C, city: BRYAN, state: oh, zip: '43506'}
  place: '3909792'
  geo: {lat: 41.45646, lng: -84.54378}
  phone: 419-636-3526
  external_ids: {oh-toledo-northwestern-ohio-food-bank: '52207049'}
  sources:
  - foodbank/oh-toledo-northwestern-ohio-food-bank
  verified: {'on': '2026-07-21', method: api}
- id: oh/bryan/northwestern-ohio-community-action-commission
  name: Northwestern Ohio Community Action Commission
  categories:
  - utility-assistance
  description: LIHEAP intake office serving Williams County
  address: {street: 1425 E. High Street Suite 113, city: Bryan, state: oh, zip: '43506'}
  place: '3909792'
  phone: 419-636-4924
  website: https://nocac.org/emergency-services/heap/
  sources:
  - acf/liheap-clearinghouse
  verified: {'on': '2026-07-19', method: scrape}
  geo: {lat: 41.47616, lng: -84.52955}
- id: oh/bryan/pulaski-head-start
  name: Pulaski Head Start
  categories:
  - child-care
  address: {street: 6678 US Highway 127, city: Bryan, state: oh, zip: '43506'}
  description: Head Start early childhood program — 72 funded slots; operated by Northwestern Ohio Community
    Action Commission.
  place: '3909792'
  geo: {lat: 41.51021, lng: -84.50702}
  phone: 419-636-8862
  sources:
  - acf/head-start-locations
  verified: {'on': '2026-07-19', method: api}
- id: oh/bryan/recovery-services-of-nw-ohio
  name: Recovery Services of NW Ohio
  categories:
  - su-treatment
  - mh-treatment
  address: {street: 200 Van Gundy Drive, city: Bryan, state: oh, zip: '43506'}
  place: '3909792'
  geo: {lat: 41.47556, lng: -84.571}
  phone: 419-636-0410
  website: https://www.rsnwo.org
  services:
  - Outpatient
  eligibility: Serves children/adolescents, young adults, adults, seniors.
  cost: sliding-scale
  sources:
  - samhsa/findtreatment
  verified: {'on': '2026-07-19', method: api}
- id: oh/bryan/wesley-u-m-c-mission-council
  name: Wesley U.M.C. Mission Council
  org: oh/toledo-northwestern-ohio-food-bank
  categories:
  - food-pantry
  address: {street: 903 Center Street, city: BRYAN, state: oh, zip: '43506'}
  place: '3909792'
  geo: {lat: 41.46462, lng: -84.56456}
  phone: 419-636-6721
  external_ids: {oh-toledo-northwestern-ohio-food-bank: '52207098'}
  sources:
  - foodbank/oh-toledo-northwestern-ohio-food-bank
  verified: {'on': '2026-07-21', method: api}
