- id: oh/bryan/bryan-community-health-center
  name: Bryan Community Health Center
  categories:
  - community-health-center
  address:
    street: 228 S Main St
    city: Bryan
    state: oh
    zip: '43506'
  place: '3909792'
  geo:
    lat: 41.47241
    lng: -84.55142
  phone: 567-239-4562
  website: https://www.hpwohio.org
  external_ids:
    bphc: BPS-H80-017283
  sources:
  - hrsa/health-center-sites
  verified:
    'on': '2026-07-19'
    method: api
- id: oh/bryan/bryan-mobile-health-van
  name: Bryan - Mobile Health Van
  categories:
  - community-health-center
  address:
    street: 228 S Main St
    city: Bryan
    state: oh
    zip: '43506'
  place: '3909792'
  geo:
    lat: 41.47241
    lng: -84.55142
  phone: 567-239-4562
  website: https://www.hpwohio.org
  external_ids:
    bphc: BPS-H80-027147
  sources:
  - hrsa/health-center-sites
  verified:
    'on': '2026-07-19'
    method: api
- id: oh/bryan/bryan-outreach-admin-site
  name: Bryan Outreach Admin Site
  categories:
  - community-health-center
  address:
    street: 1206 E High St
    city: Bryan
    state: oh
    zip: '43506'
  place: '3909792'
  geo:
    lat: 41.47483
    lng: -84.53351
  phone: 419-221-3072
  external_ids:
    bphc: BPS-H80-039700
  sources:
  - hrsa/health-center-sites
  verified:
    'on': '2026-07-19'
    method: api
- id: oh/bryan/mattie-marsh-park
  name: Mattie Marsh Park
  categories:
  - meal-program
  address:
    street: 410 East Trevitt Street
    city: Bryan
    state: oh
    zip: '43506'
  description: Free summer meals for kids and teens (2026 season) — sponsored by Northwestern Ohio Community
    Action Commission.
  place: '3909792'
  geo:
    lat: 41.47848
    lng: -84.54537
  phone: (419) 542-9500
  external_ids:
    usda_master: Cycle 06_OH_SFSP_0161
  sources:
  - usda/summer-meal-sites
  verified:
    'on': '2026-07-19'
    method: api
- id: oh/bryan/pulaski-head-start
  name: Pulaski Head Start
  categories:
  - child-care
  address:
    street: 6678 US Highway 127
    city: Bryan
    state: oh
    zip: '43506'
  place: '3909792'
  geo:
    lat: 41.51021
    lng: -84.50702
  phone: 419-636-8862
  sources:
  - acf/head-start-locations
  verified:
    'on': '2026-07-19'
    method: api
- id: oh/bryan/recovery-services-of-nw-ohio
  name: Recovery Services of NW Ohio
  categories:
  - su-treatment
  - mh-treatment
  address:
    street: 200 Van Gundy Drive
    city: Bryan
    state: oh
    zip: '43506'
  place: '3909792'
  geo:
    lat: 41.47556
    lng: -84.571
  phone: 419-636-0410
  website: https://www.rsnwo.org
  sources:
  - samhsa/findtreatment
  verified:
    'on': '2026-07-19'
    method: api
