- id: oh/chardon/catholic-charities-geauga-county
  name: Catholic Charities Geauga County
  categories:
  - su-treatment
  - mh-treatment
  address:
    street: 602 South Street
    city: Chardon
    state: oh
    zip: '44024'
  place: '3913554'
  geo:
    lat: 41.56184
    lng: -81.20042
  phone: 440-285-3537
  website: https://ccdocle.org/
  sources:
  - samhsa/findtreatment
  verified:
    'on': '2026-07-19'
    method: api
- id: oh/chardon/ccf-blessing-box
  name: CCF Blessing Box
  categories:
  - food-pantry
  place: '3913554'
  geo:
    lat: 41.58143
    lng: -81.19141
  external_ids:
    lfp: '1366'
  sources:
  - littlefreepantry/map
  verified:
    'on': '2026-07-19'
    method: scrape
- id: oh/chardon/chardon-food-pantry
  name: Chardon Food Pantry
  categories:
  - food-pantry
  place: '3913554'
  geo:
    lat: 41.58122
    lng: -81.20467
  external_ids:
    lfp: '1180'
  sources:
  - littlefreepantry/map
  verified:
    'on': '2026-07-19'
    method: scrape
- id: oh/chardon/family-pride-of-northeast-ohio-inc
  name: Family Pride of Northeast Ohio Inc
  categories:
  - su-treatment
  - mh-treatment
  address:
    street: 521 5th Avenue
    city: Chardon
    state: oh
    zip: '44024'
  place: '3913554'
  geo:
    lat: 41.58525
    lng: -81.22062
  phone: 440-286-1553
  website: https://www.familyprideonline.org
  sources:
  - samhsa/findtreatment
  verified:
    'on': '2026-07-19'
    method: api
- id: oh/chardon/feathers-and-fleece-4h-mini-food-pantry
  name: Feathers and Fleece 4H Mini Food Pantry
  categories:
  - food-pantry
  place: '3913554'
  geo:
    lat: 41.58279
    lng: -81.24115
  external_ids:
    lfp: '3620'
  sources:
  - littlefreepantry/map
  verified:
    'on': '2026-07-19'
    method: scrape
- id: oh/chardon/geauga-metropolitian-housing-authority
  name: Geauga Metropolitian Housing Authority
  categories:
  - housing-assistance
  address: {street: 385 Center St, city: Chardon, state: oh, zip: '44024'}
  description: Public housing and Housing Choice Voucher agency
  place: '3913554'
  geo: {lat: 41.5867, lng: -81.21815}
  phone: 440-286-7413
  sources:
  - hud/resource-locator
  verified: {'on': '2026-07-19', method: api}
- id: oh/chardon/lake-geauga-recovery-centers-inc-chardon-outpati
  name: Lake Geauga Recovery Centers Inc Chardon Outpatient
  categories:
  - su-treatment
  - mh-treatment
  address:
    street: 209 Center Street
    city: Chardon
    state: oh
    zip: '44024'
  place: '3913554'
  geo:
    lat: 41.58278
    lng: -81.20996
  phone: 440-255-0678
  website: https://www.lgrc.us
  sources:
  - samhsa/findtreatment
  verified:
    'on': '2026-07-19'
    method: api
- id: oh/chardon/lake-geauga-recovery-centers-inc-womens-resident
  name: Lake Geauga Recovery Centers Inc Womens Residential Treatment Nevaeh
  categories:
  - su-treatment
  address:
    street: 7301 Ravenna Road
    city: Chardon
    state: oh
    zip: '44024'
  place: '3913554'
  geo:
    lat: 41.67169
    lng: -81.22283
  phone: 440-255-0678
  website: https://www.lgrc.us
  sources:
  - samhsa/findtreatment
  verified:
    'on': '2026-07-19'
    method: api
- id: oh/chardon/ravenwood-health-geauga-youth-center
  name: Ravenwood Health Geauga Youth Center
  categories:
  - su-treatment
  - mh-treatment
  address:
    street: 12557 Ravenwood Drive
    city: Chardon
    state: oh
    zip: '44024'
  place: '3913554'
  phone: 440-285-3568
  website: https://www.ravenwoodhealth.org
  sources:
  - samhsa/findtreatment
  verified:
    'on': '2026-07-19'
    method: api
- id: oh/chardon/ravenwood-health-main
  name: Ravenwood Health Main
  categories:
  - su-treatment
  - mh-treatment
  address:
    street: 12557 Ravenwood Drive
    city: Chardon
    state: oh
    zip: '44024'
  place: '3913554'
  geo:
    lat: 41.50724
    lng: -81.18778
  phone: 440-285-3568
  website: https://www.ravenwoodhealth.org
  sources:
  - samhsa/findtreatment
  verified:
    'on': '2026-07-19'
    method: api
- id: oh/chardon/ravenwood-health-ravenna-office
  name: Ravenwood Health Ravenna Office
  categories:
  - su-treatment
  - mh-treatment
  address:
    street: 13170 Ravenna Road
    city: Chardon
    state: oh
    zip: '44024'
  place: '3913554'
  geo:
    lat: 41.50926
    lng: -81.1943
  phone: 440-285-3568
  website: https://www.ravenwoodhealth.org
  sources:
  - samhsa/findtreatment
  verified:
    'on': '2026-07-19'
    method: api
- id: oh/chardon/wellbrook-recovery-chardon
  name: WellBrook Recovery/Chardon
  categories:
  - su-treatment
  - mh-treatment
  address:
    street: 9600 Old State Road
    city: Chardon
    state: oh
    zip: '44024'
  place: '3913554'
  geo:
    lat: 41.60937
    lng: -81.15291
  phone: 440-253-9915
  website: https://www.wellbrookrecovery.com
  sources:
  - samhsa/findtreatment
  verified:
    'on': '2026-07-19'
    method: api
- id: oh/chardon/wellbrook-recovery-chardon-formerly-prosperity-h
  name: WellBrook Recovery/Chardon Formerly Prosperity Haven
  categories:
  - su-treatment
  address:
    street: 9600 Old State Road
    city: Chardon
    state: oh
    zip: '44024'
  place: '3913554'
  geo:
    lat: 41.60937
    lng: -81.15291
  phone: 440-253-9915
  website: https://www.wellbrookrecovery.com
  sources:
  - samhsa/findtreatment
  verified:
    'on': '2026-07-19'
    method: api
- id: oh/chardon/womensafe-inc
  name: WomenSafe Inc
  categories:
  - mh-treatment
  address:
    city: Chardon
    state: oh
    zip: '44024'
  place: '3913554'
  phone: 440-286-7154
  website: https://www.womensafe.org
  sources:
  - samhsa/findtreatment
  verified:
    'on': '2026-07-19'
    method: api
