- id: oh/eaton/darke-county-recovery-services-dba-recovery-and
  name: Darke County Recovery Services DBA Recovery and Wellness Centers
  categories:
  - su-treatment
  - mh-treatment
  address:
    street: 228 North Barron Street
    city: Eaton
    state: oh
    zip: '45320'
  place: '3924234'
  geo:
    lat: 39.74645
    lng: -84.63616
  phone: 937-456-7694
  website: https://www.recoveryandwellnessohio.org
  sources:
  - samhsa/findtreatment
  verified:
    'on': '2026-07-19'
    method: api
- id: oh/eaton/decoach-recovery-centre-eaton
  name: DeCoach Recovery Centre Eaton
  categories:
  - su-treatment
  - mh-treatment
  address:
    street: 2172-A US 127 North
    city: Eaton
    state: oh
    zip: '45320'
  place: '3924234'
  geo:
    lat: 39.77538
    lng: -84.63608
  phone: 513-743-7628
  website: https://www.decoachrecovery.com
  sources:
  - samhsa/findtreatment
  verified:
    'on': '2026-07-19'
    method: api
- id: oh/eaton/hollingsworth-east-school
  name: Hollingsworth East School
  categories:
  - child-care
  address:
    street: 506 Aukerman St
    city: Eaton
    state: oh
    zip: '45320'
  place: '3924234'
  geo:
    lat: 39.7494
    lng: -84.62602
  phone: 937-456-3253
  sources:
  - acf/head-start-locations
  verified:
    'on': '2026-07-19'
    method: api
- id: oh/eaton/preble-metropolitian-housing-authority
  name: Preble Metropolitian Housing Authority
  categories:
  - housing-assistance
  address:
    street: 308 Eaton Lewisburg Rd
    city: Eaton
    state: oh
    zip: '45320'
  description: Housing Choice Voucher (Section 8) agency
  place: '3924234'
  geo:
    lat: 39.76175
    lng: -84.6329
  phone: 937-456-2800
  sources:
  - hud/resource-locator
  verified:
    'on': '2026-07-19'
    method: api
- id: oh/eaton/reid-outpatient-behavioral-health
  name: Reid Outpatient Behavioral Health
  categories:
  - mh-treatment
  address:
    street: 550 Hallmark Drive
    city: Eaton
    state: oh
    zip: '45320'
  place: '3924234'
  geo:
    lat: 39.74886
    lng: -84.64722
  phone: 765-983-3298
  website: https://www.Reidhealth.org
  sources:
  - samhsa/findtreatment
  verified:
    'on': '2026-07-19'
    method: api
- id: oh/eaton/samaritan-behavioral-health-preble-co
  name: Samaritan Behavioral Health Preble Co
  categories:
  - su-treatment
  - mh-treatment
  address:
    street: 225 North Barron Street
    city: Eaton
    state: oh
    zip: '45320'
  place: '3924234'
  geo:
    lat: 39.74611
    lng: -84.63687
  phone: 937-456-1915
  website: https://www.sbhihelp.org
  sources:
  - samhsa/findtreatment
  verified:
    'on': '2026-07-19'
    method: api
