- id: oh/elyria/107-south-elyria
  name: 107 South Elyria
  categories:
  - child-care
  address:
    street: 107 Oberlin Rd
    city: Elyria
    state: oh
    zip: '44035'
  place: '3925256'
  geo:
    lat: 41.35093
    lng: -82.10804
  phone: 440-204-3148
  sources:
  - acf/head-start-locations
  verified:
    'on': '2026-07-19'
    method: api
- id: oh/elyria/applegate-recovery-elyria
  name: AppleGate Recovery Elyria
  categories:
  - su-treatment
  address:
    street: 833 East Broad Street
    city: Elyria
    state: oh
    zip: '44035'
  place: '3925256'
  geo:
    lat: 41.36496
    lng: -82.08129
  phone: 440-581-1183
  website: https://www.applegaterecovery.com/locations/ohio/elyria/
  sources:
  - samhsa/findtreatment
  verified:
    'on': '2026-07-19'
    method: api
- id: oh/elyria/applewood-centers-inc-lorain-county-clinical-off
  name: Applewood Centers Inc Lorain County Clinical Office
  categories:
  - mh-treatment
  address:
    street: 2100 North Ridge Road
    city: Elyria
    state: oh
    zip: '44035'
  place: '3925256'
  geo:
    lat: 41.41832
    lng: -82.12312
  phone: 440-324-1300
  website: https://www.applewoodcenters.org
  sources:
  - samhsa/findtreatment
  verified:
    'on': '2026-07-19'
    method: api
- id: oh/elyria/charak-center-for-health-and-wellness-rakesh-ran
  name: Charak Center for Health and Wellness Rakesh Ranjan MD and Associates Inc
  categories:
  - su-treatment
  - mh-treatment
  address:
    street: 1530 West River Road North
    city: Elyria
    state: oh
    zip: '44035'
  place: '3925256'
  geo:
    lat: 41.39545
    lng: -82.10768
  phone: 440-324-5555
  website: https://www.charakcenter.com
  sources:
  - samhsa/findtreatment
  verified:
    'on': '2026-07-19'
    method: api
- id: oh/elyria/elyria-treatment-services
  name: Elyria Treatment Services
  categories:
  - su-treatment
  address:
    street: 174 Midway Boulevard
    city: Elyria
    state: oh
    zip: '44035'
  place: '3925256'
  geo:
    lat: 41.39846
    lng: -82.10308
  phone: 440-581-0040
  website: https://pinnacletreatment.com/location/ohio/elyria/elyria-
  sources:
  - samhsa/findtreatment
  verified:
    'on': '2026-07-19'
    method: api
- id: oh/elyria/griswold-elyria-head-start-center
  name: Griswold - Elyria Head Start Center
  categories:
  - child-care
  address:
    street: 631 Griswold Rd
    city: Elyria
    state: oh
    zip: '44035'
  place: '3925256'
  geo:
    lat: 41.40043
    lng: -82.11727
  phone: 440-323-1737
  sources:
  - acf/head-start-locations
  verified:
    'on': '2026-07-19'
    method: api
- id: oh/elyria/horizon-education-center-elyria
  name: Horizon Education Center - Elyria
  categories:
  - child-care
  address:
    street: 10347 Dewhurst Rd
    city: Elyria
    state: oh
    zip: '44035'
  place: '3925256'
  geo:
    lat: 41.33884
    lng: -82.06834
  phone: 440-322-3409
  sources:
  - acf/head-start-locations
  verified:
    'on': '2026-07-19'
    method: api
- id: oh/elyria/lchd-middle-ave
  name: LCHD-Middle Ave
  categories:
  - community-health-center
  address:
    street: 801 Middle Ave
    city: Elyria
    state: oh
    zip: '44035'
  place: '3925256'
  geo:
    lat: 41.35964
    lng: -82.10762
  phone: 440-240-1655
  external_ids:
    bphc: BPS-H80-032853
  sources:
  - hrsa/health-center-sites
  verified:
    'on': '2026-07-19'
    method: api
- id: oh/elyria/northeast-ohio-va-healthcare-system-lorain-cboc
  name: Northeast Ohio VA Healthcare System Lorain CBOC
  categories:
  - su-treatment
  - mh-treatment
  address:
    street: 5275 North Abbe Road
    city: Elyria
    state: oh
    zip: '44035'
  place: '3925256'
  geo:
    lat: 41.42139
    lng: -82.07639
  phone: 440-934-9158
  website: https://www.va.gov/northeast-ohio-health-care/locations/lorain-va-clinic/
  sources:
  - samhsa/findtreatment
  verified:
    'on': '2026-07-19'
    method: api
- id: oh/elyria/premier-care-of-ohio-llc-elyria
  name: Premier Care of Ohio LLC Elyria
  categories:
  - su-treatment
  address:
    street: 1508 West River Road North
    city: Elyria
    state: oh
    zip: '44035'
  place: '3925256'
  geo:
    lat: 41.3942
    lng: -82.10693
  phone: 440-647-8100
  website: https://www.communitymedicalservices.org
  sources:
  - samhsa/findtreatment
  verified:
    'on': '2026-07-19'
    method: api
- id: oh/elyria/psych-and-psych-services
  name: Psych and Psych Services
  categories:
  - su-treatment
  - mh-treatment
  address:
    street: 750 South Abbe Road
    city: Elyria
    state: oh
    zip: '44035'
  place: '3925256'
  geo:
    lat: 41.36129
    lng: -82.07771
  phone: 440-323-5121
  website: https://www.psychandpsych.com
  sources:
  - samhsa/findtreatment
  verified:
    'on': '2026-07-19'
    method: api
- id: oh/elyria/wilkes-villa-public-housing
  name: Wilkes Villa Public Housing
  categories:
  - community-health-center
  address:
    street: 105 Louden Ct
    city: Elyria
    state: oh
    zip: '44035'
  place: '3925256'
  geo:
    lat: 41.3447
    lng: -82.10038
  phone: 440-240-1655
  external_ids:
    bphc: BPS-H80-014472
  sources:
  - hrsa/health-center-sites
  verified:
    'on': '2026-07-19'
    method: api
