- id: oh/elyria/107-south-elyria
  name: 107 South Elyria
  categories:
  - child-care
  address:
    street: 107 Oberlin Rd
    city: Elyria
    state: oh
    zip: '44035'
  place: '3925256'
  geo:
    lat: 41.35093
    lng: -82.10804
  phone: 440-204-3148
  sources:
  - acf/head-start-locations
  verified:
    'on': '2026-07-19'
    method: api
- id: oh/elyria/applegate-recovery-elyria
  name: AppleGate Recovery Elyria
  categories:
  - su-treatment
  address:
    street: 833 East Broad Street
    city: Elyria
    state: oh
    zip: '44035'
  place: '3925256'
  geo:
    lat: 41.36496
    lng: -82.08129
  phone: 440-581-1183
  website: https://www.applegaterecovery.com/locations/ohio/elyria/
  sources:
  - samhsa/findtreatment
  verified:
    'on': '2026-07-19'
    method: api
- id: oh/elyria/applewood-centers-inc-lorain-county-clinical-off
  name: Applewood Centers Inc Lorain County Clinical Office
  categories:
  - mh-treatment
  address:
    street: 2100 North Ridge Road
    city: Elyria
    state: oh
    zip: '44035'
  place: '3925256'
  geo:
    lat: 41.41832
    lng: -82.12312
  phone: 440-324-1300
  website: https://www.applewoodcenters.org
  sources:
  - samhsa/findtreatment
  verified:
    'on': '2026-07-19'
    method: api
- id: oh/elyria/charak-center-for-health-and-wellness-rakesh-ran
  name: Charak Center for Health and Wellness Rakesh Ranjan MD and Associates Inc
  categories:
  - su-treatment
  - mh-treatment
  address:
    street: 1530 West River Road North
    city: Elyria
    state: oh
    zip: '44035'
  place: '3925256'
  geo:
    lat: 41.39545
    lng: -82.10768
  phone: 440-324-5555
  website: https://www.charakcenter.com
  sources:
  - samhsa/findtreatment
  verified:
    'on': '2026-07-19'
    method: api
- id: oh/elyria/elyria-baseball-softball-club-south
  name: Elyria Baseball/Softball Club South
  categories:
  - meal-program
  address:
    street: 101 South Park
    city: Elyria
    state: oh
    zip: '44035'
  description: Free summer meals for kids and teens (2026 season) — sponsored by OUR F.A.M.I.L.Y..
  place: '3925256'
  geo:
    lat: 41.35099
    lng: -82.10225
  phone: (440) 670-7514
  external_ids:
    usda_master: Cycle 05_OH_SFSP_0073
  sources:
  - usda/summer-meal-sites
  verified:
    'on': '2026-07-19'
    method: api
- id: oh/elyria/elyria-high-school
  name: Elyria High School
  categories:
  - meal-program
  address:
    street: 601 Middle Ave.
    city: Elyria
    state: oh
    zip: '44035'
  description: Free summer meals for kids and teens (2026 season) — sponsored by Elyria City SD.
  place: '3925256'
  geo:
    lat: 41.36134
    lng: -82.10726
  phone: (440) 284-8253
  external_ids:
    usda_master: Cycle 04_OH_SFSP_0447
  sources:
  - usda/summer-meal-sites
  verified:
    'on': '2026-07-19'
    method: api
- id: oh/elyria/elyria-parks-east-rec
  name: Elyria Parks East Rec.
  categories:
  - meal-program
  address:
    street: 1101 Prospect St.
    city: Elyria
    state: oh
    zip: '44035'
  description: Free summer meals for kids and teens (2026 season) — sponsored by Elyria City SD.
  place: '3925256'
  geo:
    lat: 41.35834
    lng: -82.08868
  phone: (440) 326-1400
  external_ids:
    usda_master: Cycle 04_OH_SFSP_0124
  sources:
  - usda/summer-meal-sites
  verified:
    'on': '2026-07-19'
    method: api
- id: oh/elyria/elyria-south-library
  name: Elyria South Library
  categories:
  - meal-program
  address:
    street: 340 15Th St. Elyria
    city: Elyria
    state: oh
    zip: '44035'
  description: Free summer meals for kids and teens (2026 season) — sponsored by Elyria City SD.
  place: '3925256'
  geo:
    lat: 41.35282
    lng: -82.10955
  phone: (440) 322-0190
  external_ids:
    usda_master: Cycle 04_OH_SFSP_0393
  sources:
  - usda/summer-meal-sites
  verified:
    'on': '2026-07-19'
    method: api
- id: oh/elyria/elyria-track-club
  name: Elyria Track Club
  categories:
  - meal-program
  address:
    street: 1915 Middle Avenue
    city: Elyria
    state: oh
    zip: '44035'
  description: Free summer meals for kids and teens (2026 season) — sponsored by OUR F.A.M.I.L.Y..
  place: '3925256'
  geo:
    lat: 41.3467
    lng: -82.10761
  phone: (440) 610-6855
  external_ids:
    usda_master: Cycle 05_OH_SFSP_0074
  sources:
  - usda/summer-meal-sites
  verified:
    'on': '2026-07-19'
    method: api
- id: oh/elyria/elyria-treatment-services
  name: Elyria Treatment Services
  categories:
  - su-treatment
  address:
    street: 174 Midway Boulevard
    city: Elyria
    state: oh
    zip: '44035'
  place: '3925256'
  geo:
    lat: 41.39846
    lng: -82.10308
  phone: 440-581-0040
  website: https://pinnacletreatment.com/location/ohio/elyria/elyria-
  sources:
  - samhsa/findtreatment
  verified:
    'on': '2026-07-19'
    method: api
- id: oh/elyria/griswold-elyria-head-start-center
  name: Griswold - Elyria Head Start Center
  categories:
  - child-care
  address:
    street: 631 Griswold Rd
    city: Elyria
    state: oh
    zip: '44035'
  place: '3925256'
  geo:
    lat: 41.40043
    lng: -82.11727
  phone: 440-323-1737
  sources:
  - acf/head-start-locations
  verified:
    'on': '2026-07-19'
    method: api
- id: oh/elyria/horizon-education-center-elyria
  name: Horizon Education Center - Elyria
  categories:
  - child-care
  address:
    street: 10347 Dewhurst Rd
    city: Elyria
    state: oh
    zip: '44035'
  place: '3925256'
  geo:
    lat: 41.33884
    lng: -82.06834
  phone: 440-322-3409
  sources:
  - acf/head-start-locations
  verified:
    'on': '2026-07-19'
    method: api
- id: oh/elyria/lchd-middle-ave
  name: LCHD-Middle Ave
  categories:
  - community-health-center
  address:
    street: 801 Middle Ave
    city: Elyria
    state: oh
    zip: '44035'
  place: '3925256'
  geo:
    lat: 41.35964
    lng: -82.10762
  phone: 440-240-1655
  external_ids:
    bphc: BPS-H80-032853
  sources:
  - hrsa/health-center-sites
  verified:
    'on': '2026-07-19'
    method: api
- id: oh/elyria/northeast-ohio-va-healthcare-system-lorain-cboc
  name: Northeast Ohio VA Healthcare System Lorain CBOC
  categories:
  - su-treatment
  - mh-treatment
  address:
    street: 5275 North Abbe Road
    city: Elyria
    state: oh
    zip: '44035'
  place: '3925256'
  geo:
    lat: 41.42139
    lng: -82.07639
  phone: 440-934-9158
  website: https://www.va.gov/northeast-ohio-health-care/locations/lorain-va-clinic/
  sources:
  - samhsa/findtreatment
  verified:
    'on': '2026-07-19'
    method: api
- id: oh/elyria/premier-care-of-ohio-llc-elyria
  name: Premier Care of Ohio LLC Elyria
  categories:
  - su-treatment
  address:
    street: 1508 West River Road North
    city: Elyria
    state: oh
    zip: '44035'
  place: '3925256'
  geo:
    lat: 41.3942
    lng: -82.10693
  phone: 440-647-8100
  website: https://www.communitymedicalservices.org
  sources:
  - samhsa/findtreatment
  verified:
    'on': '2026-07-19'
    method: api
- id: oh/elyria/psych-and-psych-services
  name: Psych and Psych Services
  categories:
  - su-treatment
  - mh-treatment
  address:
    street: 750 South Abbe Road
    city: Elyria
    state: oh
    zip: '44035'
  place: '3925256'
  geo:
    lat: 41.36129
    lng: -82.07771
  phone: 440-323-5121
  website: https://www.psychandpsych.com
  sources:
  - samhsa/findtreatment
  verified:
    'on': '2026-07-19'
    method: api
- id: oh/elyria/st-john-lutheran-church
  name: St. John Lutheran Church
  categories:
  - meal-program
  address:
    street: 1140 W River Rd N
    city: Elyria
    state: oh
    zip: '44035'
  description: Free summer meals for kids and teens (2026 season) — sponsored by Elyria City SD.
  place: '3925256'
  geo:
    lat: 41.38794
    lng: -82.10447
  phone: (440) 541-9021
  external_ids:
    usda_master: Cycle 04_OH_SFSP_0416
  sources:
  - usda/summer-meal-sites
  verified:
    'on': '2026-07-19'
    method: api
- id: oh/elyria/st-vincent-de-paul
  name: St. Vincent De Paul
  categories:
  - meal-program
  address:
    street: 41295 N Ridge Rd
    city: Elyria
    state: oh
    zip: '44035'
  description: Free summer meals for kids and teens (2026 season) — sponsored by Elyria City SD.
  place: '3925256'
  geo:
    lat: 41.41866
    lng: -82.12112
  phone: (440) 328-7145
  external_ids:
    usda_master: Cycle 04_OH_SFSP_0025
  sources:
  - usda/summer-meal-sites
  verified:
    'on': '2026-07-19'
    method: api
- id: oh/elyria/uh-elyria-medical-center
  name: Uh Elyria Medical Center
  categories:
  - meal-program
  address:
    street: 630 E River St
    city: Elyria
    state: oh
    zip: '44035'
  description: Free summer meals for kids and teens (2026 season) — sponsored by University Hospitals
    Cleveland Medical Center.
  place: '3925256'
  geo:
    lat: 41.36711
    lng: -82.09762
  phone: (440) 329-7500
  external_ids:
    usda_master: Cycle 04_OH_SFSP_0463
  sources:
  - usda/summer-meal-sites
  verified:
    'on': '2026-07-19'
    method: api
- id: oh/elyria/westway-garden
  name: Westway Garden
  categories:
  - meal-program
  address:
    street: 731 Infirmary Rd.
    city: Elyria
    state: oh
    zip: '44035'
  description: Free summer meals for kids and teens (2026 season) — sponsored by OUR F.A.M.I.L.Y..
  place: '3925256'
  geo:
    lat: 41.35579
    lng: -82.11905
  phone: (440) 322-4881
  external_ids:
    usda_master: Cycle 05_OH_SFSP_0109
  sources:
  - usda/summer-meal-sites
  verified:
    'on': '2026-07-19'
    method: api
- id: oh/elyria/wilkes-villa-public-housing
  name: Wilkes Villa Public Housing
  categories:
  - community-health-center
  address:
    street: 105 Louden Ct
    city: Elyria
    state: oh
    zip: '44035'
  place: '3925256'
  geo:
    lat: 41.3447
    lng: -82.10038
  phone: 440-240-1655
  external_ids:
    bphc: BPS-H80-014472
  sources:
  - hrsa/health-center-sites
  verified:
    'on': '2026-07-19'
    method: api
