- id: oh/fremont/angie-s-angels-daycare
  name: Angie's Angels Daycare
  categories:
  - child-care
  address: {street: 1517 E State St, city: Fremont, state: oh, zip: '43420'}
  description: Head Start early childhood program — 18 funded slots; operated by Great Lakes Community
    Action Partnership.
  place: '3928826'
  geo: {lat: 41.34096, lng: -83.09179}
  phone: 567-201-2374
  sources:
  - acf/head-start-locations
  verified: {'on': '2026-07-19', method: api}
- id: oh/fremont/angies-angels-daycare
  name: Angies Angels DayCare
  categories:
  - child-care
  address: {street: 1517 E State St, city: Fremont, state: oh, zip: '43420'}
  description: Head Start early childhood program — 16 funded slots; operated by Great Lakes Community
    Action Partnership.
  place: '3928826'
  geo: {lat: 41.34096, lng: -83.09179}
  phone: 567-201-2374
  sources:
  - acf/head-start-locations
  verified: {'on': '2026-07-19', method: api}
- id: oh/fremont/bridge-of-hope-lift-food-pantry
  name: Bridge Of Hope-Lift Food Pantry
  org: oh/toledo-northwestern-ohio-food-bank
  categories:
  - food-pantry
  address: {street: 1441 Fangboner Road, city: FREMONT, state: oh, zip: '43420'}
  place: '3928826'
  geo: {lat: 41.3627, lng: -83.12089}
  phone: 419-332-1558
  website: http://www.liftchurches.org/bridge-of-hope.html
  external_ids: {oh-toledo-northwestern-ohio-food-bank: '52206989'}
  sources:
  - foodbank/oh-toledo-northwestern-ohio-food-bank
  verified: {'on': '2026-07-20', method: api}
- id: oh/fremont/community-health-services-east
  name: Community Health Services - East
  categories:
  - community-health-center
  cost: sliding-scale
  address: {street: 1220 E State St, city: Fremont, state: oh, zip: '43420'}
  place: '3928826'
  geo: {lat: 41.34288, lng: -83.09585}
  phone: 419-355-8186
  website: https://www.chsohio.org
  external_ids: {bphc: BPS-H80-001078}
  sources:
  - hrsa/health-center-sites
  verified: {'on': '2026-07-19', method: api}
- id: oh/fremont/community-health-services-main-site
  name: Community Health Services - Main Site
  categories:
  - community-health-center
  cost: sliding-scale
  address: {street: 2221 Hayes Ave, city: Fremont, state: oh, zip: '43420'}
  place: '3928826'
  geo: {lat: 41.34045, lng: -83.14314}
  phone: 419-334-8943
  website: https://www.chsohio.com
  external_ids: {bphc: BPS-H80-019674}
  sources:
  - hrsa/health-center-sites
  verified: {'on': '2026-07-19', method: api}
- id: oh/fremont/community-health-services-west
  name: Community Health Services - West
  categories:
  - community-health-center
  cost: sliding-scale
  address: {street: 2276 W State St, city: Fremont, state: oh, zip: '43420'}
  place: '3928826'
  geo: {lat: 41.35996, lng: -83.14323}
  phone: 419-334-9137
  website: https://www.chsohio.org
  external_ids: {bphc: BPS-H80-002478}
  sources:
  - hrsa/health-center-sites
  verified: {'on': '2026-07-19', method: api}
- id: oh/fremont/family-worship-center
  name: Family Worship Center
  org: oh/toledo-northwestern-ohio-food-bank
  categories:
  - food-pantry
  address: {street: 120 E. State Street, city: FREMONT, state: oh, zip: '43420'}
  place: '3928826'
  geo: {lat: 41.34686, lng: -83.11039}
  phone: 419-334-8353
  external_ids: {oh-toledo-northwestern-ohio-food-bank: '52207010'}
  sources:
  - foodbank/oh-toledo-northwestern-ohio-food-bank
  verified: {'on': '2026-07-20', method: api}
- id: oh/fremont/firelands-counseling-recovery-services
  name: Firelands Counseling/Recovery Services
  categories:
  - su-treatment
  - mh-treatment
  address: {street: 675 Bartson Road, city: Fremont, state: oh, zip: '43420'}
  place: '3928826'
  geo: {lat: 41.33909, lng: -83.15242}
  phone: 419-332-5524
  website: https://www.firelands.com
  services:
  - Outpatient
  - Partial hospitalization/day treatment
  eligibility: Serves children/adolescents, young adults, adults, seniors.
  cost: varies
  sources:
  - samhsa/findtreatment
  verified: {'on': '2026-07-19', method: api}
- id: oh/fremont/fremont-baptist-temple
  name: Fremont Baptist Temple
  org: oh/toledo-northwestern-ohio-food-bank
  categories:
  - food-pantry
  address: {street: 1150 South County Road 198, city: FREMONT, state: oh, zip: '43420'}
  place: '3928826'
  geo: {lat: 41.33059, lng: -83.06972}
  phone: 419-332-7623
  external_ids: {oh-toledo-northwestern-ohio-food-bank: '52207016'}
  sources:
  - foodbank/oh-toledo-northwestern-ohio-food-bank
  verified: {'on': '2026-07-20', method: api}
- id: oh/fremont/glcap-fremont-mshs
  name: GLCAP Fremont MSHS
  categories:
  - child-care
  address: {street: 1499 N River Rd, city: Fremont, state: oh, zip: '43420'}
  description: Head Start early childhood program — 46 funded slots; operated by Great Lakes Community
    Action Partnership.
  place: '3928826'
  geo: {lat: 41.36574, lng: -83.08356}
  phone: 567-202-1675
  sources:
  - acf/head-start-locations
  verified: {'on': '2026-07-19', method: api}
- id: oh/fremont/glcap-stricker-family-development-center
  name: GLCAP Stricker Family Development Center
  categories:
  - child-care
  address: {street: 765 S Buchanan St, city: Fremont, state: oh, zip: '43420'}
  description: Head Start early childhood program — 16 funded slots; operated by Great Lakes Community
    Action Partnership.
  place: '3928826'
  geo: {lat: 41.33653, lng: -83.10321}
  phone: 419-334-8511
  sources:
  - acf/head-start-locations
  verified: {'on': '2026-07-19', method: api}
- id: oh/fremont/grab-and-go-fremont-ross-high-school
  name: Grab And Go Fremont Ross High School
  categories:
  - meal-program
  address: {street: 1100 North St, city: Fremont, state: oh, zip: '43420'}
  description: Free summer meals for kids and teens (2026 season) — sponsored by Fremont City SD.
  place: '3928826'
  geo: {lat: 41.36137, lng: -83.12402}
  phone: (419) 334-5440
  external_ids: {usda_master: Cycle 04_OH_SFSP_0258}
  sources:
  - usda/summer-meal-sites
  verified: {'on': '2026-07-19', method: api}
- id: oh/fremont/great-lakes-community-action-partnership
  name: Great Lakes Community Action Partnership
  categories:
  - utility-assistance
  description: LIHEAP intake office serving Ottawa, Sandusky, Seneca, Wood Counties
  address: {street: 127 S. Front St. (P. O. Box 590), city: Fremont, state: oh, zip: '43420'}
  place: '3928826'
  phone: 419-273-4212
  website: https://www.glcap.org/programs/utility-payment-assistance/
  sources:
  - acf/liheap-clearinghouse
  verified: {'on': '2026-07-19', method: scrape}
  geo: {lat: 41.34618, lng: -83.11341}
- id: oh/fremont/home-based
  name: Home-Based
  categories:
  - child-care
  address: {street: 127 S Front St, city: Fremont, state: oh, zip: '43420'}
  description: Head Start early childhood program — 47 funded slots; operated by Great Lakes Community
    Action Partnership.
  place: '3928826'
  geo: {lat: 41.3456, lng: -83.11325}
  phone: 419-334-8911
  sources:
  - acf/head-start-locations
  verified: {'on': '2026-07-19', method: api}
- id: oh/fremont/lutheran-social-services-fremont-office
  name: Lutheran Social Services Fremont Office
  categories:
  - su-treatment
  - mh-treatment
  address: {street: 512 East State Street, city: Fremont, state: oh, zip: '43420'}
  place: '3928826'
  geo: {lat: 41.34553, lng: -83.10518}
  phone: 419-422-7917
  website: https://www.lssnwo.org/
  services:
  - Outpatient
  - Criminal justice (other than DUI/DWI)/Forensic clients
  eligibility: Serves children/adolescents, young adults, adults, seniors.
  cost: sliding-scale
  sources:
  - samhsa/findtreatment
  verified: {'on': '2026-07-19', method: api}
- id: oh/fremont/pontifex-disciples-in-action
  name: PONTIFEX - DISCIPLES IN ACTION
  org: oh/toledo-northwestern-ohio-food-bank
  categories:
  - food-pantry
  place: '3928826'
  geo: {lat: 41.34824, lng: -83.11487}
  phone: 419-333-9667
  website: https://pontifexfremont.com/
  external_ids: {oh-toledo-northwestern-ohio-food-bank: '65799335'}
  sources:
  - foodbank/oh-toledo-northwestern-ohio-food-bank
  verified: {'on': '2026-07-20', method: api}
- id: oh/fremont/sandusky-county-food-pantry
  name: Sandusky County Food Pantry
  org: oh/toledo-northwestern-ohio-food-bank
  categories:
  - food-pantry
  address: {street: 129 Bidwell Ave., city: FREMONT, state: oh, zip: '43420'}
  place: '3928826'
  geo: {lat: 41.34528, lng: -83.11239}
  phone: 419-334-8158
  external_ids: {oh-toledo-northwestern-ohio-food-bank: '52207065'}
  sources:
  - foodbank/oh-toledo-northwestern-ohio-food-bank
  verified: {'on': '2026-07-20', method: api}
- id: oh/fremont/sandusky-metropolitian-housing-authority
  name: Sandusky Metropolitian Housing Authority
  categories:
  - housing-assistance
  address: {street: 1358 Mosser Dr, city: Fremont, state: oh, zip: '43420'}
  description: Public housing and Housing Choice Voucher agency
  place: '3928826'
  geo: {lat: 41.33702, lng: -83.13021}
  phone: 419-334-4426
  sources:
  - hud/resource-locator
  verified: {'on': '2026-07-19', method: api}
- id: oh/fremont/share-and-care-little-free-food-pantry
  name: Share and Care Little Free Food Pantry
  categories:
  - food-pantry
  place: '3928826'
  geo: {lat: 41.34542, lng: -83.1122}
  website: https://mapping.littlefreepantry.org/pantry/2125
  external_ids: {lfp: '2125'}
  sources:
  - littlefreepantry/map
  verified: {'on': '2026-07-19', method: scrape}
- id: oh/fremont/stricker-family-development-center
  name: Stricker Family Development Center
  categories:
  - child-care
  address: {street: 765 S Buchanan St, city: Fremont, state: oh, zip: '43420'}
  description: Head Start early childhood program — 113 funded slots; operated by Great Lakes Community
    Action Partnership.
  place: '3928826'
  geo: {lat: 41.33661, lng: -83.10378}
  phone: 419-334-8511
  sources:
  - acf/head-start-locations
  verified: {'on': '2026-07-19', method: api}
