- id: oh/fremont/angie-s-angels-daycare
  name: Angie's Angels Daycare
  categories:
  - child-care
  address:
    street: 1517 E State St
    city: Fremont
    state: oh
    zip: '43420'
  place: '3928826'
  geo:
    lat: 41.34096
    lng: -83.09179
  phone: 567-201-2374
  sources:
  - acf/head-start-locations
  verified:
    'on': '2026-07-19'
    method: api
- id: oh/fremont/angies-angels-daycare
  name: Angies Angels DayCare
  categories:
  - child-care
  address:
    street: 1517 E State St
    city: Fremont
    state: oh
    zip: '43420'
  place: '3928826'
  geo:
    lat: 41.34096
    lng: -83.09179
  phone: 567-201-2374
  sources:
  - acf/head-start-locations
  verified:
    'on': '2026-07-19'
    method: api
- id: oh/fremont/community-health-services-east
  name: Community Health Services - East
  categories:
  - community-health-center
  address:
    street: 1220 E State St
    city: Fremont
    state: oh
    zip: '43420'
  place: '3928826'
  geo:
    lat: 41.34288
    lng: -83.09585
  phone: 419-355-8186
  website: https://www.chsohio.org
  external_ids:
    bphc: BPS-H80-001078
  sources:
  - hrsa/health-center-sites
  verified:
    'on': '2026-07-19'
    method: api
- id: oh/fremont/community-health-services-main-site
  name: Community Health Services - Main Site
  categories:
  - community-health-center
  address:
    street: 2221 Hayes Ave
    city: Fremont
    state: oh
    zip: '43420'
  place: '3928826'
  geo:
    lat: 41.34045
    lng: -83.14314
  phone: 419-334-8943
  website: https://www.chsohio.com
  external_ids:
    bphc: BPS-H80-019674
  sources:
  - hrsa/health-center-sites
  verified:
    'on': '2026-07-19'
    method: api
- id: oh/fremont/community-health-services-west
  name: Community Health Services - West
  categories:
  - community-health-center
  address:
    street: 2276 W State St
    city: Fremont
    state: oh
    zip: '43420'
  place: '3928826'
  geo:
    lat: 41.35996
    lng: -83.14323
  phone: 419-334-9137
  website: https://www.chsohio.org
  external_ids:
    bphc: BPS-H80-002478
  sources:
  - hrsa/health-center-sites
  verified:
    'on': '2026-07-19'
    method: api
- id: oh/fremont/firelands-counseling-recovery-services
  name: Firelands Counseling/Recovery Services
  categories:
  - su-treatment
  - mh-treatment
  address:
    street: 675 Bartson Road
    city: Fremont
    state: oh
    zip: '43420'
  place: '3928826'
  geo:
    lat: 41.33909
    lng: -83.15242
  phone: 419-332-5524
  website: https://www.firelands.com
  sources:
  - samhsa/findtreatment
  verified:
    'on': '2026-07-19'
    method: api
- id: oh/fremont/glcap-fremont-mshs
  name: GLCAP Fremont MSHS
  categories:
  - child-care
  address:
    street: 1499 N River Rd
    city: Fremont
    state: oh
    zip: '43420'
  place: '3928826'
  geo:
    lat: 41.36574
    lng: -83.08356
  phone: 567-202-1675
  sources:
  - acf/head-start-locations
  verified:
    'on': '2026-07-19'
    method: api
- id: oh/fremont/glcap-stricker-family-development-center
  name: GLCAP Stricker Family Development Center
  categories:
  - child-care
  address:
    street: 765 S Buchanan St
    city: Fremont
    state: oh
    zip: '43420'
  place: '3928826'
  geo:
    lat: 41.33653
    lng: -83.10321
  phone: 419-334-8511
  sources:
  - acf/head-start-locations
  verified:
    'on': '2026-07-19'
    method: api
- id: oh/fremont/grab-and-go-fremont-ross-high-school
  name: Grab And Go Fremont Ross High School
  categories:
  - meal-program
  address: {street: 1100 North St, city: Fremont, state: oh, zip: '43420'}
  description: Free summer meals for kids and teens (2026 season) — sponsored by Fremont City SD.
  place: '3928826'
  geo: {lat: 41.36137, lng: -83.12402}
  phone: (419) 334-5440
  external_ids: {usda_master: Cycle 04_OH_SFSP_0258}
  sources:
  - usda/summer-meal-sites
  verified: {'on': '2026-07-19', method: api}
- id: oh/fremont/home-based
  name: Home-Based
  categories:
  - child-care
  address:
    street: 127 S Front St
    city: Fremont
    state: oh
    zip: '43420'
  place: '3928826'
  geo:
    lat: 41.3456
    lng: -83.11325
  phone: 419-334-8911
  sources:
  - acf/head-start-locations
  verified:
    'on': '2026-07-19'
    method: api
- id: oh/fremont/lutheran-social-services-fremont-office
  name: Lutheran Social Services Fremont Office
  categories:
  - su-treatment
  - mh-treatment
  address:
    street: 512 East State Street
    city: Fremont
    state: oh
    zip: '43420'
  place: '3928826'
  geo:
    lat: 41.34553
    lng: -83.10518
  phone: 419-422-7917
  website: https://www.lssnwo.org/
  sources:
  - samhsa/findtreatment
  verified:
    'on': '2026-07-19'
    method: api
- id: oh/fremont/sandusky-metropolitian-housing-authority
  name: Sandusky Metropolitian Housing Authority
  categories:
  - housing-assistance
  address:
    street: 1358 Mosser Dr
    city: Fremont
    state: oh
    zip: '43420'
  description: Public housing and Housing Choice Voucher agency
  place: '3928826'
  geo:
    lat: 41.33702
    lng: -83.13021
  phone: 419-334-4426
  sources:
  - hud/resource-locator
  verified:
    'on': '2026-07-19'
    method: api
- id: oh/fremont/share-and-care-little-free-food-pantry
  name: Share and Care Little Free Food Pantry
  categories:
  - food-pantry
  place: '3928826'
  geo:
    lat: 41.34542
    lng: -83.1122
  external_ids:
    lfp: '2125'
  sources:
  - littlefreepantry/map
  verified:
    'on': '2026-07-19'
    method: scrape
- id: oh/fremont/stricker-family-development-center
  name: Stricker Family Development Center
  categories:
  - child-care
  address:
    street: 765 S Buchanan St
    city: Fremont
    state: oh
    zip: '43420'
  place: '3928826'
  geo:
    lat: 41.33661
    lng: -83.10378
  phone: 419-334-8511
  sources:
  - acf/head-start-locations
  verified:
    'on': '2026-07-19'
    method: api
