- id: oh/kenton/coleman-professional-services
  name: Coleman Professional Services
  categories:
  - su-treatment
  - mh-treatment
  address:
    street: 775 East Eliza Street
    city: Kenton
    state: oh
    zip: '43326'
  place: '3939886'
  geo:
    lat: 40.65488
    lng: -83.59821
  phone: 419-675-2243
  website: https://www.colemanservices.org
  sources:
  - samhsa/findtreatment
  verified:
    'on': '2026-07-19'
    method: api
- id: oh/kenton/family-resource-center-of-northwest-ohio-inc
  name: Family Resource Center of Northwest Ohio Inc
  categories:
  - su-treatment
  - mh-treatment
  address:
    street: 775 Eliza Street
    city: Kenton
    state: oh
    zip: '43326'
  place: '3939886'
  geo:
    lat: 40.65492
    lng: -83.59821
  phone: 419-679-1219
  website: https://www.frcohio.com
  sources:
  - samhsa/findtreatment
  verified:
    'on': '2026-07-19'
    method: api
- id: oh/kenton/kenton-center-new
  name: Kenton Center (New)
  categories:
  - child-care
  address:
    street: 10702 US Highway 68
    city: Kenton
    state: oh
    zip: '43326'
  place: '3939886'
  geo:
    lat: 40.66435
    lng: -83.60962
  phone: 419-674-4433
  sources:
  - acf/head-start-locations
  verified:
    'on': '2026-07-19'
    method: api
- id: oh/kenton/kenton-community-health-center
  name: Kenton Community Health Center
  categories:
  - community-health-center
  address:
    street: 111 W Espy St
    city: Kenton
    state: oh
    zip: '43326'
  place: '3939886'
  geo:
    lat: 40.64128
    lng: -83.60823
  phone: 419-679-5994
  website: https://www.hpwohio.org
  external_ids:
    bphc: BPS-H80-013631
  sources:
  - hrsa/health-center-sites
  verified:
    'on': '2026-07-19'
    method: api
- id: oh/kenton/wildcat-elementary-health-center
  name: Wildcat Elementary Health Center
  categories:
  - community-health-center
  address:
    street: 631 Wildcat Way
    city: Kenton
    state: oh
    zip: '43326'
  place: '3939886'
  geo:
    lat: 40.6632
    lng: -83.5994
  phone: 419-673-7248
  website: https://www.hpwohio.org
  external_ids:
    bphc: BPS-H80-041265
  sources:
  - hrsa/health-center-sites
  verified:
    'on': '2026-07-19'
    method: api
- id: oh/kenton/wildcat-health-center
  name: Wildcat Health Center
  categories:
  - community-health-center
  address:
    street: 751 Wildcat Way
    city: Kenton
    state: oh
    zip: '43326'
  place: '3939886'
  geo:
    lat: 40.6639
    lng: -83.59279
  phone: 419-673-1286
  website: https://www.hpwohio.org
  external_ids:
    bphc: BPS-H80-041266
  sources:
  - hrsa/health-center-sites
  verified:
    'on': '2026-07-19'
    method: api
