- id: oh/loveland/adams-recovery-center-dba-l-and-j-healthcare-llc
  name: Adams Recovery Center DBA L and J Healthcare LLC
  categories:
  - su-treatment
  address:
    street: 1569 State Route 28
    city: Loveland
    state: oh
    zip: '45140'
  place: '3945108'
  geo:
    lat: 39.21952
    lng: -84.19208
  phone: 513-575-0968
  website: https://www.adamsrecoverycenter.org
  sources:
  - samhsa/findtreatment
  verified:
    'on': '2026-07-19'
    method: api
- id: oh/loveland/fay-gardens
  name: Fay Gardens
  categories:
  - meal-program
  address: {street: 1480 Fay Road, city: Loveland, state: oh, zip: '45140'}
  description: Free summer meals for kids and teens (2026 season) — sponsored by Goshen Local SD.
  place: '3945108'
  geo: {lat: 39.22516, lng: -84.19941}
  phone: (513) 728-7991
  external_ids: {usda_master: Cycle 05_OH_SSO_0041}
  sources:
  - usda/summer-meal-sites
  verified: {'on': '2026-07-19', method: api}
- id: oh/loveland/green-acres
  name: Green Acres
  categories:
  - meal-program
  address: {street: 6074 Deerfield Road, city: Loveland, state: oh, zip: '45140'}
  description: Free summer meals for kids and teens (2026 season) — sponsored by Goshen Local SD.
  place: '3945108'
  geo: {lat: 39.20365, lng: -84.2076}
  phone: (513) 728-7991
  external_ids: {usda_master: Cycle 05_OH_SSO_0044}
  sources:
  - usda/summer-meal-sites
  verified: {'on': '2026-07-19', method: api}
- id: oh/loveland/healthsource-loveland
  name: HealthSource Loveland
  categories:
  - community-health-center
  address:
    street: 6535 Charles Snider Rd
    city: Loveland
    state: oh
    zip: '45140'
  place: '3945108'
  geo:
    lat: 39.21848
    lng: -84.19264
  phone: 513-575-1444
  website: https://www.healthsourceofohio.com
  external_ids:
    bphc: BPS-H80-013589
  sources:
  - hrsa/health-center-sites
  verified:
    'on': '2026-07-19'
    method: api
- id: oh/loveland/healthsource-of-ohio-inc
  name: HealthSource of Ohio, Inc.
  categories:
  - community-health-center
  address:
    street: 424 Wards Corner Rd STE 200
    city: Loveland
    state: oh
    zip: '45140'
  place: '3945108'
  geo:
    lat: 39.22195
    lng: -84.28451
  phone: 513-576-7700
  external_ids:
    bphc: BPS-H80-027599
  sources:
  - hrsa/health-center-sites
  verified:
    'on': '2026-07-19'
    method: api
- id: oh/loveland/healthsource-of-ohio-inc-pcr-lab
  name: HealthSource of Ohio, Inc. PCR Lab
  categories:
  - community-health-center
  address:
    street: 424 Wards Corner Rd, Suite 110
    city: Loveland
    state: oh
    zip: '45140'
  place: '3945108'
  geo:
    lat: 39.22272
    lng: -84.2849
  phone: 513-576-5024
  website: https://www.healthsourceofohio.org
  external_ids:
    bphc: BPS-H80-041661
  sources:
  - hrsa/health-center-sites
  verified:
    'on': '2026-07-19'
    method: api
- id: oh/loveland/healthsource-wards-corner
  name: HealthSource Wards Corner
  categories:
  - community-health-center
  address:
    street: 455 Wards Corner Rd
    city: Loveland
    state: oh
    zip: '45140'
  place: '3945108'
  geo:
    lat: 39.22133
    lng: -84.28376
  phone: 513-688-8580
  website: https://www.heatlhsourceofohio.com
  external_ids:
    bphc: BPS-H80-040124
  sources:
  - hrsa/health-center-sites
  verified:
    'on': '2026-07-19'
    method: api
- id: oh/loveland/symmes-elementary
  name: Symmes Elementary
  categories:
  - child-care
  address:
    street: 11820 Enyart Rd
    city: Loveland
    state: oh
    zip: '45140'
  place: '3945108'
  geo:
    lat: 39.2827
    lng: -84.30802
  phone: 513-686-1746
  sources:
  - acf/head-start-locations
  verified:
    'on': '2026-07-19'
    method: api
- id: oh/loveland/woodville-gardens
  name: Woodville Gardens
  categories:
  - meal-program
  address: {street: 182 Garden Drive, city: Loveland, state: oh, zip: '45140'}
  description: Free summer meals for kids and teens (2026 season) — sponsored by Goshen Local SD.
  place: '3945108'
  geo: {lat: 39.20458, lng: -84.19934}
  phone: (513) 728-7991
  external_ids: {usda_master: Cycle 05_OH_SSO_0049}
  sources:
  - usda/summer-meal-sites
  verified: {'on': '2026-07-19', method: api}
