- id: oh/mount-gilead/cen-grab-and-go-mt-gilead-public-library
  name: Cen - Grab And Go Mt Gilead Public Library
  categories:
  - meal-program
  address: {street: 41 E High St, city: Mount Gilead, state: oh, zip: '43338'}
  description: Free summer meals for kids and teens (2026 season) — sponsored by Children's Hunger Alliance.
  place: '3952738'
  geo: {lat: 40.54892, lng: -82.82677}
  phone: (419) 947-5866
  external_ids: {usda_master: Cycle 02_OH_SFSP_0037}
  sources:
  - usda/summer-meal-sites
  verified: {'on': '2026-07-19', method: api}
- id: oh/mount-gilead/cen-grab-and-go-perry-cook-memorial-public-libra
  name: Cen - (Grab And Go) Perry Cook Memorial Public Library
  categories:
  - meal-program
  address: {street: 7406 Co Rd 242, city: Mt. Gilead, state: oh, zip: '43338'}
  description: Free summer meals for kids and teens (2026 season) — sponsored by Children's Hunger Alliance.
  place: '3952738'
  geo: {lat: 40.62104, lng: -82.66365}
  phone: (419) 362-7181
  external_ids: {usda_master: Cycle 02_OH_SFSP_0014}
  sources:
  - usda/summer-meal-sites
  verified: {'on': '2026-07-19', method: api}
- id: oh/mount-gilead/morrow-family-health-center
  name: Morrow Family Health Center
  categories:
  - community-health-center
  address:
    street: 76 S Main St
    city: Mount Gilead
    state: oh
    zip: '43338'
  place: '3952738'
  geo:
    lat: 40.54703
    lng: -82.82862
  phone: 419-751-9010
  external_ids:
    bphc: BPS-H80-018752
  sources:
  - hrsa/health-center-sites
  verified:
    'on': '2026-07-19'
    method: api
- id: oh/mount-gilead/national-youth-advocate-program-inc
  name: National Youth Advocate Program Inc.
  categories:
  - su-treatment
  - mh-treatment
  address:
    street: 400 West High Street
    city: Mount Gilead
    state: oh
    zip: '43338'
  place: '3952738'
  geo:
    lat: 40.54906
    lng: -82.84252
  phone: 419-221-2821
  website: https://www.nyap.org/
  sources:
  - samhsa/findtreatment
  verified:
    'on': '2026-07-19'
    method: api
- id: oh/mount-gilead/ohcac-morrow-head-start-center
  name: OHCAC Morrow Head Start Center
  categories:
  - child-care
  address:
    street: 406 Bank St
    city: Mount Gilead
    state: oh
    zip: '43338'
  place: '3952738'
  geo:
    lat: 40.55284
    lng: -82.82175
  phone: 419-947-7045
  sources:
  - acf/head-start-locations
  verified:
    'on': '2026-07-19'
    method: api
- id: oh/mount-gilead/southeast-healthcare
  name: Southeast Healthcare
  categories:
  - su-treatment
  - mh-treatment
  address:
    street: 950 Meadow Avenue
    city: Mount Gilead
    state: oh
    zip: '43338'
  place: '3952738'
  geo:
    lat: 40.54733
    lng: -82.84812
  phone: 419-949-2000
  website: https://www.southeasthc.org
  sources:
  - samhsa/findtreatment
  verified:
    'on': '2026-07-19'
    method: api
- id: oh/mount-gilead/southeast-inc-mt-gilead-heatlh-center
  name: Southeast, Inc. - Mt. Gilead Heatlh Center
  categories:
  - community-health-center
  address:
    street: 950 Meadow Dr
    city: Mount Gilead
    state: oh
    zip: '43338'
  place: '3952738'
  geo:
    lat: 40.54731
    lng: -82.84808
  phone: 419-949-2000
  external_ids:
    bphc: BPS-H80-040737
  sources:
  - hrsa/health-center-sites
  verified:
    'on': '2026-07-19'
    method: api
- id: oh/mount-gilead/syntero-mount-gilead
  name: Syntero Mount Gilead
  categories:
  - su-treatment
  - mh-treatment
  address:
    street: 950 Meadow Drive
    city: Mount Gilead
    state: oh
    zip: '43338'
  place: '3952738'
  geo:
    lat: 40.54733
    lng: -82.84812
  phone: 419-949-4300
  website: https://www.Syntero.org
  sources:
  - samhsa/findtreatment
  verified:
    'on': '2026-07-19'
    method: api
