- id: oh/nelsonville/hopewell-health-centers-nelsonville
  name: Hopewell Health Centers - Nelsonville
  categories:
  - community-health-center
  address:
    street: '1950 Mount Saint Marys Dr # 39S'
    city: Nelsonville
    state: oh
    zip: '45764'
  place: '3953886'
  geo:
    lat: 39.46315
    lng: -82.24306
  phone: 740-797-2352
  external_ids:
    bphc: BPS-H80-027580
  sources:
  - hrsa/health-center-sites
  verified:
    'on': '2026-07-19'
    method: api
- id: oh/nelsonville/hopewell-health-centers-nelsonville-reach
  name: Hopewell Health Centers - Nelsonville REACH
  categories:
  - community-health-center
  address:
    street: 14455 Kimberley Rd
    city: Nelsonville
    state: oh
    zip: '45764'
  place: '3953886'
  geo:
    lat: 39.41701
    lng: -82.22891
  phone: 740-753-9656
  external_ids:
    bphc: BPS-H80-021022
  sources:
  - hrsa/health-center-sites
  verified:
    'on': '2026-07-19'
    method: api
- id: oh/nelsonville/nelsonville-head-start
  name: Nelsonville Head Start
  categories:
  - child-care
  address:
    street: 40 Saint Charles St
    city: Nelsonville
    state: oh
    zip: '45764'
  place: '3953886'
  geo:
    lat: 39.45796
    lng: -82.22623
  phone: 740-753-9404
  sources:
  - acf/head-start-locations
  verified:
    'on': '2026-07-19'
    method: api
- id: oh/nelsonville/nelsonville-school-based-health-clinic
  name: Nelsonville School-Based Health Clinic
  categories:
  - community-health-center
  address:
    street: 4 Buckeye Dr
    city: Nelsonville
    state: oh
    zip: '45764'
  place: '3953886'
  geo:
    lat: 39.4644
    lng: -82.18798
  phone: 740-797-2352
  website: https://www.hopewellhealth.org
  external_ids:
    bphc: BPS-H80-034130
  sources:
  - hrsa/health-center-sites
  verified:
    'on': '2026-07-19'
    method: api
- id: oh/nelsonville/tri-county-career-center-school-behavioral-healt
  name: Tri-County Career Center School Behavioral Health Clinic
  categories:
  - community-health-center
  address:
    street: 15676 State Route 691
    city: Nelsonville
    state: oh
    zip: '45764'
  place: '3953886'
  geo:
    lat: 39.43357
    lng: -82.21239
  phone: 740-517-5886
  website: https://www.hopewellhealth.org
  external_ids:
    bphc: BPS-H80-039915
  sources:
  - hrsa/health-center-sites
  verified:
    'on': '2026-07-19'
    method: api
