- id: oh/newark/behavioral-healthcare-partners-of-central-ohio-i
  name: Behavioral Healthcare Partners of Central Ohio Inc
  categories:
  - su-treatment
  - mh-treatment
  address:
    street: 65 Messimer Drive
    city: Newark
    state: oh
    zip: '43055'
  place: '3954040'
  geo:
    lat: 40.04415
    lng: -82.45387
  phone: 740-522-8477
  website: https://www.bhcpartners.org
  sources:
  - samhsa/findtreatment
  verified:
    'on': '2026-07-19'
    method: api
- id: oh/newark/brightview-health
  name: BrightView Health
  categories:
  - su-treatment
  address:
    street: 1445 West Main Street
    city: Newark
    state: oh
    zip: '43055'
  place: '3954040'
  geo:
    lat: 40.04534
    lng: -82.4556
  phone: 844-707-7775
  website: https://www.brightviewhealth.com
  sources:
  - samhsa/findtreatment
  verified:
    'on': '2026-07-19'
    method: api
- id: oh/newark/brightview-health-2
  name: BrightView Health
  categories:
  - su-treatment
  address:
    street: 974 North 21st Street
    city: Newark
    state: oh
    zip: '43055'
  place: '3954040'
  geo:
    lat: 40.07519
    lng: -82.42796
  phone: 844-707-7775
  website: https://www.brightviewhealth.com/
  sources:
  - samhsa/findtreatment
  verified:
    'on': '2026-07-19'
    method: api
- id: oh/newark/care-now-clinic
  name: Care Now Clinic
  categories:
  - su-treatment
  - mh-treatment
  address:
    street: 77 Granville Street
    city: Newark
    state: oh
    zip: '43055'
  place: '3954040'
  geo:
    lat: 40.0602
    lng: -82.41024
  phone: 740-963-3590
  website: https://www.bhcpartners.org
  sources:
  - samhsa/findtreatment
  verified:
    'on': '2026-07-19'
    method: api
- id: oh/newark/central-office
  name: Central Office
  categories:
  - child-care
  address:
    street: 159 Wilson St
    street2: Bldg 2
    city: Newark
    state: oh
    zip: '43055'
  place: '3954040'
  geo:
    lat: 40.05332
    lng: -82.41049
  phone: 740-349-8606
  sources:
  - acf/head-start-locations
  verified:
    'on': '2026-07-19'
    method: api
- id: oh/newark/courage-house
  name: Courage House
  categories:
  - su-treatment
  address:
    city: Newark
    state: oh
    zip: '43055'
  place: '3954040'
  phone: 740-345-5074
  website: https://www.bhcpartners.org
  sources:
  - samhsa/findtreatment
  verified:
    'on': '2026-07-19'
    method: api
- id: oh/newark/historic-hudson-care-cubby
  name: Historic Hudson Care Cubby
  categories:
  - food-pantry
  place: '3954040'
  geo:
    lat: 40.07289
    lng: -82.4095
  external_ids:
    lfp: '5337'
  sources:
  - littlefreepantry/map
  verified:
    'on': '2026-07-19'
    method: scrape
- id: oh/newark/licking-county-alc-prevention-program-outpatient
  name: Licking County Alc Prevention Program Outpatient Services
  categories:
  - su-treatment
  - mh-treatment
  address:
    street: 62 East Stevens Street
    city: Newark
    state: oh
    zip: '43055'
  place: '3954040'
  geo:
    lat: 40.07572
    lng: -82.40843
  phone: 740-366-7303
  website: https://www.lapp.cc
  sources:
  - samhsa/findtreatment
  verified:
    'on': '2026-07-19'
    method: api
- id: oh/newark/licking-metropolitan-housing-authority
  name: Licking Metropolitan Housing Authority
  categories:
  - housing-assistance
  address: {street: 144 W Main St, city: Newark, state: oh, zip: '43055'}
  description: Public housing and Housing Choice Voucher agency
  place: '3954040'
  geo: {lat: 40.05639, lng: -82.40832}
  phone: 740-349-8069
  sources:
  - hud/resource-locator
  verified: {'on': '2026-07-19', method: api}
- id: oh/newark/little-pantry-on-11th
  name: Little Pantry on 11th
  categories:
  - food-pantry
  place: '3954040'
  geo:
    lat: 40.06142
    lng: -82.41697
  external_ids:
    lfp: '2943'
  sources:
  - littlefreepantry/map
  verified:
    'on': '2026-07-19'
    method: scrape
- id: oh/newark/lower-lights-health-newark
  name: Lower Lights Health Newark
  categories:
  - community-health-center
  address:
    street: 69 S Terrace Ave
    city: Newark
    state: oh
    zip: '43055'
  place: '3954040'
  geo:
    lat: 40.04342
    lng: -82.46028
  phone: 614-274-1455
  website: https://lowerlightshealth.org
  external_ids:
    bphc: BPS-H80-036324
  sources:
  - hrsa/health-center-sites
  verified:
    'on': '2026-07-19'
    method: api
- id: oh/newark/mary-jo-ferrell
  name: Mary Jo Ferrell
  categories:
  - food-pantry
  place: '3954040'
  geo:
    lat: 40.0472
    lng: -82.42532
  external_ids:
    lfp: '2938'
  sources:
  - littlefreepantry/map
  verified:
    'on': '2026-07-19'
    method: scrape
- id: oh/newark/mid-ohio-psychological-services
  name: Mid Ohio Psychological Services
  categories:
  - su-treatment
  - mh-treatment
  address:
    street: 68 West Church Street
    city: Newark
    state: oh
    zip: '43055'
  place: '3954040'
  geo:
    lat: 40.05856
    lng: -82.40628
  phone: 740-687-0042
  website: https://www.mopsohio.com
  sources:
  - samhsa/findtreatment
  verified:
    'on': '2026-07-19'
    method: api
- id: oh/newark/national-youth-advocate-program-inc
  name: National Youth Advocate Program Inc
  categories:
  - su-treatment
  - mh-treatment
  address:
    street: 59 Grant Street
    city: Newark
    state: oh
    zip: '43055'
  place: '3954040'
  geo:
    lat: 40.04696
    lng: -82.42373
  phone: 740-349-7511
  website: https://www.nyap.org
  sources:
  - samhsa/findtreatment
  verified:
    'on': '2026-07-19'
    method: api
- id: oh/newark/newark-center
  name: Newark Center
  categories:
  - child-care
  address:
    street: 986 E Main St
    city: Newark
    state: oh
    zip: '43055'
  place: '3954040'
  geo:
    lat: 40.06091
    lng: -82.36435
  phone: 740-345-6415
  sources:
  - acf/head-start-locations
  verified:
    'on': '2026-07-19'
    method: api
- id: oh/newark/spencer-house
  name: Spencer House
  categories:
  - su-treatment
  address:
    city: Newark
    state: oh
    zip: '43055'
  place: '3954040'
  phone: 740-345-7030
  website: https://www.bhcpartners.org
  sources:
  - samhsa/findtreatment
  verified:
    'on': '2026-07-19'
    method: api
- id: oh/newark/st-john-s-little-free-pantry
  name: St. John's Little Free Pantry
  categories:
  - food-pantry
  place: '3954040'
  geo:
    lat: 40.04449
    lng: -82.40424
  external_ids:
    lfp: '4271'
  sources:
  - littlefreepantry/map
  verified:
    'on': '2026-07-19'
    method: scrape
- id: oh/newark/village-network-newark
  name: Village Network Newark
  categories:
  - su-treatment
  - mh-treatment
  address:
    street: 14 Sandalwood Drive
    city: Newark
    state: oh
    zip: '43055'
  place: '3954040'
  geo:
    lat: 40.03909
    lng: -82.48338
  phone: 740-788-8850
  website: https://www.thevillagenetwork.org
  sources:
  - samhsa/findtreatment
  verified:
    'on': '2026-07-19'
    method: api
- id: oh/newark/woodlands-serving-central-ohio-inc
  name: Woodlands Serving Central Ohio Inc
  categories:
  - mh-treatment
  address:
    street: 73 North 6th Street
    city: Newark
    state: oh
    zip: '43055'
  place: '3954040'
  geo:
    lat: 40.05828
    lng: -82.40954
  phone: 740-349-7066 x240
  website: https://www.thewoodland.org
  sources:
  - samhsa/findtreatment
  verified:
    'on': '2026-07-19'
    method: api
