- id: oh/painesville/casement-pantry
  name: Casement Pantry
  categories:
  - food-pantry
  place: '3959416'
  geo:
    lat: 41.72834
    lng: -81.23067
  external_ids:
    lfp: '4863'
  sources:
  - littlefreepantry/map
  verified:
    'on': '2026-07-19'
    method: scrape
- id: oh/painesville/crossroads-health
  name: Crossroads Health
  categories:
  - child-care
  address:
    street: 1083 Mentor Ave
    city: Painesville
    state: oh
    zip: '44077'
  place: '3959416'
  geo:
    lat: 41.70804
    lng: -81.26549
  phone: 440-358-7370
  sources:
  - acf/head-start-locations
  verified:
    'on': '2026-07-19'
    method: api
- id: oh/painesville/lake-geauga-recovery-centers-inc-mens-residentia
  name: Lake Geauga Recovery Centers Inc Mens Residential Treatment Concord
  categories:
  - su-treatment
  address:
    street: 760 Oak Street
    city: Painesville
    state: oh
    zip: '44077'
  place: '3959416'
  geo:
    lat: 41.73769
    lng: -81.24032
  phone: 440-255-0678
  website: https://www.lgrc.us
  sources:
  - samhsa/findtreatment
  verified:
    'on': '2026-07-19'
    method: api
- id: oh/painesville/lake-geauga-recovery-centers-inc-mens-residentia-2
  name: Lake Geauga Recovery Centers Inc Mens Residential Treatment Lake House
  categories:
  - su-treatment
  address:
    street: 796 Oak Street
    city: Painesville
    state: oh
    zip: '44077'
  place: '3959416'
  geo:
    lat: 41.73787
    lng: -81.23916
  phone: 440-352-9607
  website: https://www.lgrc.us
  sources:
  - samhsa/findtreatment
  verified:
    'on': '2026-07-19'
    method: api
- id: oh/painesville/lake-geauga-recovery-centers-inc-womens-resident
  name: Lake Geauga Recovery Centers Inc Womens Residential Treatment Oak House
  categories:
  - su-treatment
  address:
    street: 800 Oak Street
    city: Painesville
    state: oh
    zip: '44077'
  place: '3959416'
  geo:
    lat: 41.73782
    lng: -81.23822
  phone: 440-205-2706
  website: https://www.lgrc.us
  sources:
  - samhsa/findtreatment
  verified:
    'on': '2026-07-19'
    method: api
- id: oh/painesville/lake-metropolitian-housing-authority
  name: Lake Metropolitian Housing Authority
  categories:
  - housing-assistance
  address: {street: 189 1st St, city: Painesville, state: oh, zip: '44077'}
  description: Public housing and Housing Choice Voucher agency
  place: '3959416'
  geo: {lat: 41.72271, lng: -81.25248}
  phone: 440-354-3347
  sources:
  - hud/resource-locator
  verified: {'on': '2026-07-19', method: api}
- id: oh/painesville/little-annies-hope-train
  name: Little Annie’s Hope Train
  categories:
  - food-pantry
  place: '3959416'
  geo:
    lat: 41.72267
    lng: -81.25126
  external_ids:
    lfp: '1291'
  sources:
  - littlefreepantry/map
  verified:
    'on': '2026-07-19'
    method: scrape
- id: oh/painesville/morley-pantry
  name: Morley Pantry
  categories:
  - food-pantry
  place: '3959416'
  geo:
    lat: 41.72768
    lng: -81.24284
  external_ids:
    lfp: '4337'
  sources:
  - littlefreepantry/map
  verified:
    'on': '2026-07-19'
    method: scrape
- id: oh/painesville/painesville-center
  name: Painesville Center
  categories:
  - child-care
  address:
    street: 350 Cedarbrook Dr
    city: Painesville
    state: oh
    zip: '44077'
  place: '3959416'
  geo:
    lat: 41.71099
    lng: -81.24863
  phone: 440-392-5636
  sources:
  - acf/head-start-locations
  verified:
    'on': '2026-07-19'
    method: api
- id: oh/painesville/painesville-lions-club-cubs-pantry
  name: Painesville Lions Club Cubs Pantry
  categories:
  - food-pantry
  place: '3959416'
  geo:
    lat: 41.71039
    lng: -81.26195
  external_ids:
    lfp: '3700'
  sources:
  - littlefreepantry/map
  verified:
    'on': '2026-07-19'
    method: scrape
- id: oh/painesville/painesville-outpatient
  name: Painesville Outpatient
  categories:
  - su-treatment
  - mh-treatment
  address:
    street: 134 South Saint Clair
    city: Painesville
    state: oh
    zip: '44077'
  place: '3959416'
  geo:
    lat: 41.72332
    lng: -81.24111
  phone: 440-255-0678
  website: https://www.lgrc.us
  sources:
  - samhsa/findtreatment
  verified:
    'on': '2026-07-19'
    method: api
- id: oh/painesville/signature-health-central-fill-pharmacy-and-lab
  name: Signature Health Central Fill Pharmacy and Lab
  categories:
  - community-health-center
  address:
    street: 53 S Saint Clair St
    city: Painesville
    state: oh
    zip: '44077'
  place: '3959416'
  geo:
    lat: 41.72433
    lng: -81.2414
  phone: 440-578-8200
  external_ids:
    bphc: BPS-H80-032491
  sources:
  - hrsa/health-center-sites
  verified:
    'on': '2026-07-19'
    method: api
- id: oh/painesville/signature-health-inc
  name: Signature Health Inc
  categories:
  - su-treatment
  - mh-treatment
  address:
    street: 54 South State Street
    city: Painesville
    state: oh
    zip: '44077'
  place: '3959416'
  geo:
    lat: 41.7247
    lng: -81.2404
  phone: 440-853-1501
  website: https://www.signaturehealthinc.org
  sources:
  - samhsa/findtreatment
  verified:
    'on': '2026-07-19'
    method: api
- id: oh/painesville/signature-health-painesville-health-center
  name: Signature Health Painesville Health Center
  categories:
  - community-health-center
  address:
    street: 54 S State St
    city: Painesville
    state: oh
    zip: '44077'
  place: '3959416'
  geo:
    lat: 41.72473
    lng: -81.24066
  phone: 440-853-1505
  website: https://www.signaturehealthinc.org
  external_ids:
    bphc: BPS-H80-034082
  sources:
  - hrsa/health-center-sites
  verified:
    'on': '2026-07-19'
    method: api
