- id: oh/toledo/a-peace-of-mind-wellness
  name: A Peace of Mind Wellness
  categories:
  - su-treatment
  - mh-treatment
  address:
    street: 5734 Douglas Road
    city: Toledo
    state: oh
    zip: '43613'
  place: '3977000'
  geo:
    lat: 41.72022
    lng: -83.60226
  phone: 419-724-1500
  website: https://apeaceofmindwellness.com/
  sources:
  - samhsa/findtreatment
  verified:
    'on': '2026-07-19'
    method: api
- id: oh/toledo/a-rainbow-s-treasure
  name: A Rainbow's Treasure
  categories:
  - child-care
  address:
    street: 4725 Dorr St
    city: Toledo
    state: oh
    zip: '43615'
  place: '3977000'
  geo:
    lat: 41.65291
    lng: -83.65396
  phone: 567-312-8190
  sources:
  - acf/head-start-locations
  verified:
    'on': '2026-07-19'
    method: api
- id: oh/toledo/attain-behavioral-health-toledo
  name: Attain Behavioral Health Toledo
  categories:
  - su-treatment
  - mh-treatment
  address:
    street: 3231 Central Park West
    city: Toledo
    state: oh
    zip: '43617'
  place: '3977000'
  geo:
    lat: 41.67799
    lng: -83.70073
  phone: 844-316-7599
  website: https://www.attainbh.com
  sources:
  - samhsa/findtreatment
  verified:
    'on': '2026-07-19'
    method: api
- id: oh/toledo/beverly-elementary
  name: Beverly Elementary
  categories:
  - child-care
  address:
    street: 3548 S Detroit Ave
    city: Toledo
    state: oh
    zip: '43614'
  place: '3977000'
  geo:
    lat: 41.6017
    lng: -83.60948
  phone: 419-671-2600
  sources:
  - acf/head-start-locations
  verified:
    'on': '2026-07-19'
    method: api
- id: oh/toledo/beyond-healthcare-toledo
  name: Beyond Healthcare Toledo
  categories:
  - su-treatment
  - mh-treatment
  address:
    street: 3110 West Central Avenue
    city: Toledo
    state: oh
    zip: '43606'
  place: '3977000'
  phone: 419-309-3991
  website: https://www.beyondhc.com
  sources:
  - samhsa/findtreatment
  verified:
    'on': '2026-07-19'
    method: api
- id: oh/toledo/birmingham-elementary
  name: Birmingham Elementary
  categories:
  - child-care
  address:
    street: 2222 Bakewell St
    city: Toledo
    state: oh
    zip: '43605'
  place: '3977000'
  geo:
    lat: 41.66268
    lng: -83.49499
  phone: 419-671-7700
  sources:
  - acf/head-start-locations
  verified:
    'on': '2026-07-19'
    method: api
- id: oh/toledo/bowsher-health-center
  name: Bowsher Health Center
  categories:
  - community-health-center
  address:
    street: 2200 Arlington Ave
    city: Toledo
    state: oh
    zip: '43614'
  place: '3977000'
  geo:
    lat: 41.62456
    lng: -83.59864
  phone: 419-221-3072
  website: https://hpwohio.org
  external_ids:
    bphc: BPS-H80-034904
  sources:
  - hrsa/health-center-sites
  verified:
    'on': '2026-07-19'
    method: api
- id: oh/toledo/bulldog-health-center
  name: Bulldog Health Center
  categories:
  - community-health-center
  address:
    street: 2400 Collingwood Blvd
    city: Toledo
    state: oh
    zip: '43620'
  place: '3977000'
  geo:
    lat: 41.66908
    lng: -83.55403
  phone: 419-221-3072
  website: https://www.hpwohio.org
  external_ids:
    bphc: BPS-H80-027135
  sources:
  - hrsa/health-center-sites
  verified:
    'on': '2026-07-19'
    method: api
- id: oh/toledo/byrnedale-elementary-school
  name: Byrnedale Elementary School
  categories:
  - child-care
  address:
    street: 3635 Glendale Ave
    city: Toledo
    state: oh
    zip: '43614'
  place: '3977000'
  geo:
    lat: 41.61039
    lng: -83.62955
  phone: 419-671-2200
  sources:
  - acf/head-start-locations
  verified:
    'on': '2026-07-19'
    method: api
- id: oh/toledo/catholic-club
  name: Catholic Club
  categories:
  - child-care
  address:
    street: 1601 Jefferson Ave
    city: Toledo
    state: oh
    zip: '43604'
  place: '3977000'
  geo:
    lat: 41.65485
    lng: -83.5472
  phone: 419-243-7255
  sources:
  - acf/head-start-locations
  verified:
    'on': '2026-07-19'
    method: api
- id: oh/toledo/catholic-club-ehs
  name: Catholic Club- EHS
  categories:
  - child-care
  address:
    street: 1601 Jefferson Ave
    city: Toledo
    state: oh
    zip: '43604'
  place: '3977000'
  geo:
    lat: 41.65486
    lng: -83.5472
  phone: 419-243-7255
  sources:
  - acf/head-start-locations
  verified:
    'on': '2026-07-19'
    method: api
- id: oh/toledo/central
  name: Central
  categories:
  - community-health-center
  address:
    street: 6605 W Central Ave
    city: Toledo
    state: oh
    zip: '43617'
  place: '3977000'
  geo:
    lat: 41.67497
    lng: -83.70083
  phone: 419-841-7701
  external_ids:
    bphc: BPS-LAL-040459
  sources:
  - hrsa/health-center-sites
  verified:
    'on': '2026-07-19'
    method: api
- id: oh/toledo/city-park
  name: City Park
  categories:
  - child-care
  address:
    street: 1218 City Park Ave
    city: Toledo
    state: oh
    zip: '43604'
  place: '3977000'
  geo:
    lat: 41.6524
    lng: -83.55694
  phone: 419-243-5286
  sources:
  - acf/head-start-locations
  verified:
    'on': '2026-07-19'
    method: api
- id: oh/toledo/compassion-health-toledo-broadway
  name: Compassion Health Toledo - Broadway
  categories:
  - community-health-center
  address:
    street: 1638 Broadway St
    city: Toledo
    state: oh
    zip: '43609'
  place: '3977000'
  geo:
    lat: 41.63023
    lng: -83.55786
  phone: 567-661-0565
  website: https://www.compassionhealthtoledo.org
  external_ids:
    bphc: BPS-LAL-031811
  sources:
  - hrsa/health-center-sites
  verified:
    'on': '2026-07-19'
    method: api
- id: oh/toledo/compassion-health-toledo-dorr-street
  name: Compassion Health Toledo-Dorr Street
  categories:
  - community-health-center
  address:
    street: 1055 Dorr St
    city: Toledo
    state: oh
    zip: '43607'
  place: '3977000'
  geo:
    lat: 41.65265
    lng: -83.56937
  phone: 567-661-0565
  external_ids:
    bphc: BPS-LAL-037928
  sources:
  - hrsa/health-center-sites
  verified:
    'on': '2026-07-19'
    method: api
- id: oh/toledo/connecting-kids-with-meals
  name: Connecting Kids with Meals
  categories:
  - food-pantry
  place: '3977000'
  geo:
    lat: 41.65303
    lng: -83.54738
  external_ids:
    lfp: '2525'
  sources:
  - littlefreepantry/map
  verified:
    'on': '2026-07-19'
    method: scrape
- id: oh/toledo/cordelia-martin-health-center
  name: Cordelia Martin Health Center
  categories:
  - community-health-center
  address:
    street: 430 Nebraska Ave
    city: Toledo
    state: oh
    zip: '43604'
  place: '3977000'
  geo:
    lat: 41.64536
    lng: -83.55354
  phone: 419-255-7883
  website: https://www.nhainc.org
  external_ids:
    bphc: BPS-H80-004869
  sources:
  - hrsa/health-center-sites
  verified:
    'on': '2026-07-19'
    method: api
- id: oh/toledo/court-diagnostic-and-treatment-center
  name: Court Diagnostic and Treatment Center
  categories:
  - su-treatment
  - mh-treatment
  address:
    street: 1946 North 13th Street
    city: Toledo
    state: oh
    zip: '43604'
  place: '3977000'
  geo:
    lat: 41.65991
    lng: -83.5403
  phone: 419-244-8624
  website: https://www.courtdiagnostic.com
  sources:
  - samhsa/findtreatment
  verified:
    'on': '2026-07-19'
    method: api
- id: oh/toledo/crossgates
  name: Crossgates
  categories:
  - child-care
  address:
    street: 3901 Shadylawn Dr
    city: Toledo
    state: oh
    zip: '43614'
  place: '3977000'
  geo:
    lat: 41.60513
    lng: -83.6346
  phone: 419-671-9100
  sources:
  - acf/head-start-locations
  verified:
    'on': '2026-07-19'
    method: api
- id: oh/toledo/doc-s-remedy-shoppe
  name: Doc's Remedy Shoppe
  categories:
  - community-health-center
  address:
    street: 12 N Saint Clair St
    city: Toledo
    state: oh
    zip: '43604'
  place: '3977000'
  geo:
    lat: 41.6477
    lng: -83.53755
  phone: 567-420-3100
  website: https://nhainc.org/hensville-health
  external_ids:
    bphc: BPS-H80-040026
  sources:
  - hrsa/health-center-sites
  verified:
    'on': '2026-07-19'
    method: api
- id: oh/toledo/east-broadway-elementary
  name: East Broadway Elementary
  categories:
  - child-care
  address:
    street: 1755 E Broadway St
    city: Toledo
    state: oh
    zip: '43605'
  place: '3977000'
  geo:
    lat: 41.61872
    lng: -83.51144
  phone: 419-671-7200
  sources:
  - acf/head-start-locations
  verified:
    'on': '2026-07-19'
    method: api
- id: oh/toledo/east-toledo-family-center
  name: East Toledo Family Center
  categories:
  - child-care
  address:
    street: 1020 Varland Ave
    city: Toledo
    state: oh
    zip: '43605'
  place: '3977000'
  geo:
    lat: 41.63117
    lng: -83.51351
  phone: 419-691-4609
  sources:
  - acf/head-start-locations
  verified:
    'on': '2026-07-19'
    method: api
- id: oh/toledo/edgewater-elementary
  name: Edgewater Elementary
  categories:
  - child-care
  address:
    street: 5549 Edgewater Dr
    city: Toledo
    state: oh
    zip: '43611'
  place: '3977000'
  geo:
    lat: 41.72169
    lng: -83.47056
  phone: 419-671-9100
  sources:
  - acf/head-start-locations
  verified:
    'on': '2026-07-19'
    method: api
- id: oh/toledo/educare-academy-east-toledo-starr
  name: Educare Academy East Toledo (Starr)
  categories:
  - child-care
  address:
    street: 806 Starr Ave
    city: Toledo
    state: oh
    zip: '43605'
  place: '3977000'
  geo:
    lat: 41.64336
    lng: -83.51779
  phone: 419-693-7550
  sources:
  - acf/head-start-locations
  verified:
    'on': '2026-07-19'
    method: api
- id: oh/toledo/educare-academy-i-euclid
  name: Educare Academy I - Euclid
  categories:
  - child-care
  address:
    street: 631 Euclid Ave
    city: Toledo
    state: oh
    zip: '43605'
  place: '3977000'
  geo:
    lat: 41.64367
    lng: -83.51929
  phone: 419-691-6444
  sources:
  - acf/head-start-locations
  verified:
    'on': '2026-07-19'
    method: api
- id: oh/toledo/educare-academy-v-lagrange
  name: Educare Academy V Lagrange
  categories:
  - child-care
  address:
    street: 3580 Lagrange St
    city: Toledo
    state: oh
    zip: '43608'
  place: '3977000'
  geo:
    lat: 41.68779
    lng: -83.54404
  phone: 419-242-4777
  sources:
  - acf/head-start-locations
  verified:
    'on': '2026-07-19'
    method: api
- id: oh/toledo/educare-academy-v-lagrange-2
  name: Educare Academy V-Lagrange
  categories:
  - child-care
  address:
    street: 3580 Lagrange St
    city: Toledo
    state: oh
    zip: '43608'
  place: '3977000'
  geo:
    lat: 41.68785
    lng: -83.54399
  phone: 419-242-4777
  sources:
  - acf/head-start-locations
  verified:
    'on': '2026-07-19'
    method: api
- id: oh/toledo/educare-academy-x-cheyenne
  name: Educare Academy X Cheyenne
  categories:
  - child-care
  address:
    street: 2303 Cheyenne Blvd
    city: Toledo
    state: oh
    zip: '43614'
  place: '3977000'
  geo:
    lat: 41.59826
    lng: -83.668
  phone: 419-865-8191
  sources:
  - acf/head-start-locations
  verified:
    'on': '2026-07-19'
    method: api
- id: oh/toledo/educare-academy-xii-sylvania
  name: Educare Academy XII Sylvania
  categories:
  - child-care
  address:
    street: 1902 W Sylvania Ave
    city: Toledo
    state: oh
    zip: '43613'
  place: '3977000'
  geo:
    lat: 41.69252
    lng: -83.58981
  phone: 419-214-1322
  sources:
  - acf/head-start-locations
  verified:
    'on': '2026-07-19'
    method: api
- id: oh/toledo/educare-indiana
  name: Educare Indiana
  categories:
  - child-care
  address:
    street: 111 Indiana Ave
    city: Toledo
    state: oh
    zip: '43604'
  place: '3977000'
  geo:
    lat: 41.65023
    lng: -83.54487
  sources:
  - acf/head-start-locations
  verified:
    'on': '2026-07-19'
    method: api
- id: oh/toledo/educare-jackman
  name: Educare Jackman
  categories:
  - child-care
  address:
    street: 4450 Jackman Rd
    city: Toledo
    state: oh
    zip: '43612'
  place: '3977000'
  geo:
    lat: 41.69934
    lng: -83.58497
  sources:
  - acf/head-start-locations
  verified:
    'on': '2026-07-19'
    method: api
- id: oh/toledo/empowered-for-excellence-behavioral-healthcare
  name: Empowered for Excellence Behavioral Healthcare
  categories:
  - su-treatment
  - mh-treatment
  address:
    street: 3170 West Central Avenue
    city: Toledo
    state: oh
    zip: '43606'
  place: '3977000'
  geo:
    lat: 41.67858
    lng: -83.62146
  phone: 567-316-7253
  website: https://
  sources:
  - samhsa/findtreatment
  verified:
    'on': '2026-07-19'
    method: api
- id: oh/toledo/equitas-health-toledo
  name: Equitas Health Toledo
  categories:
  - community-health-center
  address:
    street: 3450 W Central Ave, Ste 104
    city: Toledo
    state: oh
    zip: '43606'
  place: '3977000'
  geo:
    lat: 41.6773
    lng: -83.62701
  phone: 419-241-9444
  external_ids:
    bphc: BPS-LAL-039292
  sources:
  - hrsa/health-center-sites
  verified:
    'on': '2026-07-19'
    method: api
- id: oh/toledo/equitas-health-toledo-health-center
  name: Equitas Health Toledo Health Center
  categories:
  - community-health-center
  address:
    street: 613 W Alexis Rd
    city: Toledo
    state: oh
    zip: '43612'
  place: '3977000'
  geo:
    lat: 41.7211
    lng: -83.55918
  phone: 567-290-2991
  external_ids:
    bphc: BPS-LAL-041407
  sources:
  - hrsa/health-center-sites
  verified:
    'on': '2026-07-19'
    method: api
- id: oh/toledo/escuela-smart-academy
  name: Escuela SMART Academy
  categories:
  - child-care
  address:
    street: 617 Western Ave
    city: Toledo
    state: oh
    zip: '43609'
  place: '3977000'
  geo:
    lat: 41.63387
    lng: -83.55369
  phone: 419-671-5550
  sources:
  - acf/head-start-locations
  verified:
    'on': '2026-07-19'
    method: api
- id: oh/toledo/garfield-elementary
  name: Garfield Elementary
  categories:
  - child-care
  address:
    street: 1103 N Ravine Pkwy
    city: Toledo
    state: oh
    zip: '43605'
  place: '3977000'
  geo:
    lat: 41.64938
    lng: -83.515
  phone: 419-671-9100
  sources:
  - acf/head-start-locations
  verified:
    'on': '2026-07-19'
    method: api
- id: oh/toledo/glcap-at-bancroft
  name: GLCAP At Bancroft
  categories:
  - child-care
  address:
    street: 6701 W Bancroft St
    city: Toledo
    state: oh
    zip: '43615'
  place: '3977000'
  geo:
    lat: 41.66005
    lng: -83.70255
  phone: 419-841-4116
  sources:
  - acf/head-start-locations
  verified:
    'on': '2026-07-19'
    method: api
- id: oh/toledo/glenwood-elementary
  name: Glenwood Elementary
  categories:
  - child-care
  address:
    street: 2860 Glenwood Ave
    city: Toledo
    state: oh
    zip: '43610'
  place: '3977000'
  geo:
    lat: 41.67628
    lng: -83.56177
  phone: 419-671-9100
  sources:
  - acf/head-start-locations
  verified:
    'on': '2026-07-19'
    method: api
- id: oh/toledo/grove-patterson-elementary
  name: Grove Patterson Elementary
  categories:
  - child-care
  address:
    street: 3020 Marvin Ave
    city: Toledo
    state: oh
    zip: '43606'
  place: '3977000'
  geo:
    lat: 41.68092
    lng: -83.61614
  phone: 419-671-3350
  sources:
  - acf/head-start-locations
  verified:
    'on': '2026-07-19'
    method: api
- id: oh/toledo/harbor
  name: Harbor
  categories:
  - su-treatment
  - mh-treatment
  address:
    street: 7140 Port Sylvania Drive
    city: Toledo
    state: oh
    zip: '43617'
  place: '3977000'
  geo:
    lat: 41.67548
    lng: -83.71465
  phone: 419-475-4449
  website: https://www.harbor.org
  sources:
  - samhsa/findtreatment
  verified:
    'on': '2026-07-19'
    method: api
- id: oh/toledo/harbor-2
  name: Harbor
  categories:
  - su-treatment
  - mh-treatment
  address:
    street: 3909 Woodley Road
    city: Toledo
    state: oh
    zip: '43606'
  place: '3977000'
  geo:
    lat: 41.69006
    lng: -83.63659
  phone: 419-475-4449
  website: https://www.harbor.org
  sources:
  - samhsa/findtreatment
  verified:
    'on': '2026-07-19'
    method: api
- id: oh/toledo/harbor-3
  name: Harbor
  categories:
  - su-treatment
  - mh-treatment
  address:
    street: 123 22nd Street
    city: Toledo
    state: oh
    zip: '43604'
  place: '3977000'
  geo:
    lat: 41.65736
    lng: -83.55315
  phone: 419-475-4449
  website: https://www.harbor.org
  sources:
  - samhsa/findtreatment
  verified:
    'on': '2026-07-19'
    method: api
- id: oh/toledo/hpwo-mobile-health-van-14
  name: 'HPWO Mobile Health Van #14'
  categories:
  - community-health-center
  address:
    street: 701 E Central Ave
    city: Toledo
    state: oh
    zip: '43608'
  place: '3977000'
  geo:
    lat: 41.67993
    lng: -83.52745
  phone: 419-221-3072
  website: https://www.hpwohio.org
  external_ids:
    bphc: BPS-H80-039828
  sources:
  - hrsa/health-center-sites
  verified:
    'on': '2026-07-19'
    method: api
- id: oh/toledo/huron-street-women-s-center
  name: HURON STREET WOMEN'S CENTER
  categories:
  - community-health-center
  address:
    street: 923 N Huron St
    city: Toledo
    state: oh
    zip: '43604'
  place: '3977000'
  geo:
    lat: 41.6588
    lng: -83.52814
  phone: 419-242-6028
  website: https://www.nhainc.org
  external_ids:
    bphc: BPS-H80-006865
  sources:
  - hrsa/health-center-sites
  verified:
    'on': '2026-07-19'
    method: api
- id: oh/toledo/jones-leadership-academy-of-business
  name: Jones Leadership Academy of Business
  categories:
  - community-health-center
  address:
    street: 615 Division St
    city: Toledo
    state: oh
    zip: '43604'
  place: '3977000'
  geo:
    lat: 41.64574
    lng: -83.55278
  phone: 419-720-7883
  website: https://www.nhainc.org
  external_ids:
    bphc: BPS-H80-033673
  sources:
  - hrsa/health-center-sites
  verified:
    'on': '2026-07-19'
    method: api
- id: oh/toledo/karing-4-kids-with-cre8tive-mindz
  name: Karing 4 Kids with Cre8tive Mindz
  categories:
  - child-care
  address:
    street: 4263 Monroe St
    city: Toledo
    state: oh
    zip: '43606'
  place: '3977000'
  geo:
    lat: 41.68258
    lng: -83.60902
  phone: 419-276-8448
  sources:
  - acf/head-start-locations
  verified:
    'on': '2026-07-19'
    method: api
- id: oh/toledo/karing-handz-daycare-2
  name: Karing Handz Daycare 2
  categories:
  - child-care
  address:
    street: 3049 W Sylvania Ave
    city: Toledo
    state: oh
    zip: '43613'
  place: '3977000'
  geo:
    lat: 41.69173
    lng: -83.61795
  phone: 419-329-0790
  sources:
  - acf/head-start-locations
  verified:
    'on': '2026-07-19'
    method: api
- id: oh/toledo/keller-s-old-west-end-pantry
  name: Keller's Old West End Pantry
  categories:
  - food-pantry
  place: '3977000'
  geo:
    lat: 41.6704
    lng: -83.55468
  external_ids:
    lfp: '93'
  sources:
  - littlefreepantry/map
  verified:
    'on': '2026-07-19'
    method: scrape
- id: oh/toledo/kellys-little-free-pantry-and-library
  name: Kelly’s Little Free Pantry and Library
  categories:
  - food-pantry
  place: '3977000'
  geo:
    lat: 41.62147
    lng: -83.58892
  external_ids:
    lfp: '6060'
  sources:
  - littlefreepantry/map
  verified:
    'on': '2026-07-19'
    method: scrape
- id: oh/toledo/lagrange
  name: Lagrange
  categories:
  - child-care
  address:
    street: 2300 Lagrange St
    city: Toledo
    state: oh
    zip: '43608'
  place: '3977000'
  geo:
    lat: 41.67112
    lng: -83.53666
  phone: 419-243-3046
  sources:
  - acf/head-start-locations
  verified:
    'on': '2026-07-19'
    method: api
- id: oh/toledo/laskey-family-health-center
  name: Laskey Family Health Center
  categories:
  - community-health-center
  address:
    street: 2658 W Laskey Rd
    city: Toledo
    state: oh
    zip: '43613'
  place: '3977000'
  geo:
    lat: 41.70688
    lng: -83.60881
  phone: 419-214-0071
  website: https://www.nhainc.org
  external_ids:
    bphc: BPS-H80-034782
  sources:
  - hrsa/health-center-sites
  verified:
    'on': '2026-07-19'
    method: api
- id: oh/toledo/learning-ladder
  name: Learning Ladder
  categories:
  - child-care
  address:
    street: 1904 N Reynolds Rd
    city: Toledo
    state: oh
    zip: '43615'
  place: '3977000'
  geo:
    lat: 41.65871
    lng: -83.66723
  phone: 419-720-8686
  sources:
  - acf/head-start-locations
  verified:
    'on': '2026-07-19'
    method: api
- id: oh/toledo/learning-ladders-educational-center
  name: Learning Ladders Educational Center
  categories:
  - child-care
  address:
    street: 1163 W Sylvania Ave
    city: Toledo
    state: oh
    zip: '43612'
  place: '3977000'
  geo:
    lat: 41.69225
    lng: -83.5692
  phone: 567-315-8997
  sources:
  - acf/head-start-locations
  verified:
    'on': '2026-07-19'
    method: api
- id: oh/toledo/leverette-elementary
  name: Leverette Elementary
  categories:
  - child-care
  address:
    street: 445 E Manhattan Blvd
    city: Toledo
    state: oh
    zip: '43608'
  place: '3977000'
  geo:
    lat: 41.68675
    lng: -83.5342
  phone: 419-671-6200
  sources:
  - acf/head-start-locations
  verified:
    'on': '2026-07-19'
    method: api
- id: oh/toledo/lucas-metropolitan-housing-authority
  name: Lucas Metropolitan Housing Authority
  categories:
  - housing-assistance
  address: {street: 424 Jackson St, city: Toledo, state: oh, zip: '43604'}
  description: Public housing and Housing Choice Voucher agency
  place: '3977000'
  geo: {lat: 41.65429, lng: -83.53316}
  phone: 419-259-9439
  sources:
  - hud/resource-locator
  verified: {'on': '2026-07-19', method: api}
- id: oh/toledo/lutheran-social-services-administrative-office
  name: Lutheran Social Services Administrative Office
  categories:
  - su-treatment
  - mh-treatment
  address:
    street: 2149 Collingwood Boulevard
    city: Toledo
    state: oh
    zip: '43620'
  place: '3977000'
  geo:
    lat: 41.66365
    lng: -83.55558
  phone: 419-243-9178
  website: https://www.lssnwo.org
  sources:
  - samhsa/findtreatment
  verified:
    'on': '2026-07-19'
    method: api
- id: oh/toledo/magic-moments
  name: Magic Moments
  categories:
  - child-care
  address:
    street: 2041 Tremainsville Rd
    city: Toledo
    state: oh
    zip: '43613'
  place: '3977000'
  geo:
    lat: 41.69807
    lng: -83.59436
  phone: 419-690-4004
  sources:
  - acf/head-start-locations
  verified:
    'on': '2026-07-19'
    method: api
- id: oh/toledo/magic-moments-2
  name: Magic Moments
  categories:
  - child-care
  address:
    street: 3131 Tremainsville Rd
    city: Toledo
    state: oh
    zip: '43613'
  place: '3977000'
  geo:
    lat: 41.71923
    lng: -83.62011
  phone: 419-690-4004
  sources:
  - acf/head-start-locations
  verified:
    'on': '2026-07-19'
    method: api
- id: oh/toledo/mayfair
  name: Mayfair
  categories:
  - child-care
  address:
    street: 5331 Bennett Rd
    city: Toledo
    state: oh
    zip: '43612'
  place: '3977000'
  geo:
    lat: 41.71338
    lng: -83.55758
  phone: 419-671-9100
  sources:
  - acf/head-start-locations
  verified:
    'on': '2026-07-19'
    method: api
- id: oh/toledo/mctigue-elementary
  name: McTigue Elementary
  categories:
  - child-care
  address:
    street: 5555 Nebraska Ave
    city: Toledo
    state: oh
    zip: '43615'
  place: '3977000'
  geo:
    lat: 41.64524
    lng: -83.67373
  phone: 419-671-1200
  sources:
  - acf/head-start-locations
  verified:
    'on': '2026-07-19'
    method: api
- id: oh/toledo/mercy-health-st-vincent-medical-center-ehs-home
  name: Mercy Health-St. Vincent Medical Center EHS Home Based
  categories:
  - child-care
  address:
    street: 2200 Jefferson Ave
    street2: Fl 4
    city: Toledo
    state: oh
    zip: '43604'
  place: '3977000'
  geo:
    lat: 41.6586
    lng: -83.55083
  phone: 419-251-2453
  sources:
  - acf/head-start-locations
  verified:
    'on': '2026-07-19'
    method: api
- id: oh/toledo/michigan-street-healthcare-center
  name: Michigan Street Healthcare Center
  categories:
  - community-health-center
  address:
    street: 237 N Michigan St
    city: Toledo
    state: oh
    zip: '43604'
  place: '3977000'
  geo:
    lat: 41.65332
    lng: -83.54007
  phone: 419-214-0075
  website: https://www.nhainc.org
  external_ids:
    bphc: BPS-H80-034785
  sources:
  - hrsa/health-center-sites
  verified:
    'on': '2026-07-19'
    method: api
- id: oh/toledo/midwest-recovery-center
  name: Midwest Recovery Center
  categories:
  - su-treatment
  - mh-treatment
  address:
    street: 7540 New West Road
    city: Toledo
    state: oh
    zip: '43617'
  place: '3977000'
  geo:
    lat: 41.6829
    lng: -83.72452
  phone: 570-689-2644
  website: https://www.midwestrecoverycenter.com
  sources:
  - samhsa/findtreatment
  verified:
    'on': '2026-07-19'
    method: api
- id: oh/toledo/mildred-bayer-clinic-homeless
  name: MILDRED BAYER CLINIC HOMELESS
  categories:
  - community-health-center
  address:
    street: 2101 Jefferson Ave
    city: Toledo
    state: oh
    zip: '43604'
  place: '3977000'
  geo:
    lat: 41.65691
    lng: -83.55127
  phone: 419-241-1554
  website: https://www.nhainc.org
  external_ids:
    bphc: BPS-H80-001113
  sources:
  - hrsa/health-center-sites
  verified:
    'on': '2026-07-19'
    method: api
- id: oh/toledo/mindfully-toledo
  name: Mindfully Toledo
  categories:
  - su-treatment
  - mh-treatment
  address:
    street: 3000 Regency Court
    city: Toledo
    state: oh
    zip: '43623'
  place: '3977000'
  geo:
    lat: 41.70375
    lng: -83.6461
  phone: 567-389-0288
  website: https://mindfully.com
  sources:
  - samhsa/findtreatment
  verified:
    'on': '2026-07-19'
    method: api
- id: oh/toledo/mobile-vision-van-10
  name: 'Mobile Vision Van #10'
  categories:
  - community-health-center
  address:
    street: 222 McTigue Dr
    city: Toledo
    state: oh
    zip: '43615'
  place: '3977000'
  geo:
    lat: 41.64472
    lng: -83.67342
  phone: 419-442-7702
  website: https://www.hpwohio.org
  external_ids:
    bphc: BPS-H80-041569
  sources:
  - hrsa/health-center-sites
  verified:
    'on': '2026-07-19'
    method: api
- id: oh/toledo/mobile-vision-van-11
  name: 'Mobile Vision Van #11'
  categories:
  - community-health-center
  address:
    street: 222 McTigue Dr
    city: Toledo
    state: oh
    zip: '43615'
  place: '3977000'
  geo:
    lat: 41.64472
    lng: -83.67342
  phone: 419-442-7702
  website: https://www.hpwohio.org
  external_ids:
    bphc: BPS-H80-041567
  sources:
  - hrsa/health-center-sites
  verified:
    'on': '2026-07-19'
    method: api
- id: oh/toledo/mobile-vision-van-12
  name: 'Mobile Vision Van #12'
  categories:
  - community-health-center
  address:
    street: 222 McTigue Dr
    city: Toledo
    state: oh
    zip: '43615'
  place: '3977000'
  geo:
    lat: 41.64472
    lng: -83.67342
  phone: 419-442-7702
  website: https://www.hpwohio.org
  external_ids:
    bphc: BPS-H80-041570
  sources:
  - hrsa/health-center-sites
  verified:
    'on': '2026-07-19'
    method: api
- id: oh/toledo/mobile-vision-van-7
  name: 'Mobile Vision Van #7'
  categories:
  - community-health-center
  address:
    street: 222 McTigue Dr
    city: Toledo
    state: oh
    zip: '43615'
  place: '3977000'
  geo:
    lat: 41.64472
    lng: -83.67342
  phone: 419-221-3072
  website: https://www.hpwohio.org
  external_ids:
    bphc: BPS-H80-041368
  sources:
  - hrsa/health-center-sites
  verified:
    'on': '2026-07-19'
    method: api
- id: oh/toledo/mobile-vision-van-8
  name: 'Mobile Vision Van #8'
  categories:
  - community-health-center
  address:
    street: 222 McTigue Dr
    city: Toledo
    state: oh
    zip: '43615'
  place: '3977000'
  geo:
    lat: 41.64472
    lng: -83.67342
  phone: 419-442-7702
  website: https://www.hpwohio.org
  external_ids:
    bphc: BPS-H80-041681
  sources:
  - hrsa/health-center-sites
  verified:
    'on': '2026-07-19'
    method: api
- id: oh/toledo/mobile-vision-van-9
  name: 'Mobile Vision Van #9'
  categories:
  - community-health-center
  address:
    street: 222 McTigue Dr
    city: Toledo
    state: oh
    zip: '43615'
  place: '3977000'
  geo:
    lat: 41.64472
    lng: -83.67342
  phone: 419-442-7702
  website: https://www.hpwohio.org
  external_ids:
    bphc: BPS-H80-041568
  sources:
  - hrsa/health-center-sites
  verified:
    'on': '2026-07-19'
    method: api
- id: oh/toledo/national-youth-advocate-program-inc
  name: National Youth Advocate Program Inc
  categories:
  - su-treatment
  - mh-treatment
  address:
    street: 1219 Jefferson Avenue
    city: Toledo
    state: oh
    zip: '43604'
  place: '3977000'
  geo:
    lat: 41.65367
    lng: -83.54406
  phone: 567-289-2273
  website: https://www.nyap.org
  sources:
  - samhsa/findtreatment
  verified:
    'on': '2026-07-19'
    method: api
- id: oh/toledo/navarre-park-family-care-center
  name: Navarre Park Family Care Center
  categories:
  - community-health-center
  address:
    street: 1020 Varland Ave
    city: Toledo
    state: oh
    zip: '43605'
  place: '3977000'
  geo:
    lat: 41.63082
    lng: -83.51469
  phone: 419-696-1515
  website: https://nhainc.org
  external_ids:
    bphc: BPS-H80-014239
  sources:
  - hrsa/health-center-sites
  verified:
    'on': '2026-07-19'
    method: api
- id: oh/toledo/nebraska-primary-care
  name: Nebraska Primary Care
  categories:
  - community-health-center
  address:
    street: 905 Nebraska Ave
    city: Toledo
    state: oh
    zip: '43607'
  place: '3977000'
  geo:
    lat: 41.64523
    lng: -83.56619
  phone: 419-841-7701
  website: https://www.zepfcenter.org
  external_ids:
    bphc: BPS-LAL-038693
  sources:
  - hrsa/health-center-sites
  verified:
    'on': '2026-07-19'
    method: api
- id: oh/toledo/neighborhood-health-association-of-toledo
  name: NEIGHBORHOOD HEALTH ASSOCIATION OF TOLEDO
  categories:
  - community-health-center
  address:
    street: 313 Jefferson Ave
    city: Toledo
    state: oh
    zip: '43604'
  place: '3977000'
  geo:
    lat: 41.64959
    lng: -83.53575
  phone: 419-720-7883
  website: https://www.nhainc.org
  external_ids:
    bphc: BPS-H80-001477
  sources:
  - hrsa/health-center-sites
  verified:
    'on': '2026-07-19'
    method: api
- id: oh/toledo/nexus-health-care
  name: Nexus Health Care
  categories:
  - community-health-center
  address:
    street: 1415 Jefferson Ave
    city: Toledo
    state: oh
    zip: '43604'
  place: '3977000'
  geo:
    lat: 41.65458
    lng: -83.54571
  phone: 419-720-7883
  website: https://www.nhainc.org
  external_ids:
    bphc: BPS-H80-011393
  sources:
  - hrsa/health-center-sites
  verified:
    'on': '2026-07-19'
    method: api
- id: oh/toledo/nha-mobile-unit
  name: NHA Mobile Unit
  categories:
  - community-health-center
  address:
    street: 1127 E Central Ave
    city: Toledo
    state: oh
    zip: '43608'
  place: '3977000'
  geo:
    lat: 41.67925
    lng: -83.52132
  phone: 419-720-7883
  external_ids:
    bphc: BPS-H80-040160
  sources:
  - hrsa/health-center-sites
  verified:
    'on': '2026-07-19'
    method: api
- id: oh/toledo/nha-senior-care-clinic
  name: NHA Senior Care Clinic
  categories:
  - community-health-center
  address:
    street: 1 Aurora L Gonzalez Dr
    city: Toledo
    state: oh
    zip: '43609'
  place: '3977000'
  geo:
    lat: 41.63182
    lng: -83.5631
  phone: 419-241-4230
  website: https://www.nhainc.org
  external_ids:
    bphc: BPS-H80-000596
  sources:
  - hrsa/health-center-sites
  verified:
    'on': '2026-07-19'
    method: api
- id: oh/toledo/ohio-treatment-center
  name: Ohio Treatment Center
  categories:
  - su-treatment
  - mh-treatment
  address:
    street: 4747 Monroe Street
    city: Toledo
    state: oh
    zip: '43623'
  place: '3977000'
  geo:
    lat: 41.69238
    lng: -83.62977
  phone: 419-740-5709
  website: https://www.ohiotreatmentcenter.com
  sources:
  - samhsa/findtreatment
  verified:
    'on': '2026-07-19'
    method: api
- id: oh/toledo/old-west-end-community-health-center
  name: Old West End Community Health Center
  categories:
  - community-health-center
  address:
    street: 2244 Collingwood Blvd
    city: Toledo
    state: oh
    zip: '43620'
  place: '3977000'
  geo:
    lat: 41.66546
    lng: -83.55372
  phone: 419-221-3072
  external_ids:
    bphc: BPS-H80-030418
  sources:
  - hrsa/health-center-sites
  verified:
    'on': '2026-07-19'
    method: api
- id: oh/toledo/panther-health-center
  name: Panther Health Center
  categories:
  - community-health-center
  address:
    street: 3547 Quast Ln
    city: Toledo
    state: oh
    zip: '43623'
  place: '3977000'
  geo:
    lat: 41.71674
    lng: -83.63083
  phone: 419-222-3471
  website: https://www.hpwohio.org
  external_ids:
    bphc: BPS-H80-041703
  sources:
  - hrsa/health-center-sites
  verified:
    'on': '2026-07-19'
    method: api
- id: oh/toledo/philio-inc-dba-new-concepts
  name: Philio Inc DBA New Concepts
  categories:
  - su-treatment
  - mh-treatment
  address:
    street: 111 South Byrne Road
    city: Toledo
    state: oh
    zip: '43615'
  place: '3977000'
  geo:
    lat: 41.63619
    lng: -83.62543
  phone: 419-531-5544
  website: https://www.newconcepts.org
  sources:
  - samhsa/findtreatment
  verified:
    'on': '2026-07-19'
    method: api
- id: oh/toledo/quality-time-3
  name: Quality Time 3
  categories:
  - child-care
  address:
    street: 2343 Dorr St
    city: Toledo
    state: oh
    zip: '43607'
  place: '3977000'
  geo:
    lat: 41.65264
    lng: -83.6001
  phone: 567-315-7827
  sources:
  - acf/head-start-locations
  verified:
    'on': '2026-07-19'
    method: api
- id: oh/toledo/quality-time-too
  name: Quality Time Too
  categories:
  - child-care
  address:
    street: 2301 Dorr St
    city: Toledo
    state: oh
    zip: '43607'
  place: '3977000'
  geo:
    lat: 41.65269
    lng: -83.59851
  phone: 419-535-5704
  sources:
  - acf/head-start-locations
  verified:
    'on': '2026-07-19'
    method: api
- id: oh/toledo/rams-health-center
  name: Rams Health Center
  categories:
  - community-health-center
  address:
    street: 222 McTigue Dr
    city: Toledo
    state: oh
    zip: '43615'
  place: '3977000'
  geo:
    lat: 41.64472
    lng: -83.67342
  phone: 419-221-3072
  website: https://www.hpwohio.org
  external_ids:
    bphc: BPS-H80-027136
  sources:
  - hrsa/health-center-sites
  verified:
    'on': '2026-07-19'
    method: api
- id: oh/toledo/riverside-community-health-center
  name: Riverside Community Health Center
  categories:
  - community-health-center
  address:
    street: 405 Woodville Rd
    city: Toledo
    state: oh
    zip: '43605'
  place: '3977000'
  geo:
    lat: 41.64038
    lng: -83.52504
  phone: 419-221-3072
  website: https://www.hpwohio.org
  external_ids:
    bphc: BPS-H80-027133
  sources:
  - hrsa/health-center-sites
  verified:
    'on': '2026-07-19'
    method: api
- id: oh/toledo/riverside-elementary
  name: Riverside Elementary
  categories:
  - child-care
  address:
    street: 500 Chicago St
    city: Toledo
    state: oh
    zip: '43611'
  place: '3977000'
  geo:
    lat: 41.67349
    lng: -83.5075
  phone: 419-671-6700
  sources:
  - acf/head-start-locations
  verified:
    'on': '2026-07-19'
    method: api
- id: oh/toledo/robinson-elementary
  name: Robinson Elementary
  categories:
  - child-care
  address:
    street: 1075 Horace St
    city: Toledo
    state: oh
    zip: '43606'
  place: '3977000'
  geo:
    lat: 41.6614
    lng: -83.56797
  phone: 419-671-4200
  sources:
  - acf/head-start-locations
  verified:
    'on': '2026-07-19'
    method: api
- id: oh/toledo/rosa-parks
  name: Rosa Parks
  categories:
  - child-care
  address:
    street: 3350 Cherry St
    city: Toledo
    state: oh
    zip: '43608'
  place: '3977000'
  geo:
    lat: 41.68333
    lng: -83.55232
  phone: 419-671-4350
  sources:
  - acf/head-start-locations
  verified:
    'on': '2026-07-19'
    method: api
- id: oh/toledo/south-side-community-health-ctr
  name: SOUTH SIDE COMMUNITY HEALTH CTR
  categories:
  - community-health-center
  address:
    street: 732 South Ave
    city: Toledo
    state: oh
    zip: '43609'
  place: '3977000'
  geo:
    lat: 41.63112
    lng: -83.55734
  phone: 419-241-6106
  website: https://www.nhainc.org
  external_ids:
    bphc: BPS-H80-003538
  sources:
  - hrsa/health-center-sites
  verified:
    'on': '2026-07-19'
    method: api
- id: oh/toledo/spring-elementary
  name: Spring Elementary
  categories:
  - child-care
  address:
    street: 730 Spring St
    city: Toledo
    state: oh
    zip: '43608'
  place: '3977000'
  geo:
    lat: 41.67429
    lng: -83.52806
  phone: 419-671-9100
  sources:
  - acf/head-start-locations
  verified:
    'on': '2026-07-19'
    method: api
- id: oh/toledo/start-health-center
  name: Start Health Center
  categories:
  - community-health-center
  address:
    street: 2010 Tremainsville Rd
    city: Toledo
    state: oh
    zip: '43613'
  place: '3977000'
  geo:
    lat: 41.69929
    lng: -83.59182
  phone: 419-221-3072
  website: http://hpwohio.org
  external_ids:
    bphc: BPS-H80-034905
  sources:
  - hrsa/health-center-sites
  verified:
    'on': '2026-07-19'
    method: api
- id: oh/toledo/summit-ehs
  name: Summit-EHS
  categories:
  - child-care
  address:
    street: 1500 N Superior St
    city: Toledo
    state: oh
    zip: '43604'
  place: '3977000'
  geo:
    lat: 41.66172
    lng: -83.51693
  phone: 419-671-9104
  sources:
  - acf/head-start-locations
  verified:
    'on': '2026-07-19'
    method: api
- id: oh/toledo/tasc-of-northwest-ohio
  name: TASC of Northwest Ohio
  categories:
  - su-treatment
  - mh-treatment
  address:
    street: 3330 Glendale Avenue
    city: Toledo
    state: oh
    zip: '43614'
  place: '3977000'
  geo:
    lat: 41.61542
    lng: -83.6222
  phone: 419-242-9955
  website: https://www.tascnwo.org
  sources:
  - samhsa/findtreatment
  verified:
    'on': '2026-07-19'
    method: api
- id: oh/toledo/the-access-center
  name: The Access Center
  categories:
  - community-health-center
  address:
    street: 117 Main St
    city: Toledo
    state: oh
    zip: '43605'
  place: '3977000'
  geo:
    lat: 41.64809
    lng: -83.52276
  phone: 419-691-1322
  website: https://www.nhainc.org
  external_ids:
    bphc: BPS-H80-005400
  sources:
  - hrsa/health-center-sites
  verified:
    'on': '2026-07-19'
    method: api
- id: oh/toledo/toledo-day-nursery
  name: Toledo Day Nursery
  categories:
  - child-care
  address:
    street: 2902 Stickney Ave
    city: Toledo
    state: oh
    zip: '43608'
  place: '3977000'
  geo:
    lat: 41.67678
    lng: -83.52622
  phone: 419-726-2617
  sources:
  - acf/head-start-locations
  verified:
    'on': '2026-07-19'
    method: api
- id: oh/toledo/toledo-day-nursery-stickney
  name: Toledo Day Nursery Stickney
  categories:
  - child-care
  address:
    street: 2902 Stickney Ave
    city: Toledo
    state: oh
    zip: '43608'
  place: '3977000'
  geo:
    lat: 41.67679
    lng: -83.52623
  phone: 419-726-2617
  sources:
  - acf/head-start-locations
  verified:
    'on': '2026-07-19'
    method: api
- id: oh/toledo/toledo-hospital-rje-childrens-hospital-pediatric
  name: Toledo Hospital/RJE Childrens Hospital Pediatric Psychiatry
  categories:
  - su-treatment
  - mh-treatment
  address:
    street: 2142 Cove North Boulevard
    city: Toledo
    state: oh
    zip: '43612'
  place: '3977000'
  geo:
    lat: 41.70848
    lng: -83.539
  phone: 419-291-4681
  website: https://www.promedica.org
  sources:
  - samhsa/findtreatment
  verified:
    'on': '2026-07-19'
    method: api
- id: oh/toledo/unison-behavioral-health-center
  name: Unison Behavioral Health Center
  categories:
  - community-health-center
  address:
    street: 1425 Starr Ave
    city: Toledo
    state: oh
    zip: '43605'
  place: '3977000'
  geo:
    lat: 41.64381
    lng: -83.51037
  phone: 419-693-0631
  external_ids:
    bphc: BPS-H80-027945
  sources:
  - hrsa/health-center-sites
  verified:
    'on': '2026-07-19'
    method: api
- id: oh/toledo/unison-behavioral-health-center-2
  name: Unison Behavioral Health Center
  categories:
  - community-health-center
  address:
    street: 544 E Woodruff Ave
    city: Toledo
    state: oh
    zip: '43604'
  place: '3977000'
  geo:
    lat: 41.66
    lng: -83.53816
  phone: 419-242-9577
  external_ids:
    bphc: BPS-H80-027944
  sources:
  - hrsa/health-center-sites
  verified:
    'on': '2026-07-19'
    method: api
- id: oh/toledo/unison-health-sud-and-dual-recovery-services
  name: Unison Health SUD and Dual Recovery Services
  categories:
  - su-treatment
  - mh-treatment
  address:
    street: 1212 Cherry Street
    city: Toledo
    state: oh
    zip: '43608'
  place: '3977000'
  geo:
    lat: 41.6623
    lng: -83.53543
  phone: 419-214-4673
  website: https://www.unisonhealth.org
  sources:
  - samhsa/findtreatment
  verified:
    'on': '2026-07-19'
    method: api
- id: oh/toledo/university-of-toledo-medical-center-behavioral-h
  name: University of Toledo Medical Center Behavioral Health Unit
  categories:
  - su-treatment
  - mh-treatment
  address:
    city: Toledo
    state: oh
    zip: '43614'
  place: '3977000'
  phone: 419-383-4000
  website: https://uthealth.utoledo.edu/depts/kobacker
  sources:
  - samhsa/findtreatment
  verified:
    'on': '2026-07-19'
    method: api
- id: oh/toledo/vision-van-1
  name: 'Vision Van #1'
  categories:
  - community-health-center
  address:
    street: 222 McTigue Dr
    city: Toledo
    state: oh
    zip: '43615'
  place: '3977000'
  geo:
    lat: 41.64472
    lng: -83.67342
  phone: 419-221-3072
  website: https://www.hpwohio.org
  external_ids:
    bphc: BPS-H80-039691
  sources:
  - hrsa/health-center-sites
  verified:
    'on': '2026-07-19'
    method: api
- id: oh/toledo/vision-van-2
  name: 'Vision Van #2'
  categories:
  - community-health-center
  address:
    street: 222 McTigue Dr
    city: Toledo
    state: oh
    zip: '43615'
  place: '3977000'
  geo:
    lat: 41.64472
    lng: -83.67342
  phone: 419-221-3072
  website: https://www.hpwohio.org
  external_ids:
    bphc: BPS-H80-039688
  sources:
  - hrsa/health-center-sites
  verified:
    'on': '2026-07-19'
    method: api
- id: oh/toledo/vision-van-3
  name: 'Vision Van #3'
  categories:
  - community-health-center
  address:
    street: 222 McTigue Dr
    city: Toledo
    state: oh
    zip: '43615'
  place: '3977000'
  geo:
    lat: 41.64472
    lng: -83.67342
  phone: 419-221-3072
  website: https://www.hpwohio.org
  external_ids:
    bphc: BPS-H80-039689
  sources:
  - hrsa/health-center-sites
  verified:
    'on': '2026-07-19'
    method: api
- id: oh/toledo/vision-van-4
  name: 'Vision Van #4'
  categories:
  - community-health-center
  address:
    street: 222 McTigue Dr
    city: Toledo
    state: oh
    zip: '43615'
  place: '3977000'
  geo:
    lat: 41.64472
    lng: -83.67342
  phone: 419-221-3072
  website: https://www.hpwohio.org
  external_ids:
    bphc: BPS-H80-039693
  sources:
  - hrsa/health-center-sites
  verified:
    'on': '2026-07-19'
    method: api
- id: oh/toledo/vision-van-5
  name: 'Vision Van #5'
  categories:
  - community-health-center
  address:
    street: 222 McTigue Dr
    city: Toledo
    state: oh
    zip: '43615'
  place: '3977000'
  geo:
    lat: 41.64472
    lng: -83.67342
  phone: 419-221-3072
  website: https://www.hpwohio.org
  external_ids:
    bphc: BPS-H80-039692
  sources:
  - hrsa/health-center-sites
  verified:
    'on': '2026-07-19'
    method: api
- id: oh/toledo/vision-van-6
  name: 'Vision Van #6'
  categories:
  - community-health-center
  address:
    street: 222 McTigue Dr
    city: Toledo
    state: oh
    zip: '43615'
  place: '3977000'
  geo:
    lat: 41.64472
    lng: -83.67342
  phone: 419-221-3072
  website: https://www.hpwohio.org
  external_ids:
    bphc: BPS-H80-039690
  sources:
  - hrsa/health-center-sites
  verified:
    'on': '2026-07-19'
    method: api
- id: oh/toledo/waite-health-center
  name: Waite Health Center
  categories:
  - community-health-center
  address:
    street: 301 Morrison Dr
    city: Toledo
    state: oh
    zip: '43605'
  place: '3977000'
  geo:
    lat: 41.64915
    lng: -83.51813
  phone: 419-221-3072
  external_ids:
    bphc: BPS-H80-033148
  sources:
  - hrsa/health-center-sites
  verified:
    'on': '2026-07-19'
    method: api
- id: oh/toledo/whitmer-health-center
  name: Whitmer Health Center
  categories:
  - community-health-center
  address:
    street: 5601 Clegg Dr
    city: Toledo
    state: oh
    zip: '43613'
  place: '3977000'
  geo:
    lat: 41.71847
    lng: -83.61119
  phone: 419-812-2393
  website: https://www.hpwohio.org
  external_ids:
    bphc: BPS-H80-036881
  sources:
  - hrsa/health-center-sites
  verified:
    'on': '2026-07-19'
    method: api
- id: oh/toledo/woodville
  name: Woodville
  categories:
  - child-care
  address:
    street: 545 Woodville Rd
    city: Toledo
    state: oh
    zip: '43605'
  place: '3977000'
  geo:
    lat: 41.63927
    lng: -83.52278
  phone: 419-698-8556
  sources:
  - acf/head-start-locations
  verified:
    'on': '2026-07-19'
    method: api
- id: oh/toledo/woodward-health-center
  name: Woodward Health Center
  categories:
  - community-health-center
  address:
    street: 701 E Central Ave
    city: Toledo
    state: oh
    zip: '43608'
  place: '3977000'
  geo:
    lat: 41.67993
    lng: -83.52745
  phone: 419-221-3072
  external_ids:
    bphc: BPS-H80-033149
  sources:
  - hrsa/health-center-sites
  verified:
    'on': '2026-07-19'
    method: api
- id: oh/toledo/zepf-center-ashland
  name: Zepf Center Ashland
  categories:
  - su-treatment
  - mh-treatment
  address:
    street: 2005 Ashland Avenue
    city: Toledo
    state: oh
    zip: '43620'
  place: '3977000'
  geo:
    lat: 41.66126
    lng: -83.55149
  phone: 419-841-7701
  website: https://www.zepfcenter.org
  sources:
  - samhsa/findtreatment
  verified:
    'on': '2026-07-19'
    method: api
- id: oh/toledo/zepf-center-central
  name: Zepf Center Central
  categories:
  - su-treatment
  - mh-treatment
  address:
    street: 6605 West Central Avenue
    city: Toledo
    state: oh
    zip: '43617'
  place: '3977000'
  geo:
    lat: 41.67497
    lng: -83.7009
  phone: 419-841-7701
  website: https://www.zepfcenter.org
  sources:
  - samhsa/findtreatment
  verified:
    'on': '2026-07-19'
    method: api
- id: oh/toledo/zepf-center-nebraska
  name: Zepf Center Nebraska
  categories:
  - mh-treatment
  address:
    street: 905 Nebraska Avenue
    city: Toledo
    state: oh
    zip: '43607'
  place: '3977000'
  geo:
    lat: 41.64523
    lng: -83.56589
  phone: 419-841-7701
  website: https://www.zepfcenter.org
  sources:
  - samhsa/findtreatment
  verified:
    'on': '2026-07-19'
    method: api
- id: oh/toledo/zepf-center-woodruff
  name: Zepf Center Woodruff
  categories:
  - mh-treatment
  address:
    street: 424 West Woodruff Avenue
    city: Toledo
    state: oh
    zip: '43604'
  place: '3977000'
  geo:
    lat: 41.66054
    lng: -83.55336
  phone: 419-841-7701
  website: https://www.zepfcenter.org
  sources:
  - samhsa/findtreatment
  verified:
    'on': '2026-07-19'
    method: api
