- id: oh/wickliffe/bee-kind-little-free-library-pantry
  name: Bee Kind Little Free Library & Pantry
  categories:
  - food-pantry
  place: '3985036'
  geo: {lat: 41.61125, lng: -81.48534}
  website: https://mapping.littlefreepantry.org/pantry/4483
  external_ids: {lfp: '4483'}
  sources:
  - littlefreepantry/map
  verified: {'on': '2026-07-19', method: scrape}
- id: oh/wickliffe/our-lady-of-mt-carmel
  name: Our Lady of Mt. Carmel
  org: oh/greater-cleveland-food-bank
  categories:
  - meal-program
  address: {street: 29840 Euclid Ave, city: Wickliffe, state: oh, zip: '44092'}
  place: '3985036'
  geo: {lat: 41.61321, lng: -81.4653}
  phone: 440-585-0700
  external_ids: {oh-greater-cleveland-food-bank: '20'}
  sources:
  - foodbank/oh-greater-cleveland-food-bank
  verified: {'on': '2026-07-21', method: scrape}
- id: oh/wickliffe/our-lady-of-mt-carmel-2
  name: Our Lady of Mt. Carmel
  org: oh/greater-cleveland-food-bank
  categories:
  - food-pantry
  address: {street: 1730 Mount Carmel Dr, city: Wickliffe, state: oh, zip: '44092'}
  place: '3985036'
  geo: {lat: 41.61047, lng: -81.46536}
  phone: 440-585-0700
  external_ids: {oh-greater-cleveland-food-bank: '294'}
  sources:
  - foodbank/oh-greater-cleveland-food-bank
  verified: {'on': '2026-07-21', method: scrape}
- id: oh/wickliffe/signature-health-wickliffe
  name: Signature Health - Wickliffe
  categories:
  - community-health-center
  cost: sliding-scale
  address: {street: 2255 Rockefeller Rd, city: Wickliffe, state: oh, zip: '44092'}
  place: '3985036'
  geo: {lat: 41.59906, lng: -81.46441}
  phone: 440-578-8200
  website: https://www.signaturehealthinc.org/
  external_ids: {bphc: BPS-H80-035359}
  sources:
  - hrsa/health-center-sites
  verified: {'on': '2026-07-19', method: api}
- id: oh/wickliffe/vineyard-community-church
  name: Vineyard Community Church
  org: oh/greater-cleveland-food-bank
  categories:
  - food-pantry
  address: {street: 1928 E 300th St, city: Wickliffe, state: oh, zip: '44092'}
  place: '3985036'
  geo: {lat: 41.60642, lng: -81.46215}
  phone: 440-944-4402
  external_ids: {oh-greater-cleveland-food-bank: '129'}
  sources:
  - foodbank/oh-greater-cleveland-food-bank
  verified: {'on': '2026-07-21', method: scrape}
