- id: va/centreville/centre-ridge-elem
  name: Centre Ridge Elem
  categories:
  - meal-program
  address: {street: 14400 New Braddock Rd, city: Centreville, state: va, zip: '20121'}
  description: Free summer meals for kids and teens (2026 season) — sponsored by Fairfax County Public
    Schools.
  place: '5114440'
  geo: {lat: 38.82489, lng: -77.44554}
  external_ids: {usda_master: Cycle 08_VA_SFSP_0253}
  sources:
  - usda/summer-meal-sites
  verified: {'on': '2026-07-19', method: api}
- id: va/centreville/centre-ridge-elementary
  name: Centre Ridge Elementary
  categories:
  - child-care
  address: {street: 14400 New Braddock Rd, city: Centreville, state: va, zip: '20121'}
  description: Head Start early childhood program — 16 funded slots; operated by Fairfax County Public
    Schools.
  place: '5114440'
  geo: {lat: 38.82581, lng: -77.44625}
  phone: 703-227-2603
  sources:
  - acf/head-start-locations
  verified: {'on': '2026-07-19', method: api}
- id: va/centreville/centreville-united-methodist-church
  name: Centreville United Methodist Church
  org: dc/capital-area-food-bank
  categories:
  - food-pantry
  address: {street: 6400 Old Centreville Rd, city: Centreville, state: va, zip: '20121'}
  place: '5114440'
  geo: {lat: 38.8256, lng: -77.43988}
  phone: 703-830-2684
  external_ids: {dc-capital-area-food-bank: '244'}
  sources:
  - foodbank/dc-capital-area-food-bank
  verified: {'on': '2026-07-21', method: api}
- id: va/centreville/grace-community-center
  name: Grace Community Center
  categories:
  - free-clinic
  - health
  address: {street: '14631 Lee Hwy #313', city: Centreville, state: va, zip: '20121'}
  geo: {lat: 38.83452, lng: -77.45442}
  place: '5114440'
  phone: 703-650-9099
  website: https://www.gcchealthsystem.org
  cost: free
  external_ids: {nafc: grace-community-center}
  sources:
  - nafc/find-a-clinic
  verified: {'on': '2026-07-21', method: scrape}
- id: va/centreville/london-towne-elem
  name: London Towne Elem
  categories:
  - meal-program
  address: {street: 6100 Stone Rd, city: Centreville, state: va, zip: '20120'}
  description: Free summer meals for kids and teens (2026 season) — sponsored by Fairfax County Public
    Schools.
  place: '5114440'
  geo: {lat: 38.83946, lng: -77.45559}
  external_ids: {usda_master: Cycle 03_VA_SFSP_0238}
  sources:
  - usda/summer-meal-sites
  verified: {'on': '2026-07-19', method: api}
- id: va/centreville/london-towne-elementary
  name: London Towne Elementary
  categories:
  - child-care
  address: {street: 6100 Stone Rd, city: Centreville, state: va, zip: '20120'}
  description: Head Start early childhood program — 7 funded slots; operated by Fairfax County Public
    Schools.
  place: '5114440'
  geo: {lat: 38.83963, lng: -77.45653}
  phone: 703-227-5466
  sources:
  - acf/head-start-locations
  verified: {'on': '2026-07-19', method: api}
- id: va/centreville/mount-olive-baptist-church
  name: Mount Olive Baptist Church
  org: dc/capital-area-food-bank
  categories:
  - food-pantry
  address: {street: 6600 Old Centerville Rd, street2: n/a, city: Centerville, state: va, zip: '20121'}
  place: '5114440'
  geo: {lat: 38.81954, lng: -77.44571}
  phone: 571-216-4861
  external_ids: {dc-capital-area-food-bank: '171'}
  sources:
  - foodbank/dc-capital-area-food-bank
  verified: {'on': '2026-07-21', method: api}
