- id: va/clintwood/clintwood-head-start-center
  name: Clintwood Head Start Center
  categories:
  - child-care
  address:
    street: 393 Main St
    city: Clintwood
    state: va
    zip: '24228'
  place: '5117552'
  geo:
    lat: 37.15089
    lng: -82.45531
  phone: 276-679-0514
  sources:
  - acf/head-start-locations
  verified:
    'on': '2026-07-19'
    method: api
- id: va/clintwood/dickenson-community-hospital
  name: Dickenson Community Hospital
  categories:
  - mh-treatment
  address:
    street: 312 Hospital Drive
    city: Clintwood
    state: va
    zip: '24228'
  place: '5117552'
  geo:
    lat: 37.16071
    lng: -82.44925
  phone: 276-926-0300
  website: https://www.balladhealth.org
  sources:
  - samhsa/findtreatment
  verified:
    'on': '2026-07-19'
    method: api
- id: va/clintwood/dickenson-county-behav-health-servs
  name: Dickenson County Behav Health Servs
  categories:
  - su-treatment
  address:
    street: 440 Fox Town Road
    city: Clintwood
    state: va
    zip: '24228'
  place: '5117552'
  geo:
    lat: 37.15102
    lng: -82.44848
  phone: 276-926-1680
  website: https://www.dcbhs.com
  sources:
  - samhsa/findtreatment
  verified:
    'on': '2026-07-19'
    method: api
- id: va/clintwood/dickenson-county-child-care
  name: Dickenson County Child Care
  categories:
  - child-care
  address:
    street: 673 Technology Dr
    city: Clintwood
    state: va
    zip: '24228'
  place: '5117552'
  geo:
    lat: 37.14453
    lng: -82.43996
  phone: 276-623-9000
  sources:
  - acf/head-start-locations
  verified:
    'on': '2026-07-19'
    method: api
- id: va/clintwood/savida-health-clintwood
  name: Savida Health Clintwood
  categories:
  - su-treatment
  - mh-treatment
  address:
    street: 160 Court House Lane
    city: Clintwood
    state: va
    zip: '24228'
  place: '5117552'
  geo:
    lat: 37.15076
    lng: -82.4561
  phone: 276-409-5440
  website: https://www.savidahealth.com
  sources:
  - samhsa/findtreatment
  verified:
    'on': '2026-07-19'
    method: api
