- id: va/galax/galax-center
  name: Galax Center
  categories:
  - child-care
  address:
    street: 125 Rosenwald Felts Dr
    city: Galax
    state: va
    zip: '24333'
  place: '5130208'
  geo:
    lat: 36.66878
    lng: -80.91075
  phone: 276-238-8633
  sources:
  - acf/head-start-locations
  verified:
    'on': '2026-07-19'
    method: api
- id: va/galax/galax-early-head-start-center
  name: Galax Early Head Start Center
  categories:
  - child-care
  address:
    street: 8342 Carrollton Pike
    city: Galax
    state: va
    zip: '24333'
  place: '5130208'
  geo:
    lat: 36.69475
    lng: -80.87415
  phone: 276-236-2874
  sources:
  - acf/head-start-locations
  verified:
    'on': '2026-07-19'
    method: api
- id: va/galax/life-center-of-galax
  name: Life Center of Galax
  categories:
  - su-treatment
  address:
    street: 112 Painter Street
    city: Galax
    state: va
    zip: '24333'
  place: '5130208'
  geo:
    lat: 36.65845
    lng: -80.92902
  phone: 276-236-2994
  website: https://www.galaxrecovery.com
  sources:
  - samhsa/findtreatment
  verified:
    'on': '2026-07-19'
    method: api
- id: va/galax/mount-rogers-community-services-board-fernwood-c
  name: Mount Rogers Community Services Board Fernwood Counseling Center
  categories:
  - su-treatment
  - mh-treatment
  address:
    street: 6999 Carrollton Pike
    city: Galax
    state: va
    zip: '24333'
  place: '5130208'
  geo:
    lat: 36.70183
    lng: -80.85051
  phone: 276-238-5600
  website: https://www.mountrogers.org
  sources:
  - samhsa/findtreatment
  verified:
    'on': '2026-07-19'
    method: api
- id: va/galax/new-river-comprehensive-treatment-ctr-galax-trea
  name: New River Comprehensive Treatment Ctr Galax Treatment Center LLC
  categories:
  - su-treatment
  address:
    street: 140 Larkspur Lane
    city: Galax
    state: va
    zip: '24333'
  place: '5130208'
  geo:
    lat: 36.6757
    lng: -80.90872
  phone: 276-236-6341
  website: https://www.ctcprograms.com/location/new river-comprehensive-treatment-center/
  sources:
  - samhsa/findtreatment
  verified:
    'on': '2026-07-19'
    method: api
- id: va/galax/sobrius-curae
  name: Sobrius Curae
  categories:
  - su-treatment
  address:
    street: 506 Cliffview Road
    city: Galax
    state: va
    zip: '24333'
  place: '5130208'
  geo:
    lat: 36.68201
    lng: -80.91864
  phone: 276-601-2736 x1000
  website: https://sobrius.health/
  sources:
  - samhsa/findtreatment
  verified:
    'on': '2026-07-19'
    method: api
- id: va/galax/spero-health
  name: Spero Health
  categories:
  - su-treatment
  address:
    street: 105 Doctors Park
    city: Galax
    state: va
    zip: '24333'
  place: '5130208'
  geo:
    lat: 36.67164
    lng: -80.92073
  phone: 276-263-8410
  website: https://www.sperohealth.com
  sources:
  - samhsa/findtreatment
  verified:
    'on': '2026-07-19'
    method: api
- id: va/galax/tri-area-community-health-at-galax-schools
  name: Tri-Area Community Health at Galax Schools
  categories:
  - community-health-center
  address:
    street: 200 Maroon Tide Dr
    city: Galax
    state: va
    zip: '24333'
  place: '5130208'
  geo:
    lat: 36.65432
    lng: -80.92509
  phone: 276-398-2292
  website: https://www.triareahealth.org/
  external_ids:
    bphc: BPS-H80-037190
  sources:
  - hrsa/health-center-sites
  verified:
    'on': '2026-07-19'
    method: api
