- id: va/galax/fairview-elem
  name: Fairview Elem
  categories:
  - meal-program
  address:
    street: 2323 Fairview Rd
    city: Galax
    state: va
    zip: '24333'
  description: Free summer meals for kids and teens (2026 season) — sponsored by Grayson County Public
    Schools.
  place: '5130208'
  geo:
    lat: 36.58364
    lng: -80.91135
  phone: (276) 773-2172
  external_ids:
    usda_master: Cycle 01_VA_SFSP_0088
  sources:
  - usda/summer-meal-sites
  verified:
    'on': '2026-07-19'
    method: api
- id: va/galax/galax-center
  name: Galax Center
  categories:
  - child-care
  address:
    street: 125 Rosenwald Felts Dr
    city: Galax
    state: va
    zip: '24333'
  place: '5130208'
  geo:
    lat: 36.66878
    lng: -80.91075
  phone: 276-238-8633
  sources:
  - acf/head-start-locations
  verified:
    'on': '2026-07-19'
    method: api
- id: va/galax/galax-early-head-start-center
  name: Galax Early Head Start Center
  categories:
  - child-care
  address:
    street: 8342 Carrollton Pike
    city: Galax
    state: va
    zip: '24333'
  place: '5130208'
  geo:
    lat: 36.69475
    lng: -80.87415
  phone: 276-236-2874
  sources:
  - acf/head-start-locations
  verified:
    'on': '2026-07-19'
    method: api
- id: va/galax/galax-elem
  name: Galax Elem
  categories:
  - meal-program
  address:
    street: 300 Mcarthur Street
    city: Galax
    state: va
    zip: '24333'
  description: Free summer meals for kids and teens (2026 season) — sponsored by Galax City Public Schools.
  place: '5130208'
  geo:
    lat: 36.65772
    lng: -80.92489
  external_ids:
    usda_master: Cycle 01_VA_SFSP_0165
  sources:
  - usda/summer-meal-sites
  verified:
    'on': '2026-07-19'
    method: api
- id: va/galax/galax-high
  name: Galax High
  categories:
  - meal-program
  address:
    street: 200 Maroon Tide Dr
    city: Galax
    state: va
    zip: '24333'
  description: Free summer meals for kids and teens (2026 season) — sponsored by Galax City Public Schools.
  place: '5130208'
  geo:
    lat: 36.65495
    lng: -80.92514
  external_ids:
    usda_master: Cycle 01_VA_SFSP_0166
  sources:
  - usda/summer-meal-sites
  verified:
    'on': '2026-07-19'
    method: api
- id: va/galax/gladeville-elem
  name: Gladeville Elem
  categories:
  - meal-program
  address:
    street: 3117 Glendale Rd
    city: Galax
    state: va
    zip: '24333'
  description: Free summer meals for kids and teens (2026 season) — sponsored by Carroll County Public
    Schools.
  place: '5130208'
  geo:
    lat: 36.69844
    lng: -80.87816
  phone: (276) 236-5449
  external_ids:
    usda_master: Cycle 01_VA_SFSP_0090
  sources:
  - usda/summer-meal-sites
  verified:
    'on': '2026-07-19'
    method: api
- id: va/galax/life-center-of-galax
  name: Life Center of Galax
  categories:
  - su-treatment
  address:
    street: 112 Painter Street
    city: Galax
    state: va
    zip: '24333'
  place: '5130208'
  geo:
    lat: 36.65845
    lng: -80.92902
  phone: 276-236-2994
  website: https://www.galaxrecovery.com
  sources:
  - samhsa/findtreatment
  verified:
    'on': '2026-07-19'
    method: api
- id: va/galax/loaves-fish-galax
  name: Loaves & Fish- Galax
  categories:
  - meal-program
  address:
    street: 627 Glendale Rd
    city: Galax
    state: va
    zip: '24333'
  description: Free summer meals for kids and teens (2026 season) — sponsored by Feeding America Southwest
    Virginia.
  place: '5130208'
  geo:
    lat: 36.67445
    lng: -80.91593
  phone: (276) 733-9238
  external_ids:
    usda_master: Cycle 01_VA_SFSP_0307
  sources:
  - usda/summer-meal-sites
  verified:
    'on': '2026-07-19'
    method: api
- id: va/galax/mount-rogers-community-services-board-fernwood-c
  name: Mount Rogers Community Services Board Fernwood Counseling Center
  categories:
  - su-treatment
  - mh-treatment
  address:
    street: 6999 Carrollton Pike
    city: Galax
    state: va
    zip: '24333'
  place: '5130208'
  geo:
    lat: 36.70183
    lng: -80.85051
  phone: 276-238-5600
  website: https://www.mountrogers.org
  sources:
  - samhsa/findtreatment
  verified:
    'on': '2026-07-19'
    method: api
- id: va/galax/new-river-comprehensive-treatment-ctr-galax-trea
  name: New River Comprehensive Treatment Ctr Galax Treatment Center LLC
  categories:
  - su-treatment
  address:
    street: 140 Larkspur Lane
    city: Galax
    state: va
    zip: '24333'
  place: '5130208'
  geo:
    lat: 36.6757
    lng: -80.90872
  phone: 276-236-6341
  website: https://www.ctcprograms.com/location/new river-comprehensive-treatment-center/
  sources:
  - samhsa/findtreatment
  verified:
    'on': '2026-07-19'
    method: api
- id: va/galax/sobrius-curae
  name: Sobrius Curae
  categories:
  - su-treatment
  address:
    street: 506 Cliffview Road
    city: Galax
    state: va
    zip: '24333'
  place: '5130208'
  geo:
    lat: 36.68201
    lng: -80.91864
  phone: 276-601-2736 x1000
  website: https://sobrius.health/
  sources:
  - samhsa/findtreatment
  verified:
    'on': '2026-07-19'
    method: api
- id: va/galax/spero-health
  name: Spero Health
  categories:
  - su-treatment
  address:
    street: 105 Doctors Park
    city: Galax
    state: va
    zip: '24333'
  place: '5130208'
  geo:
    lat: 36.67164
    lng: -80.92073
  phone: 276-263-8410
  website: https://www.sperohealth.com
  sources:
  - samhsa/findtreatment
  verified:
    'on': '2026-07-19'
    method: api
- id: va/galax/tri-area-community-health-at-galax-schools
  name: Tri-Area Community Health at Galax Schools
  categories:
  - community-health-center
  address:
    street: 200 Maroon Tide Dr
    city: Galax
    state: va
    zip: '24333'
  place: '5130208'
  geo:
    lat: 36.65432
    lng: -80.92509
  phone: 276-398-2292
  website: https://www.triareahealth.org/
  external_ids:
    bphc: BPS-H80-037190
  sources:
  - hrsa/health-center-sites
  verified:
    'on': '2026-07-19'
    method: api
