- id: va/gate-city/gate-city-middle
  name: Gate City Middle
  categories:
  - meal-program
  address:
    street: 170 Harry Fry Drive
    city: Gate City
    state: va
    zip: '24251'
  description: Free summer meals for kids and teens (2026 season) — sponsored by Scott County Public Schools.
  place: '5130496'
  geo:
    lat: 36.63915
    lng: -82.57002
  external_ids:
    usda_master: Cycle 02_VA_SFSP_0352
  sources:
  - usda/summer-meal-sites
  verified:
    'on': '2026-07-19'
    method: api
- id: va/gate-city/scott-county-department-of-social-services
  name: Scott County Department of Social Services
  categories:
  - utility-assistance
  description: LIHEAP intake office serving Scott County
  address:
    street: 190 Beech Street, Suite 101
    city: Gate City
    state: va
    zip: 24251-0637
  place: '5130496'
  phone: 276-386-3631
  sources:
  - acf/liheap-clearinghouse
  verified:
    'on': '2026-07-19'
    method: scrape
  geo:
    lat: 36.63967
    lng: -82.572
- id: va/gate-city/shoemaker-1-2-head-start
  name: Shoemaker 1 & 2 Head Start
  categories:
  - child-care
  address: {street: 231 Bishop St, city: Gate City, state: va, zip: '24251'}
  description: Head Start early childhood program — 32 funded slots; operated by Scott County Public Schools.
  place: '5130496'
  geo: {lat: 36.63992, lng: -82.57318}
  phone: 276-386-2502
  sources:
  - acf/head-start-locations
  verified: {'on': '2026-07-19', method: api}
- id: va/gate-city/shoemaker-4-head-start
  name: Shoemaker 4 Head Start
  categories:
  - child-care
  address: {street: 218 Shoemaker Dr, city: Gate City, state: va, zip: '24251'}
  description: Head Start early childhood program — 16 funded slots; operated by Scott County Public Schools.
  place: '5130496'
  geo: {lat: 36.64111, lng: -82.57635}
  phone: 276-386-7283
  sources:
  - acf/head-start-locations
  verified: {'on': '2026-07-19', method: api}
- id: va/gate-city/shoemaker-ehs-1-2
  name: Shoemaker EHS 1 & 2
  categories:
  - child-care
  address: {street: 227 Bishop St, city: Gate City, state: va, zip: '24251'}
  description: Head Start early childhood program — 8 funded slots; operated by Scott County Public Schools.
  place: '5130496'
  geo: {lat: 36.63992, lng: -82.57318}
  phone: 276-386-2858
  sources:
  - acf/head-start-locations
  verified: {'on': '2026-07-19', method: api}
- id: va/gate-city/shoemaker-elem
  name: Shoemaker Elem
  categories:
  - meal-program
  address:
    street: 218 Shoemaker Dr
    city: Gate City
    state: va
    zip: '24251'
  description: Free summer meals for kids and teens (2026 season) — sponsored by Scott County Public Schools.
  place: '5130496'
  geo:
    lat: 36.64018
    lng: -82.57484
  external_ids:
    usda_master: Cycle 02_VA_SFSP_0348
  sources:
  - usda/summer-meal-sites
  verified:
    'on': '2026-07-19'
    method: api
- id: va/gate-city/yuma-elem
  name: Yuma Elem
  categories:
  - meal-program
  address:
    street: 130 Grover Cleveland Lane
    city: Gate City
    state: va
    zip: '24251'
  description: Free summer meals for kids and teens (2026 season) — sponsored by Scott County Public Schools.
  place: '5130496'
  geo:
    lat: 36.61768
    lng: -82.62899
  external_ids:
    usda_master: Cycle 02_VA_SFSP_0353
  sources:
  - usda/summer-meal-sites
  verified:
    'on': '2026-07-19'
    method: api
