- id: va/madison-heights/amherst-county-community-health-center
  name: Amherst County Community Health Center
  categories:
  - community-health-center
  address:
    street: 109 Clearview Rd
    city: Madison Heights
    state: va
    zip: '24572'
  place: '5148520'
  geo:
    lat: 37.4686
    lng: -79.12033
  phone: 434-929-1400
  website: https://www.jhcvirginia.org/
  external_ids:
    bphc: BPS-H80-038666
  sources:
  - hrsa/health-center-sites
  verified:
    'on': '2026-07-19'
    method: api
- id: va/madison-heights/johnson-health-center-administration
  name: Johnson Health Center Administration
  categories:
  - community-health-center
  address:
    street: 134 Elon Rd
    city: Madison Heights
    state: va
    zip: '24572'
  place: '5148520'
  geo:
    lat: 37.46749
    lng: -79.12063
  phone: 434-455-2480
  website: https://www.jhcvirginia.org
  external_ids:
    bphc: BPS-H80-011542
  sources:
  - hrsa/health-center-sites
  verified:
    'on': '2026-07-19'
    method: api
- id: va/madison-heights/johnson-health-center-administration-and-facilit
  name: Johnson Health Center Administration and Facilities
  categories:
  - community-health-center
  address:
    street: 148 Elon Rd
    city: Madison Heights
    state: va
    zip: '24572'
  place: '5148520'
  geo:
    lat: 37.46721
    lng: -79.12116
  phone: 434-929-1400
  external_ids:
    bphc: BPS-H80-032363
  sources:
  - hrsa/health-center-sites
  verified:
    'on': '2026-07-19'
    method: api
- id: va/madison-heights/johnson-health-center-community-dental-program
  name: Johnson Health Center Community Dental Program
  categories:
  - community-health-center
  address:
    street: 134 Elon Rd
    city: Madison Heights
    state: va
    zip: '24572'
  place: '5148520'
  geo:
    lat: 37.46749
    lng: -79.12063
  phone: 434-929-1400
  website: https://www.jhcvirginia.org
  external_ids:
    bphc: BPS-H80-029753
  sources:
  - hrsa/health-center-sites
  verified:
    'on': '2026-07-19'
    method: api
- id: va/madison-heights/johnson-health-center-mobile-medical-van-1
  name: Johnson Health Center Mobile Medical Van 1
  categories:
  - community-health-center
  address:
    street: 134 Elon Rd
    city: Madison Heights
    state: va
    zip: '24572'
  place: '5148520'
  geo:
    lat: 37.46749
    lng: -79.12063
  phone: 434-929-1400
  external_ids:
    bphc: BPS-H80-032606
  sources:
  - hrsa/health-center-sites
  verified:
    'on': '2026-07-19'
    method: api
- id: va/madison-heights/lyncag-head-start-madison-heights
  name: LynCAG Head Start Madison Heights
  categories:
  - child-care
  address:
    street: 287 Learning Ln
    city: Madison Heights
    state: va
    zip: '24572'
  place: '5148520'
  geo:
    lat: 37.4321
    lng: -79.13386
  phone: 434-849-7542
  sources:
  - acf/head-start-locations
  verified:
    'on': '2026-07-19'
    method: api
- id: va/madison-heights/madison-heights-christian-church
  name: Madison Heights Christian Church
  categories:
  - food-pantry
  place: '5148520'
  geo:
    lat: 37.42768
    lng: -79.12482
  external_ids:
    lfp: '463'
  sources:
  - littlefreepantry/map
  verified:
    'on': '2026-07-19'
    method: scrape
