- id: va/madison-heights/amelon-elem
  name: Amelon Elem
  categories:
  - meal-program
  address: {street: 132 Amer Court, city: Madison Heights, state: va, zip: '24572'}
  description: Free summer meals for kids and teens (2026 season) — sponsored by Amherst County Public
    Schools.
  place: '5148520'
  geo: {lat: 37.47008, lng: -79.1183}
  external_ids: {usda_master: Cycle 01_VA_SFSP_0027}
  sources:
  - usda/summer-meal-sites
  verified: {'on': '2026-07-19', method: api}
- id: va/madison-heights/amherst-county-community-health-center
  name: Amherst County Community Health Center
  categories:
  - community-health-center
  cost: sliding-scale
  address: {street: 109 Clearview Rd, city: Madison Heights, state: va, zip: '24572'}
  place: '5148520'
  geo: {lat: 37.4686, lng: -79.12033}
  phone: 434-929-1400
  website: https://www.jhcvirginia.org/
  external_ids: {bphc: BPS-H80-038666}
  sources:
  - hrsa/health-center-sites
  verified: {'on': '2026-07-19', method: api}
- id: va/madison-heights/elon-elem
  name: Elon Elem
  categories:
  - meal-program
  address: {street: 147 Younger Dr, city: Madison Heights, state: va, zip: '24572'}
  description: Free summer meals for kids and teens (2026 season) — sponsored by Amherst County Public
    Schools.
  place: '5148520'
  geo: {lat: 37.51432, lng: -79.19433}
  external_ids: {usda_master: Cycle 01_VA_SFSP_0025}
  sources:
  - usda/summer-meal-sites
  verified: {'on': '2026-07-19', method: api}
- id: va/madison-heights/johnson-health-center-community-dental-program
  name: Johnson Health Center Community Dental Program
  categories:
  - community-health-center
  cost: sliding-scale
  address: {street: 134 Elon Rd, city: Madison Heights, state: va, zip: '24572'}
  place: '5148520'
  geo: {lat: 37.46749, lng: -79.12063}
  phone: 434-929-1400
  website: https://www.jhcvirginia.org
  external_ids: {bphc: BPS-H80-029753}
  sources:
  - hrsa/health-center-sites
  verified: {'on': '2026-07-19', method: api}
- id: va/madison-heights/johnson-health-center-mobile-medical-van-1
  name: Johnson Health Center Mobile Medical Van 1
  categories:
  - community-health-center
  cost: sliding-scale
  address: {street: 134 Elon Rd, city: Madison Heights, state: va, zip: '24572'}
  place: '5148520'
  geo: {lat: 37.46749, lng: -79.12063}
  phone: 434-929-1400
  external_ids: {bphc: BPS-H80-032606}
  sources:
  - hrsa/health-center-sites
  verified: {'on': '2026-07-19', method: api}
- id: va/madison-heights/lyncag-head-start-madison-heights
  name: LynCAG Head Start Madison Heights
  categories:
  - child-care
  address: {street: 287 Learning Ln, city: Madison Heights, state: va, zip: '24572'}
  description: Head Start early childhood program — 34 funded slots; operated by Lynchburg Community Action
    Group, Inc.
  place: '5148520'
  geo: {lat: 37.4321, lng: -79.13386}
  phone: 434-849-7542
  sources:
  - acf/head-start-locations
  verified: {'on': '2026-07-19', method: api}
- id: va/madison-heights/madison-heights-christian-church
  name: Madison Heights Christian Church
  categories:
  - food-pantry
  place: '5148520'
  geo: {lat: 37.42768, lng: -79.12482}
  website: https://mapping.littlefreepantry.org/pantry/463
  external_ids: {lfp: '463'}
  sources:
  - littlefreepantry/map
  verified: {'on': '2026-07-19', method: scrape}
- id: va/madison-heights/madison-heights-elem
  name: Madison Heights Elem
  categories:
  - meal-program
  address: {street: 287 Learning Lane, city: Madison Heights, state: va, zip: '24572'}
  description: Free summer meals for kids and teens (2026 season) — sponsored by Amherst County Public
    Schools.
  place: '5148520'
  geo: {lat: 37.43253, lng: -79.13403}
  external_ids: {usda_master: Cycle 01_VA_SFSP_0022}
  sources:
  - usda/summer-meal-sites
  verified: {'on': '2026-07-19', method: api}
- id: va/madison-heights/monelison-middle
  name: Monelison Middle
  categories:
  - meal-program
  address: {street: 257 Trojan Rd, city: Madison Heights, state: va, zip: '24572'}
  description: Free summer meals for kids and teens (2026 season) — sponsored by Amherst County Public
    Schools.
  place: '5148520'
  geo: {lat: 37.45446, lng: -79.11408}
  external_ids: {usda_master: Cycle 01_VA_SFSP_0021}
  sources:
  - usda/summer-meal-sites
  verified: {'on': '2026-07-19', method: api}
- id: va/madison-heights/scott-zion-baptist-church
  name: Scott Zion Baptist Church
  categories:
  - meal-program
  address: {street: 2579 Galts Mill Rd, city: Madison Heights, state: va, zip: '24572'}
  description: Free summer meals for kids and teens (2026 season) — sponsored by Amherst County Public
    Schools.
  place: '5148520'
  geo: {lat: 37.44544, lng: -79.06688}
  phone: (434) 528-5498
  external_ids: {usda_master: Cycle 01_VA_SFSP_0031}
  sources:
  - usda/summer-meal-sites
  verified: {'on': '2026-07-19', method: api}
- id: va/madison-heights/tanglewood-mobile-home-park
  name: Tanglewood Mobile Home Park
  categories:
  - meal-program
  address: {street: 222 Tanglewood Dr., city: Madison Heights, state: va, zip: '24572'}
  description: Free summer meals for kids and teens (2026 season) — sponsored by Amherst County Public
    Schools.
  place: '5148520'
  geo: {lat: 37.47929, lng: -79.06531}
  phone: (434) 528-9562
  external_ids: {usda_master: Cycle 01_VA_SFSP_0030}
  sources:
  - usda/summer-meal-sites
  verified: {'on': '2026-07-19', method: api}
