- id: va/pulaski/ehs-ptnr-ymca-pulaski
  name: EHS - PTNR - YMCA Pulaski
  categories:
  - child-care
  address:
    street: 615 Oakhurst Ave
    city: Pulaski
    state: va
    zip: '24301'
  place: '5164880'
  geo:
    lat: 37.06147
    lng: -80.76555
  phone: 540-980-3671
  sources:
  - acf/head-start-locations
  verified:
    'on': '2026-07-19'
    method: api
- id: va/pulaski/girl-scout-troop-2032-pantry-library
  name: Girl Scout Troop 2032 Pantry/Library
  categories:
  - food-pantry
  place: '5164880'
  geo:
    lat: 37.05594
    lng: -80.74885
  external_ids:
    lfp: '746'
  sources:
  - littlefreepantry/map
  verified:
    'on': '2026-07-19'
    method: scrape
- id: va/pulaski/gs-troop-2032-jcumc-little-free-pantry
  name: GS Troop 2032/JCUMC Little Free Pantry
  categories:
  - food-pantry
  place: '5164880'
  geo:
    lat: 37.08452
    lng: -80.77375
  external_ids:
    lfp: '984'
  sources:
  - littlefreepantry/map
  verified:
    'on': '2026-07-19'
    method: scrape
- id: va/pulaski/lewisgale-hospital-pulaski-transitions-behaviora
  name: LewisGale Hospital Pulaski Transitions Behavioral Health
  categories:
  - su-treatment
  - mh-treatment
  address:
    street: 2400 Lee Highway
    city: Pulaski
    state: va
    zip: '24301'
  place: '5164880'
  geo:
    lat: 37.06835
    lng: -80.75712
  phone: 540-440-4433
  website: https://www.lewisgale.com
  sources:
  - samhsa/findtreatment
  verified:
    'on': '2026-07-19'
    method: api
- id: va/pulaski/new-river-valley-community-services-pulaski-cent
  name: New River Valley Community Services Pulaski Center
  categories:
  - su-treatment
  - mh-treatment
  address:
    street: 327 North Washington Avenue
    city: Pulaski
    state: va
    zip: '24301'
  place: '5164880'
  geo:
    lat: 37.04948
    lng: -80.7803
  phone: 540-994-5023
  website: https://www.nrvcs.org
  sources:
  - samhsa/findtreatment
  verified:
    'on': '2026-07-19'
    method: api
- id: va/pulaski/pulaski-head-start
  name: Pulaski Head Start
  categories:
  - child-care
  address:
    street: 1520 Bob White Blvd
    city: Pulaski
    state: va
    zip: '24301'
  place: '5164880'
  geo:
    lat: 37.05349
    lng: -80.74935
  phone: 540-994-5740
  sources:
  - acf/head-start-locations
  verified:
    'on': '2026-07-19'
    method: api
