- id: va/roanoke/blue-ridge-behavioral-healthcare
  name: Blue Ridge Behavioral Healthcare
  categories:
  - su-treatment
  - mh-treatment
  address:
    street: 611 McDowell Avenue NW
    city: Roanoke
    state: va
    zip: '24016'
  place: '5168000'
  geo:
    lat: 37.28258
    lng: -79.94929
  phone: 540-266-9200
  website: https://www.brbh.org
  sources:
  - samhsa/findtreatment
  verified:
    'on': '2026-07-19'
    method: api
- id: va/roanoke/blue-ridge-behavioral-healthcare-child-youth-and
  name: Blue Ridge Behavioral Healthcare Child Youth and Family Services
  categories:
  - su-treatment
  - mh-treatment
  address:
    street: 1315 Franklin Road SW
    city: Roanoke
    state: va
    zip: '24016'
  place: '5168000'
  geo:
    lat: 37.26182
    lng: -79.94712
  phone: 540-981-1102
  website: https://www.brbh.org/
  sources:
  - samhsa/findtreatment
  verified:
    'on': '2026-07-19'
    method: api
- id: va/roanoke/blue-ridge-behavioral-healthcare-rita-j-glinieck
  name: Blue Ridge Behavioral Healthcare Rita J Gliniecki Recovery Center
  categories:
  - su-treatment
  - mh-treatment
  address:
    street: 3003 Hollins Road NE
    city: Roanoke
    state: va
    zip: '24012'
  place: '5168000'
  geo:
    lat: 37.30261
    lng: -79.92496
  phone: 540-344-6208
  website: https://www.brbh.org
  sources:
  - samhsa/findtreatment
  verified:
    'on': '2026-07-19'
    method: api
- id: va/roanoke/cdc-betty-lou-brown
  name: CDC - Betty Lou Brown
  categories:
  - child-care
  address:
    street: 206 9th St NW
    city: Roanoke
    state: va
    zip: '24016'
  place: '5168000'
  geo:
    lat: 37.27706
    lng: -79.95518
  phone: 540-342-9491
  sources:
  - acf/head-start-locations
  verified:
    'on': '2026-07-19'
    method: api
- id: va/roanoke/cdc-brand-hardin-sims
  name: CDC - Brand Hardin Sims
  categories:
  - child-care
  address:
    street: 702 Shenandoah Ave NW
    city: Roanoke
    state: va
    zip: '24017'
  place: '5168000'
  geo:
    lat: 37.27509
    lng: -79.95239
  phone: 540-345-3979
  sources:
  - acf/head-start-locations
  verified:
    'on': '2026-07-19'
    method: api
- id: va/roanoke/cdc-indian-village
  name: CDC - Indian Village
  categories:
  - child-care
  address:
    street: 1916 Wise Ave SE
    city: Roanoke
    state: va
    zip: '24013'
  place: '5168000'
  geo:
    lat: 37.2778
    lng: -79.91346
  phone: 540-344-0751
  sources:
  - acf/head-start-locations
  verified:
    'on': '2026-07-19'
    method: api
- id: va/roanoke/cdc-jefferson-street
  name: CDC - Jefferson Street
  categories:
  - child-care
  address:
    street: 413 N Jefferson St
    city: Roanoke
    state: va
    zip: '24016'
  place: '5168000'
  geo:
    lat: 37.2764
    lng: -79.94042
  phone: 540-345-3301
  sources:
  - acf/head-start-locations
  verified:
    'on': '2026-07-19'
    method: api
- id: va/roanoke/cdc-marmion
  name: CDC - Marmion
  categories:
  - child-care
  address:
    street: 1114 Grayson Ave NW
    city: Roanoke
    state: va
    zip: '24017'
  place: '5168000'
  geo:
    lat: 37.28825
    lng: -79.95504
  phone: 540-345-1194
  sources:
  - acf/head-start-locations
  verified:
    'on': '2026-07-19'
    method: api
- id: va/roanoke/cdc-raleigh-court
  name: CDC - Raleigh Court
  categories:
  - child-care
  address:
    street: 2202 Grandin Rd SW
    city: Roanoke
    state: va
    zip: '24015'
  place: '5168000'
  geo:
    lat: 37.25656
    lng: -79.98216
  phone: 540-777-0914
  sources:
  - acf/head-start-locations
  verified:
    'on': '2026-07-19'
    method: api
- id: va/roanoke/ehs-ptnr-small-steps-infant-academy
  name: EHS - PTNR -Small Steps Infant Academy
  categories:
  - child-care
  address:
    street: 1224 Peters Creek Rd NW
    city: Roanoke
    state: va
    zip: '24017'
  place: '5168000'
  geo:
    lat: 37.29921
    lng: -80.00823
  phone: 540-562-8882
  sources:
  - acf/head-start-locations
  verified:
    'on': '2026-07-19'
    method: api
- id: va/roanoke/ehs-roanoke
  name: EHS Roanoke
  categories:
  - su-treatment
  - mh-treatment
  address:
    street: 601 Campbell Avenue SW
    city: Roanoke
    state: va
    zip: '24016'
  place: '5168000'
  geo:
    lat: 37.2713
    lng: -79.95259
  phone: 540-562-8556
  website: https://embracerecovery.org
  sources:
  - samhsa/findtreatment
  verified:
    'on': '2026-07-19'
    method: api
- id: va/roanoke/first-recovery-crescent-counseling-and-casework
  name: FIRST Recovery Crescent Counseling and Casework Servs
  categories:
  - su-treatment
  address:
    street: 2328 Peters Creek Road
    city: Roanoke
    state: va
    zip: '24017'
  place: '5168000'
  geo:
    lat: 37.31265
    lng: -80.00689
  phone: 540-491-4449
  website: https://www.crescentcounseling.com
  sources:
  - samhsa/findtreatment
  verified:
    'on': '2026-07-19'
    method: api
- id: va/roanoke/greenvale
  name: Greenvale
  categories:
  - child-care
  address:
    street: 627 Westwood Blvd NW
    city: Roanoke
    state: va
    zip: '24017'
  place: '5168000'
  geo:
    lat: 37.28461
    lng: -79.99526
  phone: 540-342-4716
  sources:
  - acf/head-start-locations
  verified:
    'on': '2026-07-19'
    method: api
- id: va/roanoke/intercept-true-north-health-clinic
  name: Intercept True North Health Clinic
  categories:
  - su-treatment
  - mh-treatment
  address:
    street: 5673 Airport Road
    city: Roanoke
    state: va
    zip: '24012'
  place: '5168000'
  geo:
    lat: 37.32383
    lng: -79.96097
  phone: 540-759-8209 x1
  website: https://www.truenorthclinicva.com
  sources:
  - samhsa/findtreatment
  verified:
    'on': '2026-07-19'
    method: api
- id: va/roanoke/kuumba-community-health-and-wellness-center-inc
  name: Kuumba Community Health and Wellness Center, Inc. d/b/a New Horizons Healthcare
  categories:
  - community-health-center
  address:
    street: 3716 Melrose Ave NW
    city: Roanoke
    state: va
    zip: '24017'
  place: '5168000'
  geo:
    lat: 37.2939
    lng: -79.998
  phone: 540-362-1788
  website: https://www.newhorizonshealthcare.org
  external_ids:
    bphc: BPS-H80-010106
  sources:
  - hrsa/health-center-sites
  verified:
    'on': '2026-07-19'
    method: api
- id: va/roanoke/mainstream-mental-health-services-inc
  name: Mainstream Mental Health Services Inc
  categories:
  - su-treatment
  - mh-treatment
  address:
    street: 707 5th Street NE
    city: Roanoke
    state: va
    zip: '24016'
  place: '5168000'
  geo:
    lat: 37.27885
    lng: -79.93129
  phone: 540-966-5808
  website: https://mainstreammh.com
  sources:
  - samhsa/findtreatment
  verified:
    'on': '2026-07-19'
    method: api
- id: va/roanoke/new-horizons-dental-care-williamson
  name: New Horizons Dental Care, Williamson
  categories:
  - community-health-center
  address:
    street: 1502 Williamson Rd NE, Ste 1000
    city: Roanoke
    state: va
    zip: '24012'
  place: '5168000'
  geo:
    lat: 37.28535
    lng: -79.93298
  phone: 540-362-0360
  website: https://newhorizonshealthcare.org
  external_ids:
    bphc: BPS-H80-033776
  sources:
  - hrsa/health-center-sites
  verified:
    'on': '2026-07-19'
    method: api
- id: va/roanoke/new-horizons-healthcare-administration-annex
  name: New Horizons Healthcare, Administration Annex
  categories:
  - community-health-center
  address:
    street: 3620 Melrose Ave NW
    city: Roanoke
    state: va
    zip: '24017'
  place: '5168000'
  geo:
    lat: 37.29384
    lng: -79.99706
  phone: 540-362-0360
  external_ids:
    bphc: BPS-H80-029410
  sources:
  - hrsa/health-center-sites
  verified:
    'on': '2026-07-19'
    method: api
- id: va/roanoke/pinnacle-treatment-services-of-roanoke
  name: Pinnacle Treatment Services of Roanoke
  categories:
  - su-treatment
  address:
    street: 3441 Brandon Avenue SW
    city: Roanoke
    state: va
    zip: '24018'
  place: '5168000'
  geo:
    lat: 37.26427
    lng: -80.00377
  phone: 540-981-5330
  website: https://pinnacletreatment.com/location/virginia/roanoke
  sources:
  - samhsa/findtreatment
  verified:
    'on': '2026-07-19'
    method: api
- id: va/roanoke/pw-roanoke-ehs
  name: PW - Roanoke EHS
  categories:
  - child-care
  address:
    street: 108 N Jefferson St
    street2: Ste 301
    city: Roanoke
    state: va
    zip: '24016'
  place: '5168000'
  geo:
    lat: 37.27447
    lng: -79.94088
  phone: 540-767-6093
  sources:
  - acf/head-start-locations
  verified:
    'on': '2026-07-19'
    method: api
- id: va/roanoke/roanoke-comprehensive-treatment-center
  name: Roanoke Comprehensive Treatment Center
  categories:
  - su-treatment
  address:
    street: 3208 Hershberger Road NW
    city: Roanoke
    state: va
    zip: '24017'
  place: '5168000'
  geo:
    lat: 37.30331
    lng: -79.98127
  phone: 540-366-5248
  website: https://www.ctcprograms.com/location/roanoke-comprehensive-treatment-center
  sources:
  - samhsa/findtreatment
  verified:
    'on': '2026-07-19'
    method: api
- id: va/roanoke/roanoke-redevelopment-housing-authority
  name: Roanoke Redevelopment & Housing Authority
  categories:
  - housing-assistance
  address: {street: 2624 Salem Tpke NW, city: Roanoke, state: va, zip: '24017'}
  description: Public housing and Housing Choice Voucher agency
  place: '5168000'
  geo: {lat: 37.28471, lng: -79.98113}
  phone: 540-983-9283
  sources:
  - hud/resource-locator
  verified: {'on': '2026-07-19', method: api}
