- id: va/saltville/mccready-head-start-center
  name: McCready Head Start Center
  categories:
  - child-care
  address:
    street: 632 Upper Poore Valley Rd
    city: Saltville
    state: va
    zip: '24370'
  place: '5170096'
  geo:
    lat: 36.918
    lng: -81.7338
  phone: 276-276-5583
  sources:
  - acf/head-start-locations
  verified:
    'on': '2026-07-19'
    method: api
- id: va/saltville/northwood-middle-school
  name: Northwood Middle School
  categories:
  - community-health-center
  address:
    street: 156 Long Hollow Rd
    city: Saltville
    state: va
    zip: '24370'
  place: '5170096'
  geo:
    lat: 36.92984
    lng: -81.62636
  phone: 276-496-4492
  external_ids:
    bphc: BPS-H80-031152
  sources:
  - hrsa/health-center-sites
  verified:
    'on': '2026-07-19'
    method: api
- id: va/saltville/saltville-community-health-center
  name: Saltville Community Health Center
  categories:
  - community-health-center
  address:
    street: 308 W Main St
    city: Saltville
    state: va
    zip: '24370'
  place: '5170096'
  geo:
    lat: 36.87638
    lng: -81.76914
  phone: 276-496-4433
  website: https://svchs.com
  external_ids:
    bphc: BPS-H80-001344
  sources:
  - hrsa/health-center-sites
  verified:
    'on': '2026-07-19'
    method: api
- id: va/saltville/saltville-elementary-school
  name: Saltville Elementary School
  categories:
  - community-health-center
  address:
    street: 1013 E Main St
    city: Saltville
    state: va
    zip: '24370'
  place: '5170096'
  geo:
    lat: 36.88912
    lng: -81.75523
  phone: 276-496-4492
  external_ids:
    bphc: BPS-H80-031151
  sources:
  - hrsa/health-center-sites
  verified:
    'on': '2026-07-19'
    method: api
- id: va/saltville/t-k-mckee-hospital-building
  name: T.K. MCKEE HOSPITAL BUILDING
  categories:
  - community-health-center
  address:
    street: 319 5th Ave
    city: Saltville
    state: va
    zip: '24370'
  place: '5170096'
  geo:
    lat: 36.88096
    lng: -81.75705
  phone: 276-496-4492
  website: https://svchs.com
  external_ids:
    bphc: BPS-H80-001903
  sources:
  - hrsa/health-center-sites
  verified:
    'on': '2026-07-19'
    method: api
