- id: va/saltville/mccready-head-start-center
  name: McCready Head Start Center
  categories:
  - child-care
  address:
    street: 632 Upper Poore Valley Rd
    city: Saltville
    state: va
    zip: '24370'
  description: Head Start early childhood program — 34 funded slots; operated by Clinch Valley Community
    Action.
  place: '5170096'
  geo:
    lat: 36.918
    lng: -81.7338
  phone: 276-276-5583
  sources:
  - acf/head-start-locations
  verified:
    'on': '2026-07-19'
    method: api
- id: va/saltville/north-fork-manor-apts
  name: North Fork Manor Apts
  categories:
  - meal-program
  address:
    street: 500 Elizabeth St
    city: Saltville
    state: va
    zip: '24370'
  description: Free summer meals for kids and teens (2026 season) — sponsored by Feeding America Southwest
    Virginia.
  place: '5170096'
  geo:
    lat: 36.89059
    lng: -81.75578
  phone: (276) 628-9266
  external_ids:
    usda_master: Cycle 01_VA_SFSP_0291
  sources:
  - usda/summer-meal-sites
  verified:
    'on': '2026-07-19'
    method: api
- id: va/saltville/northwood-middle-school
  name: Northwood Middle School
  categories:
  - community-health-center
  cost: sliding-scale
  address:
    street: 156 Long Hollow Rd
    city: Saltville
    state: va
    zip: '24370'
  place: '5170096'
  geo:
    lat: 36.92984
    lng: -81.62636
  phone: 276-496-4492
  external_ids:
    bphc: BPS-H80-031152
  sources:
  - hrsa/health-center-sites
  verified:
    'on': '2026-07-19'
    method: api
- id: va/saltville/rich-valley-elem
  name: Rich Valley Elem
  categories:
  - meal-program
  address:
    street: 196 Long Hollow Rd
    city: Saltville
    state: va
    zip: '24370'
  description: Free summer meals for kids and teens (2026 season) — sponsored by Smyth County Public Schools.
  place: '5170096'
  geo:
    lat: 36.92813
    lng: -81.62601
  external_ids:
    usda_master: Cycle 01_VA_SFSP_0145
  sources:
  - usda/summer-meal-sites
  verified:
    'on': '2026-07-19'
    method: api
- id: va/saltville/saltville-community-health-center
  name: Saltville Community Health Center
  categories:
  - community-health-center
  cost: sliding-scale
  address:
    street: 308 W Main St
    city: Saltville
    state: va
    zip: '24370'
  place: '5170096'
  geo:
    lat: 36.87638
    lng: -81.76914
  phone: 276-496-4433
  website: https://svchs.com
  external_ids:
    bphc: BPS-H80-001344
  sources:
  - hrsa/health-center-sites
  verified:
    'on': '2026-07-19'
    method: api
- id: va/saltville/saltville-elem
  name: Saltville Elem
  categories:
  - meal-program
  address:
    street: 1013 E Main St
    city: Saltville
    state: va
    zip: '24370'
  description: Free summer meals for kids and teens (2026 season) — sponsored by Smyth County Public Schools.
  place: '5170096'
  geo:
    lat: 36.88801
    lng: -81.75422
  external_ids:
    usda_master: Cycle 01_VA_SFSP_0147
  sources:
  - usda/summer-meal-sites
  verified:
    'on': '2026-07-19'
    method: api
- id: va/saltville/saltville-elementary-school
  name: Saltville Elementary School
  categories:
  - community-health-center
  cost: sliding-scale
  address:
    street: 1013 E Main St
    city: Saltville
    state: va
    zip: '24370'
  place: '5170096'
  geo:
    lat: 36.88912
    lng: -81.75523
  phone: 276-496-4492
  external_ids:
    bphc: BPS-H80-031151
  sources:
  - hrsa/health-center-sites
  verified:
    'on': '2026-07-19'
    method: api
- id: va/saltville/saltville-library
  name: Saltville Library
  categories:
  - meal-program
  address:
    street: 111 Palmer Ave.
    city: Saltville
    state: va
    zip: '24370'
  description: Free summer meals for kids and teens (2026 season) — sponsored by Feeding America Southwest
    Virginia.
  place: '5170096'
  geo:
    lat: 36.88043
    lng: -81.76403
  phone: (276) 628-8266
  external_ids:
    usda_master: Cycle 01_VA_SFSP_0281
  sources:
  - usda/summer-meal-sites
  verified:
    'on': '2026-07-19'
    method: api
- id: va/saltville/t-k-mckee-hospital-building
  name: T.K. MCKEE HOSPITAL BUILDING
  categories:
  - community-health-center
  cost: sliding-scale
  address:
    street: 319 5th Ave
    city: Saltville
    state: va
    zip: '24370'
  place: '5170096'
  geo:
    lat: 36.88096
    lng: -81.75705
  phone: 276-496-4492
  website: https://svchs.com
  external_ids:
    bphc: BPS-H80-001903
  sources:
  - hrsa/health-center-sites
  verified:
    'on': '2026-07-19'
    method: api
