- id: va/winchester/apple-pie-ridge-elem
  name: Apple Pie Ridge Elem
  categories:
  - meal-program
  address:
    street: 349 Apple Pie Ridge Rd
    city: Winchester
    state: va
    zip: '22603'
  description: Free summer meals for kids and teens (2026 season) — sponsored by Frederick County Public
    Schools.
  place: '5186720'
  geo:
    lat: 39.21468
    lng: -78.17803
  phone: (540) 662-3889
  external_ids:
    usda_master: Cycle 02_VA_SFSP_0166
  sources:
  - usda/summer-meal-sites
  verified:
    'on': '2026-07-19'
    method: api
- id: va/winchester/apple-pie-ridge-elem-2
  name: Apple Pie Ridge Elem
  categories:
  - meal-program
  address:
    street: 349 Apple Pie Ridge Rd.
    city: Winchester
    state: va
    zip: '22603'
  description: Free summer meals for kids and teens (2026 season) — sponsored by Frederick County Public
    Schools.
  place: '5186720'
  geo:
    lat: 39.21468
    lng: -78.17803
  phone: (540) 662-3889
  external_ids:
    usda_master: Cycle 02_VA_SFSP_0168
  sources:
  - usda/summer-meal-sites
  verified:
    'on': '2026-07-19'
    method: api
- id: va/winchester/atlas-counseling-center
  name: Atlas Counseling Center
  categories:
  - su-treatment
  address:
    street: 311 Airport Road
    city: Winchester
    state: va
    zip: '22602'
  place: '5186720'
  geo:
    lat: 39.14474
    lng: -78.15243
  phone: 540-722-6238
  website: https://www.atlascounselingcenter.com
  sources:
  - samhsa/findtreatment
  verified:
    'on': '2026-07-19'
    method: api
- id: va/winchester/bloom-health-center
  name: Bloom Health Center
  categories:
  - su-treatment
  - mh-treatment
  address:
    street: 158 Front Royal Pike
    city: Winchester
    state: va
    zip: '22602'
  place: '5186720'
  geo:
    lat: 39.16017
    lng: -78.15668
  phone: 667-668-2566
  website: https://www.bloomhealthcenters.com
  sources:
  - samhsa/findtreatment
  verified:
    'on': '2026-07-19'
    method: api
- id: va/winchester/bridging-the-gaps-inc-substance-abuse-residentia
  name: Bridging the Gaps Inc Substance Abuse Residential and Outpt
  categories:
  - su-treatment
  - mh-treatment
  address:
    street: 31 South Braddock Street
    city: Winchester
    state: va
    zip: '22601'
  place: '5186720'
  geo:
    lat: 39.18361
    lng: -78.16771
  phone: 540-535-1111
  website: https://www.bridgingthegaps.com
  sources:
  - samhsa/findtreatment
  verified:
    'on': '2026-07-19'
    method: api
- id: va/winchester/brightview-health
  name: BrightView Health
  categories:
  - su-treatment
  address:
    street: 200 Faraday Plaza
    city: Winchester
    state: va
    zip: '22603'
  place: '5186720'
  geo:
    lat: 39.21551
    lng: -78.13883
  phone: 844-707-7775
  website: https://www.brightviewhealth.com
  sources:
  - samhsa/findtreatment
  verified:
    'on': '2026-07-19'
    method: api
- id: va/winchester/clarvida-family-preservation-services
  name: Clarvida Family Preservation Services
  categories:
  - su-treatment
  - mh-treatment
  address:
    street: 3363 Shawnee Drive
    city: Winchester
    state: va
    zip: '22602'
  place: '5186720'
  geo:
    lat: 39.1395
    lng: -78.19012
  phone: 540-535-0043
  website: https://www.clarvida.com/virginia/
  sources:
  - samhsa/findtreatment
  verified:
    'on': '2026-07-19'
    method: api
- id: va/winchester/council-on-alcoholism-lord-fairfax-community-inc
  name: Council on Alcoholism Lord Fairfax Community Inc
  categories:
  - su-treatment
  address:
    street: 512 South Braddock Street
    city: Winchester
    state: va
    zip: '22601'
  place: '5186720'
  geo:
    lat: 39.17975
    lng: -78.16881
  phone: 540-773-1566
  website: https://www.lordfairfaxhouse.com
  sources:
  - samhsa/findtreatment
  verified:
    'on': '2026-07-19'
    method: api
- id: va/winchester/crossroads-treatment-centers-winchester
  name: Crossroads Treatment Centers Winchester
  categories:
  - su-treatment
  address:
    street: 500 Pegasus Court Business Center
    city: Winchester
    state: va
    zip: '22602'
  place: '5186720'
  geo:
    lat: 39.14463
    lng: -78.15025
  phone: 877-654-6396
  website: https://crossroadstreatmentcenters.com
  sources:
  - samhsa/findtreatment
  verified:
    'on': '2026-07-19'
    method: api
- id: va/winchester/crossroads-treatment-centers-winchester-pc
  name: Crossroads Treatment Centers Winchester PC
  categories:
  - su-treatment
  address:
    street: 500 Pegasus Court
    city: Winchester
    state: va
    zip: '22602'
  place: '5186720'
  geo:
    lat: 39.14463
    lng: -78.15025
  phone: 877-654-6396
  website: https://www.crossroadstreatmentcenters.com
  sources:
  - samhsa/findtreatment
  verified:
    'on': '2026-07-19'
    method: api
- id: va/winchester/evendale-elem
  name: Evendale Elem
  categories:
  - meal-program
  address:
    street: 220 Rosa Ln.
    city: Winchester
    state: va
    zip: '22602'
  description: Free summer meals for kids and teens (2026 season) — sponsored by Frederick County Public
    Schools.
  place: '5186720'
  geo:
    lat: 39.12687
    lng: -78.14664
  phone: (540) 662-3889
  external_ids:
    usda_master: Cycle 02_VA_SFSP_0171
  sources:
  - usda/summer-meal-sites
  verified:
    'on': '2026-07-19'
    method: api
- id: va/winchester/evendale-elem-2
  name: Evendale Elem
  categories:
  - meal-program
  address:
    street: 220 Rosa Lane
    city: Winchester
    state: va
    zip: '22602'
  description: Free summer meals for kids and teens (2026 season) — sponsored by Frederick County Public
    Schools.
  place: '5186720'
  geo:
    lat: 39.12687
    lng: -78.14664
  phone: (540) 662-3889
  external_ids:
    usda_master: Cycle 02_VA_SFSP_0172
  sources:
  - usda/summer-meal-sites
  verified:
    'on': '2026-07-19'
    method: api
- id: va/winchester/evendale-elem-3
  name: Evendale Elem
  categories:
  - meal-program
  address:
    street: 220 Rosa Ln
    city: Winchester
    state: va
    zip: '22602'
  description: Free summer meals for kids and teens (2026 season) — sponsored by Frederick County Public
    Schools.
  place: '5186720'
  geo:
    lat: 39.12687
    lng: -78.14664
  phone: (540) 662-3889
  external_ids:
    usda_master: Cycle 02_VA_SFSP_0174
  sources:
  - usda/summer-meal-sites
  verified:
    'on': '2026-07-19'
    method: api
- id: va/winchester/indian-hollow-elem
  name: Indian Hollow Elem
  categories:
  - meal-program
  address:
    street: 1548 N. Hayfield Rd.
    city: Winchester
    state: va
    zip: '22603'
  description: Free summer meals for kids and teens (2026 season) — sponsored by Frederick County Public
    Schools.
  place: '5186720'
  geo:
    lat: 39.23928
    lng: -78.28553
  phone: (540) 662-3889
  external_ids:
    usda_master: Cycle 02_VA_SFSP_0159
  sources:
  - usda/summer-meal-sites
  verified:
    'on': '2026-07-19'
    method: api
- id: va/winchester/indian-hollow-elem-2
  name: Indian Hollow Elem
  categories:
  - meal-program
  address:
    street: 1548 North Hayfield Rd
    city: Winchester
    state: va
    zip: '22603'
  description: Free summer meals for kids and teens (2026 season) — sponsored by Frederick County Public
    Schools.
  place: '5186720'
  geo:
    lat: 39.23928
    lng: -78.28553
  phone: (540) 662-3889
  external_ids:
    usda_master: Cycle 02_VA_SFSP_0160
  sources:
  - usda/summer-meal-sites
  verified:
    'on': '2026-07-19'
    method: api
- id: va/winchester/lvwa-little-free-pantry
  name: LVWA Little Free Pantry
  categories:
  - food-pantry
  place: '5186720'
  geo:
    lat: 39.18696
    lng: -78.16324
  external_ids:
    lfp: '3544'
  sources:
  - littlefreepantry/map
  verified:
    'on': '2026-07-19'
    method: scrape
- id: va/winchester/northwestern-community-services-board-amherst-cl
  name: Northwestern Community Services Board Amherst Clinic
  categories:
  - su-treatment
  - mh-treatment
  address:
    street: 1014 Amherst Street
    city: Winchester
    state: va
    zip: '22601'
  place: '5186720'
  geo:
    lat: 39.18954
    lng: -78.18098
  phone: 540-545-4147
  website: https://www.nwcsb.com
  sources:
  - samhsa/findtreatment
  verified:
    'on': '2026-07-19'
    method: api
- id: va/winchester/northwestern-community-services-board-northern-c
  name: Northwestern Community Services Board Northern Clinic
  categories:
  - su-treatment
  - mh-treatment
  address:
    street: 170 Prosperity Drive
    city: Winchester
    state: va
    zip: '22602'
  place: '5186720'
  geo:
    lat: 39.11956
    lng: -78.20021
  phone: 540-636-4250
  website: https://www.nwcsb.com
  sources:
  - samhsa/findtreatment
  verified:
    'on': '2026-07-19'
    method: api
- id: va/winchester/savida-health-winchester
  name: Savida Health Winchester
  categories:
  - su-treatment
  - mh-treatment
  address:
    street: 158 Front Royal Pike
    city: Winchester
    state: va
    zip: '22601'
  place: '5186720'
  geo:
    lat: 39.16017
    lng: -78.15668
  phone: 540-450-0334
  website: https://www.savidahealth.com
  sources:
  - samhsa/findtreatment
  verified:
    'on': '2026-07-19'
    method: api
- id: va/winchester/sch-migrant-outreach
  name: SCH Migrant Outreach
  categories:
  - community-health-center
  address:
    street: 867 Fairmont Ave
    city: Winchester
    state: va
    zip: '22601'
  place: '5186720'
  geo:
    lat: 39.19744
    lng: -78.16537
  phone: 304-263-4999
  website: http://www.shencommhealth.com/
  external_ids:
    bphc: BPS-H80-007349
  sources:
  - hrsa/health-center-sites
  verified:
    'on': '2026-07-19'
    method: api
- id: va/winchester/sch-winchester
  name: SCH Winchester
  categories:
  - community-health-center
  address:
    street: 1330 Amherst St
    city: Winchester
    state: va
    zip: '22601'
  place: '5186720'
  geo:
    lat: 39.19073
    lng: -78.18387
  phone: 540-722-2369
  website: http://www.shencommhealth.com/www.winchesterfamilyhealth.com
  external_ids:
    bphc: BPS-H80-015332
  sources:
  - hrsa/health-center-sites
  verified:
    'on': '2026-07-19'
    method: api
- id: va/winchester/valley-health-winchester-medical-ctr-outpatient
  name: Valley Health Winchester Medical Ctr Outpatient BH/Child and Adolescent
  categories:
  - su-treatment
  - mh-treatment
  address:
    street: 337 Westside Station Drive
    city: Winchester
    state: va
    zip: '22601'
  place: '5186720'
  geo:
    lat: 39.18992
    lng: -78.19665
  phone: 540-536-4881
  website: https://www.valleyhealthlink.com
  sources:
  - samhsa/findtreatment
  verified:
    'on': '2026-07-19'
    method: api
- id: va/winchester/vamed-health-group-llc-wi
  name: VAMED Health Group LLC WI
  categories:
  - su-treatment
  address:
    street: 2281 Valley Avenue
    city: Winchester
    state: va
    zip: '22601'
  place: '5186720'
  geo:
    lat: 39.16123
    lng: -78.18611
  phone: 540-215-2211
  website: https://www.vamedgroup.com
  sources:
  - samhsa/findtreatment
  verified:
    'on': '2026-07-19'
    method: api
- id: va/winchester/winchester-comprehensive
  name: Winchester Comprehensive
  categories:
  - su-treatment
  - mh-treatment
  address:
    street: 290 Front Royal Pike
    city: Winchester
    state: va
    zip: '22602'
  place: '5186720'
  geo:
    lat: 39.15728
    lng: -78.16032
  phone: 540-546-3436
  website: https://
  sources:
  - samhsa/findtreatment
  verified:
    'on': '2026-07-19'
    method: api
- id: va/winchester/winchester-comprehensive-treatment-ctr
  name: Winchester Comprehensive Treatment Ctr
  categories:
  - su-treatment
  address:
    street: 290 Front Royal Pike
    city: Winchester
    state: va
    zip: '22602'
  place: '5186720'
  geo:
    lat: 39.15728
    lng: -78.16032
  phone: 540-546-3436
  website: https://www.ctcprograms.com/location/winchester-comprehensive-treatment-center/
  sources:
  - samhsa/findtreatment
  verified:
    'on': '2026-07-19'
    method: api
- id: va/winchester/winchester-medical-center-behavioral-health-serv
  name: Winchester Medical Center Behavioral Health Services
  categories:
  - su-treatment
  - mh-treatment
  address:
    street: 1840 Amherst Street
    city: Winchester
    state: va
    zip: '22601'
  place: '5186720'
  geo:
    lat: 39.19451
    lng: -78.19313
  phone: 540-536-8140
  website: https://www.winchestermedicalcenter.com
  sources:
  - samhsa/findtreatment
  verified:
    'on': '2026-07-19'
    method: api
- id: va/winchester/winchester-va-clinic
  name: Winchester VA Clinic
  categories:
  - va-facility
  - health
  description: Multi-Specialty CBOC
  address: {street: 100 Dawson Drive, city: Winchester, state: va, zip: '22602'}
  place: '5186720'
  geo: {lat: 39.13045, lng: -78.20229}
  phone: 800-817-3807
  website: https://www.va.gov/martinsburg-health-care/locations/winchester-va-clinic/
  hours:
  - {days: [mon, tue, thu, fri], open: '07:30', close: '16:30'}
  - {days: [wed], open: '06:30', close: '15:30'}
  external_ids: {va: vha_613GC}
  sources:
  - va/facilities-api
  verified: {'on': '2026-07-19', method: api}
