- id: ms/batesville/aaron-e-henry-batesville-ambulatory-care-clinic
  name: AARON E. HENRY - BATESVILLE AMBULATORY CARE CLINIC
  categories:
  - community-health-center
  address:
    street: 216 Highway 51 N
    city: Batesville
    state: ms
    zip: '38606'
  place: '2803620'
  geo:
    lat: 34.31675
    lng: -89.94261
  phone: 662-563-1858
  website: https://www.aehchc.org
  external_ids:
    bphc: BPS-H80-001483
  sources:
  - hrsa/health-center-sites
  verified:
    'on': '2026-07-19'
    method: api
- id: ms/batesville/batesville-ehs
  name: Batesville EHS
  categories:
  - child-care
  address:
    street: 160 Martin Luther King Jr Dr
    city: Batesville
    state: ms
    zip: '38606'
  place: '2803620'
  geo:
    lat: 34.3188
    lng: -89.96529
  phone: 662-563-8166
  sources:
  - acf/head-start-locations
  verified:
    'on': '2026-07-19'
    method: api
- id: ms/batesville/batesville-elementary
  name: BATESVILLE ELEMENTARY
  categories:
  - child-care
  address:
    street: 110 College St
    city: Batesville
    state: ms
    zip: '38606'
  place: '2803620'
  geo:
    lat: 34.3194
    lng: -89.95145
  phone: 662-563-4596
  sources:
  - acf/head-start-locations
  verified:
    'on': '2026-07-19'
    method: api
- id: ms/batesville/batesville-elementary-school
  name: Batesville Elementary School
  categories:
  - meal-program
  address:
    street: 110 College Street
    city: Batesville
    state: ms
    zip: '38606'
  description: Free summer meals for kids and teens (2026 season) — sponsored by SOUTH PANOLA SCHOOL DISTRICT.
  place: '2803620'
  geo:
    lat: 34.31932
    lng: -89.952
  phone: (662) 563-6050
  external_ids:
    usda_master: Cycle 02_MS_SFSP_0179
  sources:
  - usda/summer-meal-sites
  verified:
    'on': '2026-07-19'
    method: api
- id: ms/batesville/batesville-head-start-center
  name: Batesville Head Start Center
  categories:
  - child-care
  address:
    street: 125 Martinez St
    city: Batesville
    state: ms
    zip: '38606'
  place: '2803620'
  geo:
    lat: 34.31827
    lng: -89.9635
  phone: 662-563-8166
  sources:
  - acf/head-start-locations
  verified:
    'on': '2026-07-19'
    method: api
- id: ms/batesville/batesville-intermediate-school
  name: Batesville Intermediate School
  categories:
  - meal-program
  address:
    street: 200 College Street
    city: Batesville
    state: ms
    zip: '38606'
  description: Free summer meals for kids and teens (2026 season) — sponsored by SOUTH PANOLA SCHOOL DISTRICT.
  place: '2803620'
  geo:
    lat: 34.32072
    lng: -89.952
  phone: (662) 563-6050
  external_ids:
    usda_master: Cycle 02_MS_SFSP_0180
  sources:
  - usda/summer-meal-sites
  verified:
    'on': '2026-07-19'
    method: api
- id: ms/batesville/batesville-junior-high-school
  name: Batesville Junior High School
  categories:
  - meal-program
  address:
    street: 507 Tiger Drive
    city: Batesville
    state: ms
    zip: '38606'
  description: Free summer meals for kids and teens (2026 season) — sponsored by SOUTH PANOLA SCHOOL DISTRICT.
  place: '2803620'
  geo:
    lat: 34.32199
    lng: -89.93737
  phone: (662) 563-6050
  external_ids:
    usda_master: Cycle 02_MS_SFSP_0181
  sources:
  - usda/summer-meal-sites
  verified:
    'on': '2026-07-19'
    method: api
- id: ms/batesville/batesville-middle-school
  name: Batesville Middle School
  categories:
  - meal-program
  address:
    street: 509 Tiger Drive
    city: Batesville
    state: ms
    zip: '38606'
  description: Free summer meals for kids and teens (2026 season) — sponsored by SOUTH PANOLA SCHOOL DISTRICT.
  place: '2803620'
  geo:
    lat: 34.32072
    lng: -89.93915
  phone: (662) 563-6050
  external_ids:
    usda_master: Cycle 02_MS_SFSP_0182
  sources:
  - usda/summer-meal-sites
  verified:
    'on': '2026-07-19'
    method: api
- id: ms/batesville/south-panola-high-school
  name: South Panola High School
  categories:
  - meal-program
  address:
    street: 601 Tiger Drive
    city: Batesville
    state: ms
    zip: '38606'
  description: Free summer meals for kids and teens (2026 season) — sponsored by SOUTH PANOLA SCHOOL DISTRICT.
  place: '2803620'
  geo:
    lat: 34.32068
    lng: -89.94079
  phone: (662) 563-6050
  external_ids:
    usda_master: Cycle 02_MS_SFSP_0184
  sources:
  - usda/summer-meal-sites
  verified:
    'on': '2026-07-19'
    method: api
- id: ms/batesville/springhill-baptist-church
  name: Springhill Baptist Church
  categories:
  - meal-program
  address:
    street: 86 Dogwood Street
    city: Batesville
    state: ms
    zip: '38606'
  description: Free summer meals for kids and teens (2026 season) — sponsored by YMCA of Memphis & The
    Mid-South.
  place: '2803620'
  geo:
    lat: 34.3959
    lng: -89.72863
  phone: (901) 766-7677
  external_ids:
    usda_master: Cycle 08_MS_SFSP_0683
  sources:
  - usda/summer-meal-sites
  verified:
    'on': '2026-07-19'
    method: api
