- id: ms/gulfport/anniston-elementary
  name: Anniston Elementary
  categories:
  - child-care
  address:
    street: 2314 Jones St
    city: Gulfport
    state: ms
    zip: '39507'
  place: '2829700'
  geo:
    lat: 30.39189
    lng: -89.01767
  phone: 662-325-3083
  sources:
  - acf/head-start-locations
  verified:
    'on': '2026-07-19'
    method: api
- id: ms/gulfport/bayou-view
  name: Bayou View
  categories:
  - child-care
  address:
    street: 55 Fifty First Street
    city: Gulfport
    state: ms
    zip: '39507'
  place: '2829700'
  geo:
    lat: 30.41292
    lng: -89.04962
  phone: 228-206-3515
  sources:
  - acf/head-start-locations
  verified:
    'on': '2026-07-19'
    method: api
- id: ms/gulfport/central-elementary
  name: Central Elementary
  categories:
  - child-care
  address:
    street: 1043 Pass Rd
    city: Gulfport
    state: ms
    zip: '39501'
  place: '2829700'
  geo:
    lat: 30.38518
    lng: -89.07018
  phone: 662-325-3083
  sources:
  - acf/head-start-locations
  verified:
    'on': '2026-07-19'
    method: api
- id: ms/gulfport/cfhc-mobile-unit
  name: CFHC Mobile Unit
  categories:
  - community-health-center
  address:
    street: 10467 Corporate Dr
    city: Gulfport
    state: ms
    zip: '39503'
  place: '2829700'
  geo:
    lat: 30.44062
    lng: -89.04323
  phone: 228-374-2494
  website: https://www.coastalfamilyhealth.org
  external_ids:
    bphc: BPS-H80-033506
  sources:
  - hrsa/health-center-sites
  verified:
    'on': '2026-07-19'
    method: api
- id: ms/gulfport/coastal-family-health-center-corporate-office
  name: Coastal Family Health Center Corporate Office
  categories:
  - community-health-center
  address:
    street: 10467 Corporate Dr
    city: Gulfport
    state: ms
    zip: '39503'
  place: '2829700'
  geo:
    lat: 30.44062
    lng: -89.04323
  phone: 228-374-2494
  website: https://www.coastalfamilyhealth.org
  external_ids:
    bphc: BPS-H80-038716
  sources:
  - hrsa/health-center-sites
  verified:
    'on': '2026-07-19'
    method: api
- id: ms/gulfport/coastal-family-pharmacy-gulfport
  name: Coastal Family Pharmacy - Gulfport
  categories:
  - community-health-center
  address:
    street: 9113 Highway 49
    city: Gulfport
    state: ms
    zip: '39503'
  place: '2829700'
  geo:
    lat: 30.41556
    lng: -89.09312
  phone: 228-374-2476
  external_ids:
    bphc: BPS-H80-017684
  sources:
  - hrsa/health-center-sites
  verified:
    'on': '2026-07-19'
    method: api
- id: ms/gulfport/gaston-point
  name: Gaston Point
  categories:
  - child-care
  address:
    street: 1526 Mills Ave
    city: Gulfport
    state: ms
    zip: '39501'
  place: '2829700'
  geo:
    lat: 30.36927
    lng: -89.1237
  phone: 228-731-3548
  sources:
  - acf/head-start-locations
  verified:
    'on': '2026-07-19'
    method: api
- id: ms/gulfport/gulfport-health-center
  name: Gulfport Health Center
  categories:
  - community-health-center
  address:
    street: 15024 Martin Luther King Jr Blvd
    city: Gulfport
    state: ms
    zip: '39501'
  place: '2829700'
  geo:
    lat: 30.40427
    lng: -89.08713
  phone: 228-864-0003
  website: https://www.coastalfamilyhealth.org
  external_ids:
    bphc: BPS-H80-001812
  sources:
  - hrsa/health-center-sites
  verified:
    'on': '2026-07-19'
    method: api
- id: ms/gulfport/isiah-fredericks-center
  name: Isiah Fredericks Center
  categories:
  - child-care
  address:
    street: 3410 Jackson St
    city: Gulfport
    state: ms
    zip: '39501'
  place: '2829700'
  geo:
    lat: 30.40523
    lng: -89.10201
  phone: 228-822-0755
  sources:
  - acf/head-start-locations
  verified:
    'on': '2026-07-19'
    method: api
- id: ms/gulfport/linda-lyons
  name: Linda Lyons
  categories:
  - child-care
  address:
    street: 13523 Dedeaux Rd
    city: Gulfport
    state: ms
    zip: '39503'
  place: '2829700'
  geo:
    lat: 30.44844
    lng: -89.06925
  phone: 228-297-5074
  sources:
  - acf/head-start-locations
  verified:
    'on': '2026-07-19'
    method: api
- id: ms/gulfport/mississippi-regional-housing-authority-no-viii
  name: Mississippi Regional Housing Authority No. Viii
  categories:
  - housing-assistance
  address: {street: 10430 Three Rivers Rd, city: Gulfport, state: ms, zip: '39503'}
  description: Public housing and Housing Choice Voucher agency
  place: '2829700'
  geo: {lat: 30.43817, lng: -89.08329}
  phone: 228-831-2992
  sources:
  - hud/resource-locator
  verified: {'on': '2026-07-19', method: api}
- id: ms/gulfport/pass-road-elementary
  name: Pass Road Elementary
  categories:
  - child-care
  address:
    street: 37 Pass Rd
    city: Gulfport
    state: ms
    zip: '39507'
  place: '2829700'
  geo:
    lat: 30.39181
    lng: -89.05003
  phone: 662-325-3083
  sources:
  - acf/head-start-locations
  verified:
    'on': '2026-07-19'
    method: api
- id: ms/gulfport/pbmhr-region-xii-crisis-stabilization-unit
  name: PBMHR Region XII Crisis Stabilization Unit
  categories:
  - su-treatment
  - mh-treatment
  address:
    street: 15120 County Barn Road
    city: Gulfport
    state: ms
    zip: '39503'
  place: '2829700'
  phone: 228-213-5900
  website: https://www.pbmhr.org/
  sources:
  - samhsa/findtreatment
  verified:
    'on': '2026-07-19'
    method: api
- id: ms/gulfport/pbmhr-region-xii-crossroads-recovery-center
  name: PBMHR Region XII Crossroads Recovery Center
  categories:
  - su-treatment
  address:
    street: 15904 County Barn Road
    city: Gulfport
    state: ms
    zip: '39503'
  place: '2829700'
  geo:
    lat: 30.43121
    lng: -89.09135
  phone: 228-213-5909
  website: https://www.crossroadsrecoverycenter.org
  sources:
  - samhsa/findtreatment
  verified:
    'on': '2026-07-19'
    method: api
- id: ms/gulfport/twenty-eighth-street-elementary
  name: Twenty-Eighth Street Elementary
  categories:
  - child-care
  address:
    street: 3034 46th Ave
    city: Gulfport
    state: ms
    zip: '39501'
  place: '2829700'
  geo:
    lat: 30.38903
    lng: -89.11565
  phone: 662-325-3083
  sources:
  - acf/head-start-locations
  verified:
    'on': '2026-07-19'
    method: api
- id: ms/gulfport/west-elementary
  name: West Elementary
  categories:
  - child-care
  address:
    street: 4051 15th St
    city: Gulfport
    state: ms
    zip: '39501'
  place: '2829700'
  geo:
    lat: 30.36808
    lng: -89.11002
  phone: 662-325-3083
  sources:
  - acf/head-start-locations
  verified:
    'on': '2026-07-19'
    method: api
