- id: ms/indianola/b-b-king-museum
  name: B.B. King Museum
  categories:
  - meal-program
  address: {street: 400 Second Street, city: Indianola, state: ms, zip: '38751'}
  description: Free summer meals for kids and teens (2026 season) — sponsored by Sunflower Humphreys Counties
    Progress Inc..
  place: '2834740'
  geo: {lat: 33.44989, lng: -90.64618}
  phone: (662) 887-9539
  external_ids: {usda_master: Cycle 05_MS_SFSP_0540}
  sources:
  - usda/summer-meal-sites
  verified: {'on': '2026-07-19', method: api}
- id: ms/indianola/bethune-center
  name: Bethune Center
  categories:
  - meal-program
  address: {street: 1700 Bates Street, city: Indianola, state: ms, zip: '38751'}
  description: Free summer meals for kids and teens (2026 season) — sponsored by Sunflower Humphreys Counties
    Progress Inc..
  place: '2834740'
  geo: {lat: 33.4381, lng: -90.64919}
  phone: (662) 887-4267
  external_ids: {usda_master: Cycle 05_MS_SFSP_0542}
  sources:
  - usda/summer-meal-sites
  verified: {'on': '2026-07-19', method: api}
- id: ms/indianola/buckaroo-learning-center
  name: Buckaroo Learning Center
  categories:
  - child-care
  address:
    street: 805 Hoover St
    city: Indianola
    state: ms
    zip: '38751'
  place: '2834740'
  geo:
    lat: 33.4397
    lng: -90.64341
  phone: 662-455-2503
  sources:
  - acf/head-start-locations
  verified:
    'on': '2026-07-19'
    method: api
- id: ms/indianola/carver-elementary-school
  name: Carver Elementary School
  categories:
  - meal-program
  address: {street: 404 Jefferson St., city: Indianola, state: ms, zip: '38751'}
  description: Free summer meals for kids and teens (2026 season) — sponsored by SUNFLOWER COUNTY CONSOLIDATED
    SCHOOL DISTRICT.
  place: '2834740'
  geo: {lat: 33.44221, lng: -90.64969}
  phone: (662) 207-4523
  external_ids: {usda_master: Cycle 03_MS_SFSP_0229}
  sources:
  - usda/summer-meal-sites
  verified: {'on': '2026-07-19', method: api}
- id: ms/indianola/delta-care-hope-foundation
  name: Delta Care Hope Foundation
  categories:
  - meal-program
  address: {street: 710 Cox Street, city: Indianola, state: ms, zip: '38751'}
  description: Free summer meals for kids and teens (2026 season) — sponsored by Sunflower Humphreys Counties
    Progress Inc..
  place: '2834740'
  geo: {lat: 33.44343, lng: -90.6447}
  phone: (662) 299-9616
  external_ids: {usda_master: Cycle 05_MS_SFSP_0544}
  sources:
  - usda/summer-meal-sites
  verified: {'on': '2026-07-19', method: api}
- id: ms/indianola/dhc-carver-elementary-school
  name: DHC - Carver Elementary School
  categories:
  - community-health-center
  address:
    street: 404 Jefferson St
    city: Indianola
    state: ms
    zip: '38751'
  place: '2834740'
  geo:
    lat: 33.44164
    lng: -90.64969
  phone: 662-884-1250
  external_ids:
    bphc: BPS-H80-028129
  sources:
  - hrsa/health-center-sites
  verified:
    'on': '2026-07-19'
    method: api
- id: ms/indianola/dhc-indianola
  name: DHC-Indianola
  categories:
  - community-health-center
  address:
    street: 118 Front Ave
    city: Indianola
    state: ms
    zip: '38751'
  place: '2834740'
  geo:
    lat: 33.45149
    lng: -90.65154
  phone: 662-445-0900
  website: https://www.deltahealthcenter.org
  external_ids:
    bphc: BPS-H80-037538
  sources:
  - hrsa/health-center-sites
  verified:
    'on': '2026-07-19'
    method: api
- id: ms/indianola/dhc-lockard-elementary-school
  name: DHC - Lockard Elementary School
  categories:
  - community-health-center
  address:
    street: 302 College Ave
    city: Indianola
    state: ms
    zip: '38751'
  place: '2834740'
  geo:
    lat: 33.45548
    lng: -90.65392
  phone: 662-884-1260
  external_ids:
    bphc: BPS-H80-028131
  sources:
  - hrsa/health-center-sites
  verified:
    'on': '2026-07-19'
    method: api
- id: ms/indianola/empowering-kids-university
  name: Empowering Kids University
  categories:
  - child-care
  address:
    street: 307 Curtis St
    city: Indianola
    state: ms
    zip: '38751'
  place: '2834740'
  geo:
    lat: 33.43898
    lng: -90.65044
  phone: 662-887-2772
  sources:
  - acf/head-start-locations
  verified:
    'on': '2026-07-19'
    method: api
- id: ms/indianola/greater-new-jerusalem
  name: Greater New Jerusalem
  categories:
  - meal-program
  address: {street: 1111 Garrard Street, city: Indianola, state: ms, zip: '38751'}
  description: Free summer meals for kids and teens (2026 season) — sponsored by Sunflower Humphreys Counties
    Progress Inc..
  place: '2834740'
  geo: {lat: 33.43951, lng: -90.65135}
  phone: (662) 402-8475
  external_ids: {usda_master: Cycle 05_MS_SFSP_0546}
  sources:
  - usda/summer-meal-sites
  verified: {'on': '2026-07-19', method: api}
- id: ms/indianola/henry-seymore-library
  name: Henry Seymore Library
  categories:
  - meal-program
  address: {street: 200 East Percy Street, city: Indianola, state: ms, zip: '38751'}
  description: Free summer meals for kids and teens (2026 season) — sponsored by Sunflower Humphreys Counties
    Progress Inc..
  place: '2834740'
  geo: {lat: 33.45314, lng: -90.64819}
  phone: (662) 207-5278
  external_ids: {usda_master: Cycle 05_MS_SFSP_0548}
  sources:
  - usda/summer-meal-sites
  verified: {'on': '2026-07-19', method: api}
- id: ms/indianola/indianola-headstart-early-head-start
  name: Indianola Headstart/Early Head Start
  categories:
  - child-care
  address:
    street: 702 Roosevelt St
    city: Indianola
    state: ms
    zip: '38751'
  place: '2834740'
  geo:
    lat: 33.44527
    lng: -90.64555
  phone: 662-452-5063
  sources:
  - acf/head-start-locations
  verified:
    'on': '2026-07-19'
    method: api
- id: ms/indianola/lockard-elementary-school
  name: Lockard Elementary School
  categories:
  - meal-program
  address: {street: 302 College St, city: Indianola, state: ms, zip: '38751'}
  description: Free summer meals for kids and teens (2026 season) — sponsored by SUNFLOWER COUNTY CONSOLIDATED
    SCHOOL DISTRICT.
  place: '2834740'
  geo: {lat: 33.45547, lng: -90.65474}
  phone: (662) 303-4322
  external_ids: {usda_master: Cycle 07_MS_SFSP_0554}
  sources:
  - usda/summer-meal-sites
  verified: {'on': '2026-07-19', method: api}
- id: ms/indianola/moorhead-central-school
  name: Moorhead Central School
  categories:
  - meal-program
  address: {street: 506 Washington Ave., city: Indianola, state: ms, zip: '38751'}
  description: Free summer meals for kids and teens (2026 season) — sponsored by SUNFLOWER COUNTY CONSOLIDATED
    SCHOOL DISTRICT.
  place: '2834740'
  geo: {lat: 33.40419, lng: -90.76446}
  phone: (662) 207-4523
  external_ids: {usda_master: Cycle 03_MS_SFSP_0233}
  sources:
  - usda/summer-meal-sites
  verified: {'on': '2026-07-19', method: api}
- id: ms/indianola/rasberry-united-methodist-church
  name: Rasberry United Methodist Church
  categories:
  - meal-program
  address: {street: 511 Roosevelt Street, city: Indianola, state: ms, zip: '38751'}
  description: Free summer meals for kids and teens (2026 season) — sponsored by Sunflower Humphreys Counties
    Progress Inc..
  place: '2834740'
  geo: {lat: 33.4455, lng: -90.64905}
  phone: (662) 303-1441
  external_ids: {usda_master: Cycle 05_MS_SFSP_0556}
  sources:
  - usda/summer-meal-sites
  verified: {'on': '2026-07-19', method: api}
- id: ms/indianola/restoration-ministries-christian-academy
  name: Restoration Ministries Christian Academy
  categories:
  - meal-program
  address: {street: 1290 East Highway 82, city: Indianola, state: ms, zip: '38751'}
  description: Free summer meals for kids and teens (2026 season) — sponsored by Sunflower Humphreys Counties
    Progress Inc..
  place: '2834740'
  geo: {lat: 33.45896, lng: -90.62161}
  phone: (662) 303-4258
  external_ids: {usda_master: Cycle 05_MS_SFSP_0558}
  sources:
  - usda/summer-meal-sites
  verified: {'on': '2026-07-19', method: api}
- id: ms/indianola/robert-l-merritt-junior-high-school
  name: Robert L Merritt Junior High School
  categories:
  - meal-program
  address: {street: 705 Kinlock Rd., city: Indianola, state: ms, zip: '38751'}
  description: Free summer meals for kids and teens (2026 season) — sponsored by SUNFLOWER COUNTY CONSOLIDATED
    SCHOOL DISTRICT.
  place: '2834740'
  geo: {lat: 33.44191, lng: -90.6559}
  phone: (662) 207-4732
  external_ids: {usda_master: Cycle 07_MS_SFSP_0558}
  sources:
  - usda/summer-meal-sites
  verified: {'on': '2026-07-19', method: api}
- id: ms/indianola/summer-law-camp
  name: Summer Law Camp
  categories:
  - meal-program
  address: {street: 200 Main Street, city: Indianola, state: ms, zip: '38751'}
  description: Free summer meals for kids and teens (2026 season) — sponsored by Sunflower Humphreys Counties
    Progress Inc..
  place: '2834740'
  geo: {lat: 33.45157, lng: -90.64959}
  phone: (662) 577-1865
  external_ids: {usda_master: Cycle 05_MS_SFSP_0560}
  sources:
  - usda/summer-meal-sites
  verified: {'on': '2026-07-19', method: api}
- id: ms/indianola/word-of-life-family-center
  name: Word Of Life Family Center
  categories:
  - meal-program
  address: {street: 1108 Third Avenue, city: Indianola, state: ms, zip: '38751'}
  description: Free summer meals for kids and teens (2026 season) — sponsored by Sunflower Humphreys Counties
    Progress Inc..
  place: '2834740'
  geo: {lat: 33.43885, lng: -90.64594}
  phone: (662) 392-2499
  external_ids: {usda_master: Cycle 05_MS_SFSP_0564}
  sources:
  - usda/summer-meal-sites
  verified: {'on': '2026-07-19', method: api}
