- id: ms/indianola/buckaroo-learning-center
  name: Buckaroo Learning Center
  categories:
  - child-care
  address:
    street: 805 Hoover St
    city: Indianola
    state: ms
    zip: '38751'
  place: '2834740'
  geo:
    lat: 33.4397
    lng: -90.64341
  phone: 662-455-2503
  sources:
  - acf/head-start-locations
  verified:
    'on': '2026-07-19'
    method: api
- id: ms/indianola/dhc-carver-elementary-school
  name: DHC - Carver Elementary School
  categories:
  - community-health-center
  address:
    street: 404 Jefferson St
    city: Indianola
    state: ms
    zip: '38751'
  place: '2834740'
  geo:
    lat: 33.44164
    lng: -90.64969
  phone: 662-884-1250
  external_ids:
    bphc: BPS-H80-028129
  sources:
  - hrsa/health-center-sites
  verified:
    'on': '2026-07-19'
    method: api
- id: ms/indianola/dhc-indianola
  name: DHC-Indianola
  categories:
  - community-health-center
  address:
    street: 118 Front Ave
    city: Indianola
    state: ms
    zip: '38751'
  place: '2834740'
  geo:
    lat: 33.45149
    lng: -90.65154
  phone: 662-445-0900
  website: https://www.deltahealthcenter.org
  external_ids:
    bphc: BPS-H80-037538
  sources:
  - hrsa/health-center-sites
  verified:
    'on': '2026-07-19'
    method: api
- id: ms/indianola/dhc-lockard-elementary-school
  name: DHC - Lockard Elementary School
  categories:
  - community-health-center
  address:
    street: 302 College Ave
    city: Indianola
    state: ms
    zip: '38751'
  place: '2834740'
  geo:
    lat: 33.45548
    lng: -90.65392
  phone: 662-884-1260
  external_ids:
    bphc: BPS-H80-028131
  sources:
  - hrsa/health-center-sites
  verified:
    'on': '2026-07-19'
    method: api
- id: ms/indianola/empowering-kids-university
  name: Empowering Kids University
  categories:
  - child-care
  address:
    street: 307 Curtis St
    city: Indianola
    state: ms
    zip: '38751'
  place: '2834740'
  geo:
    lat: 33.43898
    lng: -90.65044
  phone: 662-887-2772
  sources:
  - acf/head-start-locations
  verified:
    'on': '2026-07-19'
    method: api
- id: ms/indianola/indianola-headstart-early-head-start
  name: Indianola Headstart/Early Head Start
  categories:
  - child-care
  address:
    street: 702 Roosevelt St
    city: Indianola
    state: ms
    zip: '38751'
  place: '2834740'
  geo:
    lat: 33.44527
    lng: -90.64555
  phone: 662-452-5063
  sources:
  - acf/head-start-locations
  verified:
    'on': '2026-07-19'
    method: api
