- id: ms/iuka/harmony-u-m-church-the-food-depot
  name: Harmony U. M. Church - The Food Depot
  org: tn/mid-south-food-bank
  categories:
  - food-pantry
  address: {street: 1701 Paul Edmondson Dr., city: Iuka, state: ms, zip: '38852'}
  place: '2835300'
  geo: {lat: 34.81176, lng: -88.19004}
  phone: 662-423-8917
  external_ids: {tn-mid-south-food-bank: '315780'}
  sources:
  - foodbank/tn-mid-south-food-bank
  verified: {'on': '2026-07-21', method: api}
- id: ms/iuka/helpful-samaritan-inc
  name: Helpful Samaritan, Inc
  org: tn/mid-south-food-bank
  categories:
  - food-pantry
  address: {street: 119 E Eastport Street, city: Iuka, state: ms, zip: '38852'}
  place: '2835300'
  geo: {lat: 34.81199, lng: -88.19026}
  phone: 662-423-6097
  external_ids: {tn-mid-south-food-bank: '315783'}
  sources:
  - foodbank/tn-mid-south-food-bank
  verified: {'on': '2026-07-21', method: api}
- id: ms/iuka/northeast-ms-community-services
  name: Northeast MS Community Services
  categories:
  - utility-assistance
  description: LIHEAP intake office serving Tishomingo County
  address: {street: '1008 Battleground Dr., Room 4', city: Iuka, state: ms, zip: '38852'}
  place: '2835300'
  phone: 662-423-7013
  sources:
  - acf/liheap-clearinghouse
  verified: {'on': '2026-07-19', method: scrape}
  geo: {lat: 34.80452, lng: -88.20252}
- id: ms/iuka/region-iv-mhs
  name: Region IV MHS
  categories:
  - su-treatment
  - mh-treatment
  address: {street: 1213 Maria Lane, city: Iuka, state: ms, zip: '38852'}
  place: '2835300'
  geo: {lat: 34.80569, lng: -88.2045}
  phone: 662-423-3332
  website: https://www.regionivmhs.com
  services:
  - Outpatient
  - Young adults
  - Clients with co-occurring mental and substance use disorders
  - Children/adolescents with serious emotional disturbance (SED)
  - Persons  18 and older with serious mental illness (SMI)
  eligibility: Serves children/adolescents, young adults, adults, seniors.
  cost: sliding-scale
  sources:
  - samhsa/findtreatment
  verified: {'on': '2026-07-19', method: api}
- id: ms/iuka/the-housing-authority-of-the-city-of-iuka
  name: The Housing Authority Of The City Of Iuka
  categories:
  - housing-assistance
  address: {street: 1629 Whitehouse Rd, city: Iuka, state: ms, zip: '38852'}
  description: Public housing (Low-Rent) agency
  place: '2835300'
  geo: {lat: 34.82212, lng: -88.21066}
  phone: 662-423-9232
  sources:
  - hud/resource-locator
  verified: {'on': '2026-07-19', method: api}
