- id: ms/jackson/a-bridge-to-recovery
  name: A Bridge to Recovery
  categories:
  - su-treatment
  - mh-treatment
  address:
    street: 1437 Old Square Road
    city: Jackson
    state: ms
    zip: '39211'
  place: '2836000'
  geo:
    lat: 32.36135
    lng: -90.14726
  phone: 601-977-9353
  website: https://www.btrms.com
  sources:
  - samhsa/findtreatment
  verified:
    'on': '2026-07-19'
    method: api
- id: ms/jackson/alcohol-services-center-inc
  name: Alcohol Services Center Inc
  categories:
  - su-treatment
  address:
    street: 950 NW Street
    city: Jackson
    state: ms
    zip: '39202'
  place: '2836000'
  geo:
    lat: 32.31113
    lng: -90.1816
  phone: 601-948-6220
  website: https://www.alcoholservicesms.org
  sources:
  - samhsa/findtreatment
  verified:
    'on': '2026-07-19'
    method: api
- id: ms/jackson/center-for-independent-learning-the-friendship-c
  name: Center for Independent Learning The Friendship Connection
  categories:
  - su-treatment
  address:
    street: 1480 Raymond Road
    city: Jackson
    state: ms
    zip: '39204'
  place: '2836000'
  geo:
    lat: 32.28277
    lng: -90.25284
  phone: 601-373-1533 x2
  website: https://www.thefriendshipconnectionjackson.com
  sources:
  - samhsa/findtreatment
  verified:
    'on': '2026-07-19'
    method: api
- id: ms/jackson/central-mississippi-health-services-inc
  name: CENTRAL MISSISSIPPI HEALTH SERVICES, INC.
  categories:
  - community-health-center
  address:
    street: 1134 Winter St
    city: Jackson
    state: ms
    zip: '39204'
  place: '2836000'
  geo:
    lat: 32.29112
    lng: -90.20513
  phone: 601-948-5572
  website: https://www.centralmshealth.org
  external_ids:
    bphc: BPS-H80-004065
  sources:
  - hrsa/health-center-sites
  verified:
    'on': '2026-07-19'
    method: api
- id: ms/jackson/central-mississippi-hlth-service
  name: CENTRAL MISSISSIPPI HLTH SERVICE
  categories:
  - community-health-center
  address:
    street: 5429 Robinson Road Ext
    city: Jackson
    state: ms
    zip: '39204'
  place: '2836000'
  geo:
    lat: 32.27707
    lng: -90.26083
  phone: 601-914-0163
  website: https://www.centralmshealth.org
  external_ids:
    bphc: BPS-H80-000378
  sources:
  - hrsa/health-center-sites
  verified:
    'on': '2026-07-19'
    method: api
- id: ms/jackson/central-ms-civic-improvement-assoc-inc-d-b-a-jac
  name: CENTRAL MS CIVIC IMPROVEMENT ASSOC., INC.D/B/A JACKSON-HINDS COMPREHENSIVE HEATLH CENTER MAIN
    SITE
  categories:
  - community-health-center
  address:
    street: 3502 W Northside Dr
    city: Jackson
    state: ms
    zip: '39213'
  place: '2836000'
  geo:
    lat: 32.35695
    lng: -90.23454
  phone: 601-362-5321
  website: https://www.jackson-hinds.com
  external_ids:
    bphc: BPS-H80-001074
  sources:
  - hrsa/health-center-sites
  verified:
    'on': '2026-07-19'
    method: api
- id: ms/jackson/central-ms-health-services-inc-rosemont-street
  name: Central MS Health Services Inc. Rosemont Street
  categories:
  - community-health-center
  address:
    street: 1230 Rosemont Ave
    city: Jackson
    state: ms
    zip: '39204'
  place: '2836000'
  geo:
    lat: 32.29146
    lng: -90.20508
  phone: 601-948-5572
  external_ids:
    bphc: BPS-H80-031181
  sources:
  - hrsa/health-center-sites
  verified:
    'on': '2026-07-19'
    method: api
- id: ms/jackson/central-ms-hlth-svs-tougaloo
  name: CENTRAL MS HLTH SVS - TOUGALOO
  categories:
  - community-health-center
  address:
    street: 500 W Countyline Rd
    city: Jackson
    state: ms
    zip: '39213'
  place: '2836000'
  geo:
    lat: 32.40546
    lng: -90.16173
  phone: 601-957-6776
  website: https://www.centralmshealth.org
  external_ids:
    bphc: BPS-H80-001489
  sources:
  - hrsa/health-center-sites
  verified:
    'on': '2026-07-19'
    method: api
- id: ms/jackson/children-educare-daycare
  name: Children Educare Daycare
  categories:
  - child-care
  address:
    street: 115 Maddox Rd
    city: Jackson
    state: ms
    zip: '39212'
  place: '2836000'
  geo:
    lat: 32.26477
    lng: -90.28134
  phone: 601-922-8060
  sources:
  - acf/head-start-locations
  verified:
    'on': '2026-07-19'
    method: api
- id: ms/jackson/della-j-caugills-early-head-start-center
  name: Della J. Caugills Early Head Start Center
  categories:
  - child-care
  address:
    street: 3383 Terry Rd
    city: Jackson
    state: ms
    zip: '39212'
  place: '2836000'
  geo:
    lat: 32.25404
    lng: -90.22448
  phone: 601-371-4270
  sources:
  - acf/head-start-locations
  verified:
    'on': '2026-07-19'
    method: api
- id: ms/jackson/hinds-behavioral-health-services
  name: Hinds Behavioral Health Services
  categories:
  - su-treatment
  - mh-treatment
  address:
    street: 3450 Highway 80 West
    city: Jackson
    state: ms
    zip: '39209'
  place: '2836000'
  geo:
    lat: 32.29891
    lng: -90.24097
  phone: 601-321-2400
  website: https://www.hbhs9.com
  sources:
  - samhsa/findtreatment
  verified:
    'on': '2026-07-19'
    method: api
- id: ms/jackson/holy-ghost-early-head-start-center
  name: Holy Ghost Early Head Start Center
  categories:
  - child-care
  address:
    street: 1145 Cloister St
    city: Jackson
    state: ms
    zip: '39202'
  place: '2836000'
  geo:
    lat: 32.31454
    lng: -90.18682
  phone: 601-956-3397
  sources:
  - acf/head-start-locations
  verified:
    'on': '2026-07-19'
    method: api
- id: ms/jackson/imagine-behavioral-health-llc
  name: Imagine Behavioral Health LLC
  categories:
  - su-treatment
  - mh-treatment
  address:
    street: 1920 Dunbarton Drive
    city: Jackson
    state: ms
    zip: '39216'
  place: '2836000'
  geo:
    lat: 32.33172
    lng: -90.13513
  phone: 601-982-5376
  website: https://www.imaginebh.com
  sources:
  - samhsa/findtreatment
  verified:
    'on': '2026-07-19'
    method: api
- id: ms/jackson/jackson-comprehensive-treatment-center-mississip
  name: Jackson Comprehensive Treatment Center Mississippi Comprehensive Trt Ctr LLC
  categories:
  - su-treatment
  address:
    street: 1935 Lakeland Drive
    city: Jackson
    state: ms
    zip: '39216'
  place: '2836000'
  geo:
    lat: 32.33269
    lng: -90.13637
  phone: 601-718-2468 x201
  website: https://www.ctcprograms.com/location/jackson-comprehensive
  sources:
  - samhsa/findtreatment
  verified:
    'on': '2026-07-19'
    method: api
- id: ms/jackson/jackson-hinds-blackburn-middle-school
  name: Jackson-Hinds Blackburn Middle School
  categories:
  - community-health-center
  address:
    street: 1311 W Pearl St
    city: Jackson
    state: ms
    zip: '39203'
  place: '2836000'
  geo:
    lat: 32.30024
    lng: -90.20584
  phone: 601-364-5142
  website: https://www.jacksonhinds.org
  external_ids:
    bphc: BPS-H80-037891
  sources:
  - hrsa/health-center-sites
  verified:
    'on': '2026-07-19'
    method: api
- id: ms/jackson/jackson-hinds-cardoza-middle-school
  name: Jackson-Hinds Cardoza Middle School
  categories:
  - community-health-center
  address:
    street: 3180 McDowell Rd
    city: Jackson
    state: ms
    zip: '39204'
  place: '2836000'
  geo:
    lat: 32.26875
    lng: -90.2536
  phone: 601-364-5142
  website: https://www.jacksonhinds.org
  external_ids:
    bphc: BPS-H80-037890
  sources:
  - hrsa/health-center-sites
  verified:
    'on': '2026-07-19'
    method: api
- id: ms/jackson/jackson-hinds-chc-the-pearl
  name: Jackson-Hinds CHC - The Pearl
  categories:
  - community-health-center
  address:
    street: 2649 Highway 80 W
    city: Jackson
    state: ms
    zip: '39204'
  place: '2836000'
  geo:
    lat: 32.29165
    lng: -90.23094
  phone: 601-362-5321
  external_ids:
    bphc: BPS-H80-038072
  sources:
  - hrsa/health-center-sites
  verified:
    'on': '2026-07-19'
    method: api
- id: ms/jackson/jackson-hinds-comp-health-center-medical-plaza
  name: JACKSON HINDS COMP HEALTH CENTER - Medical Plaza
  categories:
  - community-health-center
  address:
    street: 866 Medical Plz
    city: Jackson
    state: ms
    zip: '39204'
  place: '2836000'
  geo:
    lat: 32.28165
    lng: -90.21736
  phone: 601-362-5321
  website: https://www.jackson-hinds.com
  external_ids:
    bphc: BPS-H80-001102
  sources:
  - hrsa/health-center-sites
  verified:
    'on': '2026-07-19'
    method: api
- id: ms/jackson/jackson-hinds-comprehensive-health-center-at-the
  name: Jackson-Hinds Comprehensive Health Center at the Jackson Medical Mall
  categories:
  - community-health-center
  address:
    street: 350 W Woodrow Wilson Ave
    city: Jackson
    state: ms
    zip: '39213'
  place: '2836000'
  geo:
    lat: 32.32717
    lng: -90.19315
  phone: 601-709-5130
  website: https://www.jackson-hinds.com
  external_ids:
    bphc: BPS-H80-009605
  sources:
  - hrsa/health-center-sites
  verified:
    'on': '2026-07-19'
    method: api
- id: ms/jackson/jackson-hinds-comprehensive-health-center-south
  name: Jackson-Hinds Comprehensive Health Center South Clinic
  categories:
  - community-health-center
  address:
    street: 145 Raymond Rd
    city: Jackson
    state: ms
    zip: '39204'
  place: '2836000'
  geo:
    lat: 32.28232
    lng: -90.21163
  phone: 601-372-1800
  website: https://www.jackson-hinds.com
  external_ids:
    bphc: BPS-H80-008900
  sources:
  - hrsa/health-center-sites
  verified:
    'on': '2026-07-19'
    method: api
- id: ms/jackson/jackson-hinds-comprehensive-health-center-woodro
  name: Jackson-Hinds Comprehensive Health Center Woodrow Wilson Clinic
  categories:
  - community-health-center
  address:
    street: 514A E Woodrow Wilson Ave
    city: Jackson
    state: ms
    zip: '39216'
  place: '2836000'
  geo:
    lat: 32.32785
    lng: -90.17788
  phone: 601-321-2234
  website: https://www.jackson-hinds.com
  external_ids:
    bphc: BPS-H80-012405
  sources:
  - hrsa/health-center-sites
  verified:
    'on': '2026-07-19'
    method: api
- id: ms/jackson/jackson-hinds-dental-mobile-unit-7
  name: Jackson-Hinds Dental Mobile Unit 7
  categories:
  - community-health-center
  address:
    street: 3502 W Northside Dr
    city: Jackson
    state: ms
    zip: '39213'
  place: '2836000'
  geo:
    lat: 32.35695
    lng: -90.23454
  phone: 601-364-5142
  external_ids:
    bphc: BPS-H80-039037
  sources:
  - hrsa/health-center-sites
  verified:
    'on': '2026-07-19'
    method: api
- id: ms/jackson/jackson-hinds-ethel-james-ivory-homeless-clinic
  name: JACKSON-HINDS ETHEL JAMES IVORY HOMELESS CLINIC
  categories:
  - community-health-center
  address:
    street: 327 S Gallatin St
    city: Jackson
    state: ms
    zip: '39203'
  place: '2836000'
  geo:
    lat: 32.29788
    lng: -90.19273
  phone: 601-914-1789
  website: https://www.jackson-hinds.com
  external_ids:
    bphc: BPS-H80-004302
  sources:
  - hrsa/health-center-sites
  verified:
    'on': '2026-07-19'
    method: api
- id: ms/jackson/jackson-hinds-isable-elementary-school-sbhc
  name: JACKSON-HINDS-ISABLE ELEMENTARY SCHOOL SBHC
  categories:
  - community-health-center
  address:
    street: 1716 Isable St
    city: Jackson
    state: ms
    zip: '39204'
  place: '2836000'
  geo:
    lat: 32.29189
    lng: -90.21821
  phone: 601-362-5321
  website: https://www.jackson-hinds.com
  external_ids:
    bphc: BPS-H80-006284
  sources:
  - hrsa/health-center-sites
  verified:
    'on': '2026-07-19'
    method: api
- id: ms/jackson/jackson-hinds-jim-hill-high-school-sbhc
  name: JACKSON-HINDS JIM HILL HIGH SCHOOL SBHC
  categories:
  - community-health-center
  address:
    street: 2185 Fortune St
    city: Jackson
    state: ms
    zip: '39204'
  place: '2836000'
  geo:
    lat: 32.28983
    lng: -90.21852
  phone: 601-969-2188
  website: https://www.jackson-hinds.com
  external_ids:
    bphc: BPS-H80-005701
  sources:
  - hrsa/health-center-sites
  verified:
    'on': '2026-07-19'
    method: api
- id: ms/jackson/jackson-hinds-medical-dental-mobile-unit-2
  name: Jackson-Hinds Medical/Dental Mobile Unit 2
  categories:
  - community-health-center
  address:
    street: 3502 W Northside Dr
    city: Jackson
    state: ms
    zip: '39213'
  place: '2836000'
  geo:
    lat: 32.35695
    lng: -90.23454
  phone: 601-362-5321
  website: https://www.jackson-hinds.com
  external_ids:
    bphc: BPS-H80-005877
  sources:
  - hrsa/health-center-sites
  verified:
    'on': '2026-07-19'
    method: api
- id: ms/jackson/jackson-hinds-medical-mobile-unit-3
  name: Jackson-Hinds Medical Mobile Unit 3
  categories:
  - community-health-center
  address:
    street: 3502 W Northside Dr
    city: Jackson
    state: ms
    zip: '39213'
  place: '2836000'
  geo:
    lat: 32.35695
    lng: -90.23454
  phone: 601-364-5142
  external_ids:
    bphc: BPS-H80-015198
  sources:
  - hrsa/health-center-sites
  verified:
    'on': '2026-07-19'
    method: api
- id: ms/jackson/jackson-hinds-medical-mobile-unit-4
  name: Jackson-Hinds Medical Mobile Unit 4
  categories:
  - community-health-center
  address:
    street: 3502 W Northside Dr
    city: Jackson
    state: ms
    zip: '39213'
  place: '2836000'
  geo:
    lat: 32.35695
    lng: -90.23454
  phone: 601-364-5142
  external_ids:
    bphc: BPS-H80-032930
  sources:
  - hrsa/health-center-sites
  verified:
    'on': '2026-07-19'
    method: api
- id: ms/jackson/jackson-hinds-medical-mobile-unit-5
  name: Jackson-Hinds Medical Mobile Unit 5
  categories:
  - community-health-center
  address:
    street: 3502 W Northside Dr
    city: Jackson
    state: ms
    zip: '39213'
  place: '2836000'
  geo:
    lat: 32.35695
    lng: -90.23454
  phone: 601-364-5142
  external_ids:
    bphc: BPS-H80-035624
  sources:
  - hrsa/health-center-sites
  verified:
    'on': '2026-07-19'
    method: api
- id: ms/jackson/jackson-hinds-medical-mobile-unit-6
  name: Jackson-Hinds Medical Mobile Unit 6
  categories:
  - community-health-center
  address:
    street: 3502 W Northside Dr
    city: Jackson
    state: ms
    zip: '39213'
  place: '2836000'
  geo:
    lat: 32.35695
    lng: -90.23454
  phone: 601-362-5321
  external_ids:
    bphc: BPS-H80-036280
  sources:
  - hrsa/health-center-sites
  verified:
    'on': '2026-07-19'
    method: api
- id: ms/jackson/jackson-hinds-tougaloo-clinic
  name: JACKSON-HINDS TOUGALOO CLINIC
  categories:
  - community-health-center
  address:
    street: 500 W Countyline Rd
    city: Jackson
    state: ms
    zip: '39213'
  place: '2836000'
  geo:
    lat: 32.40546
    lng: -90.16173
  phone: 601-948-4395
  website: https://www.jackson-hinds.com
  external_ids:
    bphc: BPS-H80-006785
  sources:
  - hrsa/health-center-sites
  verified:
    'on': '2026-07-19'
    method: api
- id: ms/jackson/jackson-hinds-van-winkle-elem-schoolbase-clinic
  name: JACKSON-HINDS VAN WINKLE ELEM SCHOOLBASE CLINIC
  categories:
  - community-health-center
  address:
    street: 1655 Whiting Rd
    city: Jackson
    state: ms
    zip: '39209'
  place: '2836000'
  geo:
    lat: 32.30012
    lng: -90.26589
  phone: 601-922-6642
  website: https://www.jackson-hinds.com
  external_ids:
    bphc: BPS-H80-005948
  sources:
  - hrsa/health-center-sites
  verified:
    'on': '2026-07-19'
    method: api
- id: ms/jackson/jackson-vamc-gv-sonny-montgomery
  name: Jackson VAMC GV Sonny Montgomery
  categories:
  - su-treatment
  - mh-treatment
  address:
    street: 1500 East Woodrow Wilson Avenue
    city: Jackson
    state: ms
    zip: '39216'
  place: '2836000'
  geo:
    lat: 32.32782
    lng: -90.1675
  phone: 601-362-4471 x56220
  website: https://www.va.gov/jackson-health-care/
  sources:
  - samhsa/findtreatment
  verified:
    'on': '2026-07-19'
    method: api
- id: ms/jackson/kirksey-middle-school-based-clinic
  name: Kirksey Middle School-based Clinic
  categories:
  - community-health-center
  address:
    street: 5677 Highland Dr
    city: Jackson
    state: ms
    zip: '39206'
  place: '2836000'
  geo:
    lat: 32.38089
    lng: -90.17036
  phone: 601-362-5321
  external_ids:
    bphc: BPS-H80-040698
  sources:
  - hrsa/health-center-sites
  verified:
    'on': '2026-07-19'
    method: api
- id: ms/jackson/laboratory-child-deveopment-center
  name: Laboratory Child Deveopment Center
  categories:
  - child-care
  address:
    street: 3925 Sunset Dr
    city: Jackson
    state: ms
    zip: '39213'
  place: '2836000'
  geo:
    lat: 32.34518
    lng: -90.2241
  phone: 601-987-8751
  sources:
  - acf/head-start-locations
  verified:
    'on': '2026-07-19'
    method: api
- id: ms/jackson/mary-c-jones-head-start
  name: Mary C. Jones Head Start
  categories:
  - child-care
  address:
    street: 2050 Martin Luther King Jr Dr
    city: Jackson
    state: ms
    zip: '39203'
  place: '2836000'
  geo:
    lat: 32.32053
    lng: -90.20192
  phone: 601-353-5891
  sources:
  - acf/head-start-locations
  verified:
    'on': '2026-07-19'
    method: api
- id: ms/jackson/mississippi-families-for-kids
  name: Mississippi Families for Kids
  categories:
  - su-treatment
  - mh-treatment
  address:
    street: 407 Briarwood Drive
    city: Jackson
    state: ms
    zip: '39206'
  place: '2836000'
  geo:
    lat: 32.37964
    lng: -90.15221
  phone: 601-957-7670
  website: https://mffk.org
  sources:
  - samhsa/findtreatment
  verified:
    'on': '2026-07-19'
    method: api
- id: ms/jackson/mississippi-regional-housing-authority-no-vi
  name: Mississippi Regional Housing Authority No. Vi
  categories:
  - housing-assistance
  address: {street: 2180 Terry Rd, city: Jackson, state: ms, zip: '39204'}
  description: Public housing and Housing Choice Voucher agency
  place: '2836000'
  geo: {lat: 32.27723, lng: -90.21408}
  phone: 601-373-7040
  sources:
  - hud/resource-locator
  verified: {'on': '2026-07-19', method: api}
- id: ms/jackson/new-progressions-llc
  name: New Progressions LLC
  categories:
  - su-treatment
  - mh-treatment
  address:
    street: 406 Marquis Street
    city: Jackson
    state: ms
    zip: '39206'
  place: '2836000'
  geo:
    lat: 32.36729
    lng: -90.15246
  phone: 336-254-6770
  website: https://newprogressions.com
  sources:
  - samhsa/findtreatment
  verified:
    'on': '2026-07-19'
    method: api
- id: ms/jackson/oak-forest-head-start
  name: Oak Forest Head Start
  categories:
  - child-care
  address:
    street: 3023 Ridgeland Dr
    city: Jackson
    state: ms
    zip: '39212'
  place: '2836000'
  geo:
    lat: 32.26152
    lng: -90.25671
  phone: 601-371-1415
  sources:
  - acf/head-start-locations
  verified:
    'on': '2026-07-19'
    method: api
- id: ms/jackson/pecan-park-elementary-school-based-clinic
  name: Pecan Park Elementary School-Based Clinic
  categories:
  - community-health-center
  address:
    street: 415 Claiborne Ave
    city: Jackson
    state: ms
    zip: '39209'
  place: '2836000'
  geo:
    lat: 32.31413
    lng: -90.22311
  phone: 601-364-5142
  website: https://www.jhchc.org
  external_ids:
    bphc: BPS-H80-015713
  sources:
  - hrsa/health-center-sites
  verified:
    'on': '2026-07-19'
    method: api
- id: ms/jackson/richard-brandon-head-start
  name: Richard Brandon Head Start
  categories:
  - child-care
  address:
    street: 5920 N State St
    city: Jackson
    state: ms
    zip: '39213'
  place: '2836000'
  geo:
    lat: 32.38738
    lng: -90.15684
  phone: 601-956-2865
  sources:
  - acf/head-start-locations
  verified:
    'on': '2026-07-19'
    method: api
- id: ms/jackson/the-housing-authority-of-the-city-of-jackson
  name: The Housing Authority Of The City Of Jackson
  categories:
  - housing-assistance
  address: {street: 2747 Livingston Rd, city: Jackson, state: ms, zip: '39213'}
  description: Public housing and Housing Choice Voucher agency
  place: '2836000'
  geo: {lat: 32.33377, lng: -90.19718}
  phone: 601-362-0885
  sources:
  - hud/resource-locator
  verified: {'on': '2026-07-19', method: api}
- id: ms/jackson/three-oaks-behavioral-health-of-ridgeland-llc
  name: Three Oaks Behavioral Health of Ridgeland LLC
  categories:
  - su-treatment
  - mh-treatment
  address:
    street: 2510 Lakeland Terrace
    city: Jackson
    state: ms
    zip: '39216'
  place: '2836000'
  geo:
    lat: 32.33213
    lng: -90.14984
  phone: 601-991-3080
  website: https://www.threeoakshealth.com
  sources:
  - samhsa/findtreatment
  verified:
    'on': '2026-07-19'
    method: api
- id: ms/jackson/university-of-mississippi-medical-center
  name: University of Mississippi Medical Center
  categories:
  - su-treatment
  - mh-treatment
  address:
    street: 2500 North State Street
    city: Jackson
    state: ms
    zip: '39216'
  place: '2836000'
  geo:
    lat: 32.33065
    lng: -90.17423
  phone: 601-984-1000
  website: https://www.umc.edu
  sources:
  - samhsa/findtreatment
  verified:
    'on': '2026-07-19'
    method: api
- id: ms/jackson/van-winkle-pre-k-center
  name: Van Winkle Pre-K Center
  categories:
  - child-care
  address:
    street: 1655 Whiting Rd
    city: Jackson
    state: ms
    zip: '39209'
  place: '2836000'
  geo:
    lat: 32.30046
    lng: -90.26692
  phone: 601-923-2547
  sources:
  - acf/head-start-locations
  verified:
    'on': '2026-07-19'
    method: api
- id: ms/jackson/westside-head-start
  name: Westside Head Start
  categories:
  - child-care
  address:
    street: 1450 Wiggins Rd
    city: Jackson
    state: ms
    zip: '39209'
  place: '2836000'
  geo:
    lat: 32.30959
    lng: -90.28299
  phone: 601-922-0542
  sources:
  - acf/head-start-locations
  verified:
    'on': '2026-07-19'
    method: api
