- id: ms/new-albany/lift-incorporated
  name: LIFT Incorporated
  categories:
  - utility-assistance
  description: LIHEAP intake office serving Union County
  address: {street: 921 Fairground Spur Road, city: New Albany, state: ms, zip: '38652'}
  place: '2851000'
  phone: 662-534-8104
  sources:
  - acf/liheap-clearinghouse
  verified: {'on': '2026-07-19', method: scrape}
  geo: {lat: 34.51121, lng: -89.03121}
- id: ms/new-albany/mississippicare-126
  name: MississippiCare - 126
  categories:
  - community-health-center
  cost: sliding-scale
  address: {street: 232 Starlyn Ave, city: New Albany, state: ms, zip: '38652'}
  place: '2851000'
  geo: {lat: 34.49732, lng: -89.03587}
  phone: 870-347-2534
  external_ids: {bphc: BPS-H80-036408}
  sources:
  - hrsa/health-center-sites
  verified: {'on': '2026-07-19', method: api}
- id: ms/new-albany/new-albany-health-care-associates
  name: New Albany Health Care Associates
  categories:
  - community-health-center
  cost: sliding-scale
  address: {street: 488 W Bankhead St, city: New Albany, state: ms, zip: '38652'}
  place: '2851000'
  geo: {lat: 34.49696, lng: -89.02119}
  phone: 662-598-0007
  website: https://www.nmphc.org
  external_ids: {bphc: BPS-H80-030810}
  sources:
  - hrsa/health-center-sites
  verified: {'on': '2026-07-19', method: api}
- id: ms/new-albany/new-albany-middle-school
  name: New Albany Middle School
  categories:
  - meal-program
  address: {street: 400 Apple Street, city: New Albany, state: ms, zip: '38652'}
  description: Free summer meals for kids and teens (2026 season) — sponsored by NEW ALBANY PUBLIC SCHOOLS.
  place: '2851000'
  geo: {lat: 34.48874, lng: -89.0059}
  phone: (662) 534-1803
  external_ids: {usda_master: Cycle 04_MS_SFSP_0263}
  sources:
  - usda/summer-meal-sites
  verified: {'on': '2026-07-19', method: api}
- id: ms/new-albany/union-county-complex
  name: Union County Complex
  categories:
  - child-care
  address: {street: 507 Oak St, city: New Albany, state: ms, zip: '38652'}
  description: Head Start early childhood program — 110 funded slots; operated by Mississippi Action for
    Progress, Inc..
  place: '2851000'
  geo: {lat: 34.48503, lng: -89.00581}
  phone: 662-534-2681
  sources:
  - acf/head-start-locations
  verified: {'on': '2026-07-19', method: api}
- id: ms/new-albany/union-county-good-samaritan-center-food-pantry
  name: Union County Good Samaritan Center Food Pantry
  org: tn/mid-south-food-bank
  categories:
  - food-pantry
  address: {street: 806 Jay Street, city: New Albany, state: ms, zip: '38652'}
  place: '2851000'
  geo: {lat: 34.4851, lng: -88.99656}
  phone: 662-534-3940
  external_ids: {tn-mid-south-food-bank: '315853'}
  sources:
  - foodbank/tn-mid-south-food-bank
  verified: {'on': '2026-07-21', method: api}
