- id: ms/olive-branch/center-hill-elementary-school
  name: Center Hill Elementary School
  categories:
  - meal-program
  address:
    street: 13662 Center Hill Road
    city: Olive Branch
    state: ms
    zip: '38654'
  description: Free summer meals for kids and teens (2026 season) — sponsored by DESOTO COUNTY SCHOOL
    DISTRICT.
  place: '2854040'
  geo:
    lat: 34.9185
    lng: -89.74898
  phone: (662) 449-7267
  external_ids:
    usda_master: Cycle 02_MS_SFSP_0036
  sources:
  - usda/summer-meal-sites
  verified:
    'on': '2026-07-19'
    method: api
- id: ms/olive-branch/fbcob-blessing-box
  name: FBCOB Blessing Box
  categories:
  - food-pantry
  place: '2854040'
  geo:
    lat: 34.9601
    lng: -89.82716
  external_ids:
    lfp: '1538'
  sources:
  - littlefreepantry/map
  verified:
    'on': '2026-07-19'
    method: scrape
- id: ms/olive-branch/little-pony-pantry
  name: Little Pony Pantry
  categories:
  - food-pantry
  place: '2854040'
  geo:
    lat: 34.98694
    lng: -89.75849
  external_ids:
    lfp: '6051'
  sources:
  - littlefreepantry/map
  verified:
    'on': '2026-07-19'
    method: scrape
- id: ms/olive-branch/maples-memorial-umc-lfp
  name: Maples Memorial UMC LFP
  categories:
  - food-pantry
  place: '2854040'
  geo:
    lat: 34.96149
    lng: -89.83552
  external_ids:
    lfp: '384'
  sources:
  - littlefreepantry/map
  verified:
    'on': '2026-07-19'
    method: scrape
- id: ms/olive-branch/olive-branch-family-ymca
  name: Olive Branch Family Ymca
  categories:
  - meal-program
  address:
    street: 8555 Goodman Road
    city: Olive Branch
    state: ms
    zip: '38654'
  description: Free summer meals for kids and teens (2026 season) — sponsored by YMCA of Memphis & The
    Mid-South.
  place: '2854040'
  geo:
    lat: 34.96217
    lng: -89.83664
  phone: (901) 766-7677
  external_ids:
    usda_master: Cycle 04_MS_SFSP_0426
  sources:
  - usda/summer-meal-sites
  verified:
    'on': '2026-07-19'
    method: api
