- id: ms/oxford/arcare
  name: Arcare
  categories:
  - su-treatment
  - mh-treatment
  address:
    street: 2173 South Lamar Boulevard
    city: Oxford
    state: ms
    zip: '38655'
  place: '2854840'
  geo:
    lat: 34.35069
    lng: -89.52027
  phone: 662-234-6553
  website: https://arcare.net
  sources:
  - samhsa/findtreatment
  verified:
    'on': '2026-07-19'
    method: api
- id: ms/oxford/arcare-132
  name: arcare - 132
  categories:
  - community-health-center
  address:
    street: 1201 Office Park Dr
    city: Oxford
    state: ms
    zip: '38655'
  place: '2854840'
  geo:
    lat: 34.3378
    lng: -89.51886
  phone: 870-347-2534
  website: https://www.arcare.net
  external_ids:
    bphc: BPS-H80-040361
  sources:
  - hrsa/health-center-sites
  verified:
    'on': '2026-07-19'
    method: api
- id: ms/oxford/central-elementary
  name: Central Elementary
  categories:
  - meal-program
  address: {street: 409 Washington Ave, city: Oxford, state: ms, zip: '38655'}
  description: Free summer meals for kids and teens (2026 season) — sponsored by OXFORD SCHOOL DISTRICT.
  place: '2854840'
  geo: {lat: 34.37166, lng: -89.52507}
  phone: (662) 234-3451
  external_ids: {usda_master: Cycle 01_MS_SFSP_0017}
  sources:
  - usda/summer-meal-sites
  verified: {'on': '2026-07-19', method: api}
- id: ms/oxford/charger-health-wellness-center
  name: Charger Health & Wellness Center
  categories:
  - community-health-center
  address:
    street: 224 Bramlett Blvd
    city: Oxford
    state: ms
    zip: '38655'
  place: '2854840'
  geo:
    lat: 34.37201
    lng: -89.50774
  phone: 662-715-3331
  external_ids:
    bphc: BPS-H80-040290
  sources:
  - hrsa/health-center-sites
  verified:
    'on': '2026-07-19'
    method: api
- id: ms/oxford/communicare-haven-house
  name: Communicare Haven House
  categories:
  - su-treatment
  - mh-treatment
  address:
    street: 152-A Highway 7 South
    city: Oxford
    state: ms
    zip: '38655'
  place: '2854840'
  geo:
    lat: 34.33282
    lng: -89.51662
  phone: 662-234-7237
  website: https://www.communicarems.org
  sources:
  - samhsa/findtreatment
  verified:
    'on': '2026-07-19'
    method: api
- id: ms/oxford/communicare-lafayette-county-main-office
  name: Communicare Lafayette County Main Office
  categories:
  - su-treatment
  - mh-treatment
  address:
    street: 152 Highway 7 South
    city: Oxford
    state: ms
    zip: '38655'
  place: '2854840'
  geo:
    lat: 34.33282
    lng: -89.51662
  phone: 662-234-7521
  website: https://www.communicarems.org
  sources:
  - samhsa/findtreatment
  verified:
    'on': '2026-07-19'
    method: api
- id: ms/oxford/harrisonville-church
  name: Harrisonville Church
  categories:
  - meal-program
  address: {street: 65 County Road 164, city: Oxford, state: ms, zip: '38655'}
  description: Free summer meals for kids and teens (2026 season) — sponsored by YMCA of Memphis & The
    Mid-South.
  place: '2854840'
  geo: {lat: 34.35564, lng: -89.69524}
  phone: (901) 766-7677
  external_ids: {usda_master: Cycle 08_MS_SFSP_0671}
  sources:
  - usda/summer-meal-sites
  verified: {'on': '2026-07-19', method: api}
- id: ms/oxford/lafayette-elementary-school
  name: Lafayette Elementary School
  categories:
  - meal-program
  address: {street: 71 F.D. Budy East Parkway, city: Oxford, state: ms, zip: '38655'}
  description: Free summer meals for kids and teens (2026 season) — sponsored by LAFAYETTE COUNTY SCHOOL
    DISTRICT.
  place: '2854840'
  geo: {lat: 34.35075, lng: -89.50123}
  phone: (662) 371-1662
  external_ids: {usda_master: Cycle 07_MS_SSO_0673}
  sources:
  - usda/summer-meal-sites
  verified: {'on': '2026-07-19', method: api}
- id: ms/oxford/lafayette-upper-elementary-school
  name: Lafayette Upper Elementary School
  categories:
  - meal-program
  address: {street: 120 Commodore Drive, city: Oxford, state: ms, zip: '38655'}
  description: Free summer meals for kids and teens (2026 season) — sponsored by LAFAYETTE COUNTY SCHOOL
    DISTRICT.
  place: '2854840'
  geo: {lat: 34.35024, lng: -89.49765}
  phone: (662) 234-7320
  external_ids: {usda_master: Cycle 04_MS_SSO_0391}
  sources:
  - usda/summer-meal-sites
  verified: {'on': '2026-07-19', method: api}
- id: ms/oxford/mary-cathey-head-start-center
  name: Mary Cathey Head Start Center
  categories:
  - child-care
  address:
    street: 278 Highway 314
    city: Oxford
    state: ms
    zip: '38655'
  place: '2854840'
  geo:
    lat: 34.36602
    lng: -89.52162
  phone: 662-234-3230
  sources:
  - acf/head-start-locations
  verified:
    'on': '2026-07-19'
    method: api
- id: ms/oxford/mississippi-admin-office
  name: Mississippi Admin Office
  categories:
  - community-health-center
  address:
    street: 440 N Lamar Blvd
    city: Oxford
    state: ms
    zip: '38655'
  place: '2854840'
  geo:
    lat: 34.36981
    lng: -89.51771
  phone: 870-347-2534
  external_ids:
    bphc: BPS-H80-041795
  sources:
  - hrsa/health-center-sites
  verified:
    'on': '2026-07-19'
    method: api
- id: ms/oxford/mississippi-regional-housing-authority-no-ii
  name: Mississippi Regional Housing Authority No. Ii
  categories:
  - housing-assistance
  address:
    street: 900 Molly Barr Rd
    city: Oxford
    state: ms
    zip: '38655'
  description: Housing Choice Voucher (Section 8) agency
  place: '2854840'
  geo:
    lat: 34.37899
    lng: -89.52678
  phone: 662-236-3645
  sources:
  - hud/resource-locator
  verified:
    'on': '2026-07-19'
    method: api
- id: ms/oxford/mississippicare-129
  name: MississippiCare-129
  categories:
  - community-health-center
  address:
    street: 2173 S Lamar Blvd
    city: Oxford
    state: ms
    zip: '38655'
  place: '2854840'
  geo:
    lat: 34.35071
    lng: -89.52027
  phone: 870-347-2534
  website: https://www.arcare.net
  external_ids:
    bphc: BPS-H80-029910
  sources:
  - hrsa/health-center-sites
  verified:
    'on': '2026-07-19'
    method: api
- id: ms/oxford/oxford-health-care-associates
  name: Oxford Health Care Associates
  categories:
  - community-health-center
  address:
    street: 2716 W Oxford Loop
    city: Oxford
    state: ms
    zip: '38655'
  place: '2854840'
  geo:
    lat: 34.36669
    lng: -89.57142
  phone: 662-715-3335
  website: https://www.nmphc.org
  external_ids:
    bphc: BPS-H80-027733
  sources:
  - hrsa/health-center-sites
  verified:
    'on': '2026-07-19'
    method: api
- id: ms/oxford/oxford-outpatient-treatment-center
  name: Oxford Outpatient Treatment Center
  categories:
  - su-treatment
  address:
    street: 611 Commerce Parkway
    city: Oxford
    state: ms
    zip: '38655'
  place: '2854840'
  geo:
    lat: 34.29877
    lng: -89.51798
  phone: 662-281-1306 x2104
  website: https://oxfordtreatment.com
  sources:
  - samhsa/findtreatment
  verified:
    'on': '2026-07-19'
    method: api
