- id: ms/philadelphia/bogue-chitto-head-start-and-early-head-start
  name: Bogue Chitto Head Start and Early Head Start
  categories:
  - child-care
  address:
    street: 114 Big Creek Cir
    city: Philadelphia
    state: ms
    zip: '39350'
  place: '2856960'
  geo:
    lat: 32.83297
    lng: -88.93191
  phone: 601-656-7224
  sources:
  - acf/head-start-locations
  verified:
    'on': '2026-07-19'
    method: api
- id: ms/philadelphia/exhibit-hall-center
  name: Exhibit Hall Center
  categories:
  - child-care
  address:
    street: 234 Carver Ave
    city: Philadelphia
    state: ms
    zip: '39350'
  place: '2856960'
  geo:
    lat: 32.77949
    lng: -89.11771
  phone: 601-656-4731
  sources:
  - acf/head-start-locations
  verified:
    'on': '2026-07-19'
    method: api
- id: ms/philadelphia/philadelphia-health-center
  name: PHILADELPHIA HEALTH CENTER
  categories:
  - community-health-center
  address:
    street: 10330 Road 375
    city: Philadelphia
    state: ms
    zip: '39350'
  place: '2856960'
  geo:
    lat: 32.76405
    lng: -89.13851
  phone: 601-656-0226
  external_ids:
    bphc: BPS-H80-000810
  sources:
  - hrsa/health-center-sites
  verified:
    'on': '2026-07-19'
    method: api
- id: ms/philadelphia/tucker-head-start-and-early-head-start
  name: Tucker Head Start and Early Head Start
  categories:
  - child-care
  address:
    street: 245 W Tucker Cir
    city: Philadelphia
    state: ms
    zip: '39350'
  place: '2856960'
  geo:
    lat: 32.70137
    lng: -89.06227
  phone: 601-389-2053
  sources:
  - acf/head-start-locations
  verified:
    'on': '2026-07-19'
    method: api
- id: ms/philadelphia/weems-community-mh-center-neshoba-county-office
  name: Weems Community MH Center Neshoba County Office
  categories:
  - su-treatment
  - mh-treatment
  address:
    street: 1011 Posey Avenue
    city: Philadelphia
    state: ms
    zip: '39350'
  place: '2856960'
  geo:
    lat: 32.75622
    lng: -89.10285
  phone: 601-483-4821
  website: https://www.weemsmh.com
  sources:
  - samhsa/findtreatment
  verified:
    'on': '2026-07-19'
    method: api
