- id: ms/walnut-grove/east-central-mississippi-health-care
  name: EAST CENTRAL MISSISSIPPI HEALTH CARE
  categories:
  - community-health-center
  address:
    street: 1490 MS-487
    city: Walnut Grove
    state: ms
    zip: '39189'
  place: '2877520'
  geo:
    lat: 32.57764
    lng: -89.33533
  phone: 601-625-7140
  external_ids:
    bphc: BPS-H80-002864
  sources:
  - hrsa/health-center-sites
  verified:
    'on': '2026-07-19'
    method: api
- id: ms/walnut-grove/sebastopol-clinic
  name: SEBASTOPOL CLINIC
  categories:
  - community-health-center
  address:
    street: 1488 Highway 487 E
    city: Walnut Grove
    state: ms
    zip: '39189'
  place: '2877520'
  geo:
    lat: 32.57771
    lng: -89.33604
  phone: 601-625-7403
  external_ids:
    bphc: BPS-H80-000422
  sources:
  - hrsa/health-center-sites
  verified:
    'on': '2026-07-19'
    method: api
- id: ms/walnut-grove/standing-pine-head-start
  name: Standing Pine Head Start
  categories:
  - child-care
  address:
    street: 416 Arrowhead Rd
    city: Walnut Grove
    state: ms
    zip: '39189'
  place: '2877520'
  geo:
    lat: 32.67237
    lng: -89.4469
  phone: 601-298-1582
  sources:
  - acf/head-start-locations
  verified:
    'on': '2026-07-19'
    method: api
- id: ms/walnut-grove/walnut-grove-medical-clinic
  name: WALNUT GROVE MEDICAL CLINIC
  categories:
  - community-health-center
  address:
    street: 199 Rimmer St
    city: Walnut Grove
    state: ms
    zip: '39189'
  place: '2877520'
  geo:
    lat: 32.59583
    lng: -89.46034
  phone: 601-253-2733
  external_ids:
    bphc: BPS-H80-003773
  sources:
  - hrsa/health-center-sites
  verified:
    'on': '2026-07-19'
    method: api
- id: ms/walnut-grove/wonderful-world-early-head-start-center
  name: Wonderful World Early Head Start Center
  categories:
  - child-care
  address:
    street: 314 Phillips Cir
    city: Walnut Grove
    state: ms
    zip: '39189'
  place: '2877520'
  geo:
    lat: 32.59491
    lng: -89.46181
  phone: 601-253-0080
  sources:
  - acf/head-start-locations
  verified:
    'on': '2026-07-19'
    method: api
