- id: in/bedford/bedford-head-start
  name: Bedford Head Start
  categories:
  - child-care
  address:
    street: 710 6th St
    city: Bedford
    state: in
    zip: '47421'
  place: '1804114'
  geo:
    lat: 38.87308
    lng: -86.48052
  phone: 812-275-0052
  sources:
  - acf/head-start-locations
  verified:
    'on': '2026-07-19'
    method: api
- id: in/bedford/centerstone-of-indiana-inc-centerstone-lawrence
  name: Centerstone of Indiana Inc Centerstone Lawrence County
  categories:
  - su-treatment
  - mh-treatment
  address:
    street: 1315 Hillcrest Road
    city: Bedford
    state: in
    zip: '47421'
  place: '1804114'
  geo:
    lat: 38.86397
    lng: -86.50615
  phone: 877-467-3123
  website: https://centerstone.org
  sources:
  - samhsa/findtreatment
  verified:
    'on': '2026-07-19'
    method: api
- id: in/bedford/groups-recover-together
  name: Groups Recover Together
  categories:
  - su-treatment
  address:
    street: 1725 M Street
    city: Bedford
    state: in
    zip: '47421'
  place: '1804114'
  geo:
    lat: 38.85902
    lng: -86.48921
  phone: 812-670-5463
  website: https://www.joingroups.com
  sources:
  - samhsa/findtreatment
  verified:
    'on': '2026-07-19'
    method: api
- id: in/bedford/housing-authority-city-of-bedford
  name: Housing Authority City Of Bedford
  categories:
  - housing-assistance
  address:
    street: 1305 K St
    city: Bedford
    state: in
    zip: '47421'
  description: Public housing and Housing Choice Voucher agency
  place: '1804114'
  geo:
    lat: 38.86437
    lng: -86.4859
  phone: 812-279-2356
  sources:
  - hud/resource-locator
  verified:
    'on': '2026-07-19'
    method: api
- id: in/bedford/ihc-bedford
  name: IHC Bedford
  categories:
  - community-health-center
  address:
    street: 2415 Mitchell Rd, Suite C
    city: Bedford
    state: in
    zip: '47421'
  place: '1804114'
  geo:
    lat: 38.85248
    lng: -86.49262
  phone: 317-576-1335
  external_ids:
    bphc: BPS-H80-036048
  sources:
  - hrsa/health-center-sites
  verified:
    'on': '2026-07-19'
    method: api
- id: in/bedford/ihc-lawrence-county-wic
  name: IHC Lawrence County WIC
  categories:
  - community-health-center
  address:
    street: 2415 Mitchell Rd, Suite A
    city: Bedford
    state: in
    zip: '47421'
  place: '1804114'
  geo:
    lat: 38.85248
    lng: -86.49262
  phone: 317-576-1335
  external_ids:
    bphc: BPS-H80-036047
  sources:
  - hrsa/health-center-sites
  verified:
    'on': '2026-07-19'
    method: api
- id: in/bedford/indiana-center-for-recovery-alcohol-and-drug-reh
  name: Indiana Center for Recovery Alcohol and Drug Rehab Bedford
  categories:
  - su-treatment
  address:
    street: 1600 23rd Street
    city: Bedford
    state: in
    zip: '47421'
  place: '1804114'
  geo:
    lat: 38.85298
    lng: -86.49419
  phone: 833-616-1093
  website: https://www.treatmentindiana.com/locations/bedford/
  sources:
  - samhsa/findtreatment
  verified:
    'on': '2026-07-19'
    method: api
- id: in/bedford/indiana-ctr-for-recovery-alcohol-and-drug-rehab
  name: Indiana Ctr for Recovery/Alcohol and Drug Rehab Center Bedford
  categories:
  - su-treatment
  - mh-treatment
  address:
    street: 1600 23rd Street
    city: Bedford
    state: in
    zip: '47421'
  place: '1804114'
  geo:
    lat: 38.85298
    lng: -86.49419
  phone: 833-616-1093
  website: https://www.treatmentindiana.com/locations/bedford/
  sources:
  - samhsa/findtreatment
  verified:
    'on': '2026-07-19'
    method: api
- id: in/bedford/nc-bedford-middle-school
  name: Nc Bedford Middle School
  categories:
  - meal-program
  address:
    street: 1501 N St
    city: Bedford
    state: in
    zip: '47421'
  description: Free summer meals for kids and teens (2026 season) — sponsored by North Lawrence Community
    Schools.
  place: '1804114'
  geo:
    lat: 38.86179
    lng: -86.49012
  external_ids:
    usda_master: Cycle 03_IN_SFSP_0522
  sources:
  - usda/summer-meal-sites
  verified:
    'on': '2026-07-19'
    method: api
- id: in/bedford/nc-lawrence-county-fairgrounds
  name: Nc Lawrence County Fairgrounds
  categories:
  - meal-program
  address:
    street: 11261 Us Hwy 50 W
    city: Bedford
    state: in
    zip: '47421'
  description: Free summer meals for kids and teens (2026 season) — sponsored by Springville Community
    Academy.
  place: '1804114'
  geo:
    lat: 38.80571
    lng: -86.52595
  external_ids:
    usda_master: Cycle 05_IN_SFSP_1009
  sources:
  - usda/summer-meal-sites
  verified:
    'on': '2026-07-19'
    method: api
- id: in/bedford/serenity-now-psychiatric-and-csl
  name: Serenity Now Psychiatric and Csl
  categories:
  - su-treatment
  - mh-treatment
  address:
    street: 2125 16th Street
    city: Bedford
    state: in
    zip: '47421'
  place: '1804114'
  geo:
    lat: 38.86258
    lng: -86.50297
  phone: 812-275-4053
  website: https://serenitynowclinic.org/
  sources:
  - samhsa/findtreatment
  verified:
    'on': '2026-07-19'
    method: api
- id: in/bedford/sichc-bedford
  name: SICHC Bedford
  categories:
  - community-health-center
  address:
    street: 629 Lincoln Ave
    city: Bedford
    state: in
    zip: '47421'
  place: '1804114'
  geo:
    lat: 38.87199
    lng: -86.4903
  phone: 812-675-4470
  external_ids:
    bphc: BPS-H80-038713
  sources:
  - hrsa/health-center-sites
  verified:
    'on': '2026-07-19'
    method: api
