- id: in/berne/berne-head-start
  name: Berne Head Start
  categories:
  - child-care
  address: {street: 1217 Clark St, city: Berne, state: in, zip: '46711'}
  description: Head Start early childhood program — 17 funded slots; operated by CDI HS/Northeast Indiana,
    IN.
  place: '1804888'
  geo: {lat: 40.65976, lng: -84.9646}
  phone: 260-413-3216
  sources:
  - acf/head-start-locations
  verified: {'on': '2026-07-19', method: api}
- id: in/berne/bernes-free-little-pantry
  name: Berne’s Free Little Pantry
  categories:
  - food-pantry
  place: '1804888'
  geo: {lat: 40.64561, lng: -84.95416}
  website: https://mapping.littlefreepantry.org/pantry/3917
  external_ids: {lfp: '3917'}
  sources:
  - littlefreepantry/map
  verified: {'on': '2026-07-19', method: scrape}
- id: in/berne/bernes-free-little-pantry-2
  name: Berne’s Free Little Pantry
  categories:
  - food-pantry
  place: '1804888'
  geo: {lat: 40.66026, lng: -84.94536}
  website: https://mapping.littlefreepantry.org/pantry/3887
  external_ids: {lfp: '3887'}
  sources:
  - littlefreepantry/map
  verified: {'on': '2026-07-19', method: scrape}
- id: in/berne/boys-girls-club-of-south-adams
  name: Boys & Girls Club of South Adams
  categories:
  - family-youth
  description: Boys & Girls Club
  address: {street: 117 E MAIN ST, city: Berne, state: in, zip: '46711'}
  geo: {lat: 40.65813, lng: -84.94962}
  place: '1804888'
  phone: 260-589-8365
  website: http://www.bgcac.org
  services:
  - Teen center
  - Summer programs
  - Meals
  external_ids: {bgca_site: '1919', bgca_org: '10412'}
  sources:
  - bgca/find-a-club
  verified: {'on': '2026-07-21', method: api}
- id: in/berne/hope-health-little-free-pantry
  name: Hope & Health Little Free Pantry
  categories:
  - food-pantry
  place: '1804888'
  geo: {lat: 40.66044, lng: -84.95286}
  website: https://mapping.littlefreepantry.org/pantry/4324
  external_ids: {lfp: '4324'}
  sources:
  - littlefreepantry/map
  verified: {'on': '2026-07-19', method: scrape}
