- id: in/bluffton/bluffton-harrison-elementary-schl
  name: Bluffton-Harrison Elementary Schl
  categories:
  - meal-program
  address: {street: 1100 East Spring Street, city: Bluffton, state: in, zip: '46714'}
  description: Free summer meals for kids and teens (2026 season) — sponsored by Bluffton-Harrison MSD.
  place: '1806220'
  geo: {lat: 40.72826, lng: -85.15712}
  external_ids: {usda_master: Cycle 02_IN_SFSP_0185}
  sources:
  - usda/summer-meal-sites
  verified: {'on': '2026-07-19', method: api}
- id: in/bluffton/meridian-health-services-corp
  name: Meridian Health Services Corp
  categories:
  - community-health-center
  address:
    street: 125 E Cherry St
    city: Bluffton
    state: in
    zip: '46714'
  place: '1806220'
  geo:
    lat: 40.73782
    lng: -85.17043
  phone: 765-288-1928
  external_ids:
    bphc: BPS-H80-039079
  sources:
  - hrsa/health-center-sites
  verified:
    'on': '2026-07-19'
    method: api
- id: in/bluffton/meridian-health-services-corp-2
  name: Meridian Health Services Corp
  categories:
  - community-health-center
  address:
    street: 303 S Main St
    city: Bluffton
    state: in
    zip: '46714'
  place: '1806220'
  geo:
    lat: 40.73751
    lng: -85.17093
  phone: 765-288-1928
  external_ids:
    bphc: BPS-H80-030284
  sources:
  - hrsa/health-center-sites
  verified:
    'on': '2026-07-19'
    method: api
- id: in/bluffton/meridian-health-services-corp-3
  name: Meridian Health Services Corp
  categories:
  - community-health-center
  address:
    street: 1026 S Main St
    city: Bluffton
    state: in
    zip: '46714'
  place: '1806220'
  geo:
    lat: 40.72944
    lng: -85.17173
  phone: 765-288-1928
  external_ids:
    bphc: BPS-H80-035549
  sources:
  - hrsa/health-center-sites
  verified:
    'on': '2026-07-19'
    method: api
- id: in/bluffton/park-center-inc-bluffton-counseling-services
  name: Park Center Inc Bluffton Counseling Services
  categories:
  - su-treatment
  - mh-treatment
  address:
    street: 1115 South Main Street
    city: Bluffton
    state: in
    zip: '46714'
  place: '1806220'
  geo:
    lat: 40.72884
    lng: -85.1709
  phone: 260-824-1071
  website: https://www.parkview.com/medical-services/behavioral-health
  sources:
  - samhsa/findtreatment
  verified:
    'on': '2026-07-19'
    method: api
- id: in/bluffton/roush-park
  name: Roush Park
  categories:
  - meal-program
  address: {street: 925 West Silver Street, city: Bluffton, state: in, zip: '46714'}
  description: Free summer meals for kids and teens (2026 season) — sponsored by Bluffton-Harrison MSD.
  place: '1806220'
  geo: {lat: 40.73114, lng: -85.18266}
  external_ids: {usda_master: Cycle 02_IN_SFSP_0263}
  sources:
  - usda/summer-meal-sites
  verified: {'on': '2026-07-19', method: api}
