- id: in/crothersville/bard-street-park
  name: Bard Street Park
  categories:
  - food-pantry
  place: '1816084'
  geo:
    lat: 38.79402
    lng: -85.83772
  website: https://mapping.littlefreepantry.org/pantry/3870
  external_ids:
    lfp: '3870'
  sources:
  - littlefreepantry/map
  verified:
    'on': '2026-07-19'
    method: scrape
- id: in/crothersville/beauty-from-ashes
  name: Beauty from Ashes
  categories:
  - food-pantry
  place: '1816084'
  geo:
    lat: 38.79682
    lng: -85.84057
  website: https://mapping.littlefreepantry.org/pantry/3869
  external_ids:
    lfp: '3869'
  sources:
  - littlefreepantry/map
  verified:
    'on': '2026-07-19'
    method: scrape
- id: in/crothersville/bethany-baptist
  name: Bethany Baptist
  categories:
  - food-pantry
  place: '1816084'
  geo:
    lat: 38.76414
    lng: -85.8597
  website: https://mapping.littlefreepantry.org/pantry/3867
  external_ids:
    lfp: '3867'
  sources:
  - littlefreepantry/map
  verified:
    'on': '2026-07-19'
    method: scrape
- id: in/crothersville/crothersville-food-closet
  name: Crothersville Food Closet
  categories:
  - food-pantry
  place: '1816084'
  geo:
    lat: 38.84294
    lng: -85.8174
  website: https://mapping.littlefreepantry.org/pantry/3880
  external_ids:
    lfp: '3880'
  sources:
  - littlefreepantry/map
  verified:
    'on': '2026-07-19'
    method: scrape
- id: in/crothersville/jackson-county-in-service-extension-crothersvill
  name: Jackson County (IN) Service Extension - Crothersville
  categories:
  - utility-assistance
  - financial
  description: Salvation Army service extension
  address: {city: Crothersville, state: in}
  geo: {lat: 38.79631, lng: -85.8383}
  place: '1816084'
  phone: 812-793-2512
  website: https://www.salvationarmyusa.org/in/crothersville/jackson-county-service-extension/
  services:
  - Utility Rent Assistance
  - Poverty
  sources:
  - salvationarmy/location-finder
  verified: {'on': '2026-07-20', method: api}
- id: in/crothersville/jackson-county-in-service-extension-crothersvill-2
  name: Jackson County, IN Service Extension - Crothersville
  categories:
  - utility-assistance
  - financial
  description: Salvation Army service extension
  address: {city: Crothersville, state: in, zip: '47229'}
  geo: {lat: 38.79631, lng: -85.8383}
  place: '1816084'
  phone: 812-793-2512
  website: https://www.salvationarmyusa.org/in/crothersville/service-extension/
  services:
  - Giving Back
  - Utility Rent Assistance
  external_ids: {gdos: 402818763d5b8722013d5d5c5575284a}
  sources:
  - salvationarmy/location-finder
  verified: {'on': '2026-07-20', method: api}
- id: in/crothersville/veteran-s-park
  name: Veteran's Park
  categories:
  - food-pantry
  place: '1816084'
  geo:
    lat: 38.7947
    lng: -85.84117
  website: https://mapping.littlefreepantry.org/pantry/3868
  external_ids:
    lfp: '3868'
  sources:
  - littlefreepantry/map
  verified:
    'on': '2026-07-19'
    method: scrape
