- id: in/crothersville/bard-street-park
  name: Bard Street Park
  categories:
  - food-pantry
  place: '1816084'
  geo:
    lat: 38.79402
    lng: -85.83772
  external_ids:
    lfp: '3870'
  sources:
  - littlefreepantry/map
  verified:
    'on': '2026-07-19'
    method: scrape
- id: in/crothersville/beauty-from-ashes
  name: Beauty from Ashes
  categories:
  - food-pantry
  place: '1816084'
  geo:
    lat: 38.79682
    lng: -85.84057
  external_ids:
    lfp: '3869'
  sources:
  - littlefreepantry/map
  verified:
    'on': '2026-07-19'
    method: scrape
- id: in/crothersville/bethany-baptist
  name: Bethany Baptist
  categories:
  - food-pantry
  place: '1816084'
  geo:
    lat: 38.76414
    lng: -85.8597
  external_ids:
    lfp: '3867'
  sources:
  - littlefreepantry/map
  verified:
    'on': '2026-07-19'
    method: scrape
- id: in/crothersville/crothersville-food-closet
  name: Crothersville Food Closet
  categories:
  - food-pantry
  place: '1816084'
  geo:
    lat: 38.84294
    lng: -85.8174
  external_ids:
    lfp: '3880'
  sources:
  - littlefreepantry/map
  verified:
    'on': '2026-07-19'
    method: scrape
- id: in/crothersville/veteran-s-park
  name: Veteran's Park
  categories:
  - food-pantry
  place: '1816084'
  geo:
    lat: 38.7947
    lng: -85.84117
  external_ids:
    lfp: '3868'
  sources:
  - littlefreepantry/map
  verified:
    'on': '2026-07-19'
    method: scrape
