- id: in/delphi/delphi-community-elementary-school
  name: Delphi Community Elementary School
  categories:
  - community-health-center
  address:
    street: 300 W Vine St
    city: Delphi
    state: in
    zip: '46923'
  place: '1817614'
  geo:
    lat: 40.57889
    lng: -86.67049
  phone: 765-564-3895
  external_ids:
    bphc: BPS-H80-039527
  sources:
  - hrsa/health-center-sites
  verified:
    'on': '2026-07-19'
    method: api
- id: in/delphi/delphi-community-high-school
  name: Delphi Community High School
  categories:
  - community-health-center
  address:
    street: 301 Armory Rd
    city: Delphi
    state: in
    zip: '46923'
  place: '1817614'
  geo:
    lat: 40.57642
    lng: -86.66587
  phone: 765-564-3481
  external_ids:
    bphc: BPS-H80-039525
  sources:
  - hrsa/health-center-sites
  verified:
    'on': '2026-07-19'
    method: api
- id: in/delphi/delphi-community-middle-school
  name: Delphi Community Middle School
  categories:
  - community-health-center
  address:
    street: 401 Armory Rd
    city: Delphi
    state: in
    zip: '46923'
  place: '1817614'
  geo:
    lat: 40.57642
    lng: -86.66718
  phone: 765-564-3411
  external_ids:
    bphc: BPS-H80-039526
  sources:
  - hrsa/health-center-sites
  verified:
    'on': '2026-07-19'
    method: api
- id: in/delphi/delphi-community-school-corporation
  name: Delphi Community School Corporation
  categories:
  - community-health-center
  address:
    street: 300 W Vine St RM 309
    city: Delphi
    state: in
    zip: '46923'
  place: '1817614'
  geo:
    lat: 40.57875
    lng: -86.67093
  phone: 765-564-3895
  external_ids:
    bphc: BPS-H80-029844
  sources:
  - hrsa/health-center-sites
  verified:
    'on': '2026-07-19'
    method: api
- id: in/delphi/family-health-clinic-of-carroll-county
  name: Family Health Clinic of Carroll County
  categories:
  - community-health-center
  address:
    street: 901 S Prince William Rd, Suite A
    city: Delphi
    state: in
    zip: '46923'
  place: '1817614'
  geo:
    lat: 40.58274
    lng: -86.66683
  phone: 765-564-3016
  external_ids:
    bphc: BPS-H80-014729
  sources:
  - hrsa/health-center-sites
  verified:
    'on': '2026-07-19'
    method: api
- id: in/delphi/north-central-nursing-clinics-administration
  name: North Central Nursing Clinics Administration
  categories:
  - community-health-center
  address:
    street: 651 Armory Rd
    city: Delphi
    state: in
    zip: '46923'
  place: '1817614'
  geo:
    lat: 40.57643
    lng: -86.67101
  phone: 765-201-7240
  website: http://www.familyhconline.com/
  external_ids:
    bphc: BPS-H80-019088
  sources:
  - hrsa/health-center-sites
  verified:
    'on': '2026-07-19'
    method: api
- id: in/delphi/valley-oaks-health-outpatient-services
  name: Valley Oaks Health Outpatient Services
  categories:
  - su-treatment
  - mh-treatment
  address:
    street: 1265 North Bradford Drive
    city: Delphi
    state: in
    zip: '46923'
  place: '1817614'
  geo:
    lat: 40.56594
    lng: -86.65498
  phone: 866-682-5539
  website: https://valleyoaks.org
  sources:
  - samhsa/findtreatment
  verified:
    'on': '2026-07-19'
    method: api
