- id: in/elkhart/addictions-recovery-centers-inc
  name: Addictions Recovery Centers Inc
  categories:
  - su-treatment
  address:
    street: 1709 East Bristol Street
    city: Elkhart
    state: in
    zip: '46514'
  place: '1820728'
  geo:
    lat: 41.70236
    lng: -85.95232
  phone: 574-293-1086
  website: https://www.arcenters.com
  sources:
  - samhsa/findtreatment
  verified:
    'on': '2026-07-19'
    method: api
- id: in/elkhart/concord-high-school
  name: Concord High School
  categories:
  - meal-program
  address:
    street: 59117 Minuteman Way
    city: Elkhart
    state: in
    zip: '46517'
  description: Free summer meals for kids and teens (2026 season) — sponsored by Concord Community Schools.
  place: '1820728'
  geo:
    lat: 41.63611
    lng: -85.92738
  external_ids:
    usda_master: Cycle 03_IN_SFSP_0087
  sources:
  - usda/summer-meal-sites
  verified:
    'on': '2026-07-19'
    method: api
- id: in/elkhart/concord-intermediate-school
  name: Concord Intermediate School
  categories:
  - meal-program
  address:
    street: 59197 Cr 13 South
    city: Elkhart
    state: in
    zip: '46517'
  description: Free summer meals for kids and teens (2026 season) — sponsored by Concord Community Schools.
  place: '1820728'
  geo:
    lat: 41.63634
    lng: -85.92374
  external_ids:
    usda_master: Cycle 03_IN_SFSP_0088
  sources:
  - usda/summer-meal-sites
  verified:
    'on': '2026-07-19'
    method: api
- id: in/elkhart/eastside-head-start
  name: Eastside Head Start
  categories:
  - child-care
  address:
    street: 57156 County Road 13
    city: Elkhart
    state: in
    zip: '46516'
  place: '1820728'
  geo:
    lat: 41.66492
    lng: -85.9148
  phone: 574-393-5866
  sources:
  - acf/head-start-locations
  verified:
    'on': '2026-07-19'
    method: api
- id: in/elkhart/elkhart-high-school
  name: Elkhart High School
  categories:
  - meal-program
  address:
    street: 2608 California Rd
    city: Elkhart
    state: in
    zip: '46514'
  description: Free summer meals for kids and teens (2026 season) — sponsored by Elkhart Community Schools.
  place: '1820728'
  geo:
    lat: 41.69539
    lng: -86.01422
  external_ids:
    usda_master: Cycle 05_IN_SFSP_0934
  sources:
  - usda/summer-meal-sites
  verified:
    'on': '2026-07-19'
    method: api
- id: in/elkhart/free-food-box-by-calvary-umc
  name: Free Food Box by Calvary UMC
  categories:
  - food-pantry
  place: '1820728'
  geo:
    lat: 41.67497
    lng: -86.00141
  external_ids:
    lfp: '3674'
  sources:
  - littlefreepantry/map
  verified:
    'on': '2026-07-19'
    method: scrape
- id: in/elkhart/hawthorne-elementary-school
  name: Hawthorne Elementary School
  categories:
  - child-care
  address:
    street: 501 W Lusher Ave
    city: Elkhart
    state: in
    zip: '46517'
  place: '1820728'
  geo:
    lat: 41.6663
    lng: -85.97388
  phone: 574-855-8159
  sources:
  - acf/head-start-locations
  verified:
    'on': '2026-07-19'
    method: api
- id: in/elkhart/heart-city-health-center
  name: HEART CITY HEALTH CENTER
  categories:
  - community-health-center
  address:
    street: 236 Simpson Ave
    city: Elkhart
    state: in
    zip: '46516'
  place: '1820728'
  geo:
    lat: 41.68978
    lng: -85.9459
  phone: 574-293-0052
  external_ids:
    bphc: BPS-H80-001140
  sources:
  - hrsa/health-center-sites
  verified:
    'on': '2026-07-19'
    method: api
- id: in/elkhart/heart-city-health-center-scenic-health
  name: Heart City Health Center SCENIC HEALTH
  categories:
  - community-health-center
  address:
    street: 148 West Hively Avenue, Unit 1
    city: Elkhart
    state: in
    zip: '46517'
  place: '1820728'
  geo:
    lat: 41.6608
    lng: -85.96734
  phone: 574-293-0052
  website: https://www.heartcityhealth.org
  external_ids:
    bphc: BPS-H80-013784
  sources:
  - hrsa/health-center-sites
  verified:
    'on': '2026-07-19'
    method: api
- id: in/elkhart/heart-city-health-dental
  name: Heart City Health Dental
  categories:
  - community-health-center
  address:
    street: 2100 Superior St
    city: Elkhart
    state: in
    zip: '46516'
  place: '1820728'
  geo:
    lat: 41.68964
    lng: -85.94376
  phone: 574-293-0052
  external_ids:
    bphc: BPS-H80-027946
  sources:
  - hrsa/health-center-sites
  verified:
    'on': '2026-07-19'
    method: api
- id: in/elkhart/heart-city-womens-health
  name: Heart City Womens Health
  categories:
  - community-health-center
  address:
    street: 1545 Cassopolis St
    city: Elkhart
    state: in
    zip: '46514'
  place: '1820728'
  geo:
    lat: 41.70383
    lng: -85.97257
  phone: 574-293-0052
  external_ids:
    bphc: BPS-H80-029997
  sources:
  - hrsa/health-center-sites
  verified:
    'on': '2026-07-19'
    method: api
- id: in/elkhart/housing-authority-of-the-city-of-elkhart
  name: Housing Authority Of The City Of Elkhart
  categories:
  - housing-assistance
  address:
    street: 1396 Benham Ave
    city: Elkhart
    state: in
    zip: '46516'
  description: Public housing and Housing Choice Voucher agency
  place: '1820728'
  geo:
    lat: 41.67499
    lng: -85.97008
  phone: 574-295-8392
  sources:
  - hud/resource-locator
  verified:
    'on': '2026-07-19'
    method: api
- id: in/elkhart/jimtown-north-elementary
  name: Jimtown North Elementary
  categories:
  - child-care
  address:
    street: 30046 County Road 16
    city: Elkhart
    state: in
    zip: '46516'
  place: '1820728'
  geo:
    lat: 41.67868
    lng: -86.04298
  phone: 574-575-4676
  sources:
  - acf/head-start-locations
  verified:
    'on': '2026-07-19'
    method: api
- id: in/elkhart/mary-beck-elementary-school
  name: Mary Beck Elementary School
  categories:
  - meal-program
  address:
    street: 818 Mcdonald Street
    city: Elkhart
    state: in
    zip: '46516'
  description: Free summer meals for kids and teens (2026 season) — sponsored by Elkhart Community Schools.
  place: '1820728'
  geo:
    lat: 41.67592
    lng: -85.95847
  external_ids:
    usda_master: Cycle 05_IN_SFSP_0932
  sources:
  - usda/summer-meal-sites
  verified:
    'on': '2026-07-19'
    method: api
- id: in/elkhart/mary-beck-little-free-pantry
  name: Mary Beck Little Free Pantry
  categories:
  - food-pantry
  place: '1820728'
  geo:
    lat: 41.67694
    lng: -85.95837
  external_ids:
    lfp: '339'
  sources:
  - littlefreepantry/map
  verified:
    'on': '2026-07-19'
    method: scrape
- id: in/elkhart/mary-feeser-elementary-school
  name: Mary Feeser Elementary School
  categories:
  - child-care
  address:
    street: 26665 County Road 4
    city: Elkhart
    state: in
    zip: '46514'
  place: '1820728'
  geo:
    lat: 41.73937
    lng: -85.97988
  phone: 574-262-5586
  sources:
  - acf/head-start-locations
  verified:
    'on': '2026-07-19'
    method: api
- id: in/elkhart/oaklawn-psychiatric-center-inc
  name: Oaklawn Psychiatric Center Inc
  categories:
  - su-treatment
  - mh-treatment
  address:
    street: 2600 Oakland Avenue
    city: Elkhart
    state: in
    zip: '46517'
  place: '1820728'
  geo:
    lat: 41.6608
    lng: -85.98345
  phone: 574-533-1234 x2456
  website: https://www.oaklawn.org
  sources:
  - samhsa/findtreatment
  verified:
    'on': '2026-07-19'
    method: api
- id: in/elkhart/osolo-elem-school
  name: Osolo Elem.School
  categories:
  - meal-program
  address:
    street: 24975 Cr 6 E
    city: Elkhart
    state: in
    zip: '46514'
  description: Free summer meals for kids and teens (2026 season) — sponsored by Elkhart Community Schools.
  place: '1820728'
  geo:
    lat: 41.72437
    lng: -85.94502
  external_ids:
    usda_master: Cycle 05_IN_SFSP_0933
  sources:
  - usda/summer-meal-sites
  verified:
    'on': '2026-07-19'
    method: api
- id: in/elkhart/osolo-elementary-school
  name: Osolo Elementary School
  categories:
  - child-care
  address:
    street: 24975 County Road 6
    city: Elkhart
    state: in
    zip: '46514'
  place: '1820728'
  geo:
    lat: 41.72521
    lng: -85.94505
  phone: 574-262-5590
  sources:
  - acf/head-start-locations
  verified:
    'on': '2026-07-19'
    method: api
- id: in/elkhart/south-side-elementary
  name: South Side Elementary
  categories:
  - child-care
  address:
    street: 23702 Arlene Ave
    city: Elkhart
    state: in
    zip: '46517'
  place: '1820728'
  geo:
    lat: 41.63188
    lng: -85.91969
  phone: 574-875-6565
  sources:
  - acf/head-start-locations
  verified:
    'on': '2026-07-19'
    method: api
- id: in/elkhart/st-vincent-de-paul-school
  name: St. Vincent De Paul School
  categories:
  - meal-program
  address:
    street: 1114 South Main St.
    city: Elkhart
    state: in
    zip: '46516'
  description: Free summer meals for kids and teens (2026 season) — sponsored by St Vincent de Paul, Elkhart.
  place: '1820728'
  geo:
    lat: 41.67743
    lng: -85.96498
  external_ids:
    usda_master: Cycle 05_IN_SSO_0921
  sources:
  - usda/summer-meal-sites
  verified:
    'on': '2026-07-19'
    method: api
- id: in/elkhart/washington-gardens-room-2
  name: Washington Gardens room 2
  categories:
  - child-care
  address:
    street: 315 Chapman Ave
    city: Elkhart
    state: in
    zip: '46516'
  place: '1820728'
  geo:
    lat: 41.67557
    lng: -85.97112
  phone: 574-393-5866
  sources:
  - acf/head-start-locations
  verified:
    'on': '2026-07-19'
    method: api
- id: in/elkhart/west-side-elementary-school
  name: West Side Elementary School
  categories:
  - child-care
  address:
    street: 230 W Mishawaka Rd
    city: Elkhart
    state: in
    zip: '46517'
  place: '1820728'
  geo:
    lat: 41.65295
    lng: -85.96866
  phone: 574-293-2531
  sources:
  - acf/head-start-locations
  verified:
    'on': '2026-07-19'
    method: api
- id: in/elkhart/woodland-elementary-school
  name: Woodland Elementary School
  categories:
  - child-care
  address:
    street: 1220 County Road 3
    city: Elkhart
    state: in
    zip: '46514'
  place: '1820728'
  geo:
    lat: 41.6992
    lng: -86.01358
  phone: 574-262-5578
  sources:
  - acf/head-start-locations
  verified:
    'on': '2026-07-19'
    method: api
