- id: in/evansville/adapt-psychology-inc-adapt-counseling-services
  name: ADAPT Psychology Inc ADAPT Counseling Services
  categories:
  - su-treatment
  - mh-treatment
  address:
    street: 125 North Weinbach Avenue
    city: Evansville
    state: in
    zip: '47711'
  place: '1822000'
  geo:
    lat: 37.97906
    lng: -87.52872
  phone: 812-421-9900
  website: https://www.adaptcounselingservices.org/
  sources:
  - samhsa/findtreatment
  verified:
    'on': '2026-07-19'
    method: api
- id: in/evansville/ascension-st-vincent-evansville-adult-mental-hea
  name: Ascension St Vincent Evansville Adult Mental Health Unit
  categories:
  - su-treatment
  - mh-treatment
  address:
    street: 3700 Washington Avenue
    city: Evansville
    state: in
    zip: '47714'
  place: '1822000'
  geo:
    lat: 37.96526
    lng: -87.50512
  phone: 812-485-1473
  website: https://healthcare.ascension.org/
  sources:
  - samhsa/findtreatment
  verified:
    'on': '2026-07-19'
    method: api
- id: in/evansville/caldwell
  name: CALDWELL
  categories:
  - child-care
  address:
    street: 626 Cross St
    city: Evansville
    state: in
    zip: '47713'
  place: '1822000'
  geo:
    lat: 37.95098
    lng: -87.55727
  phone: 812-401-3030
  sources:
  - acf/head-start-locations
  verified:
    'on': '2026-07-19'
    method: api
- id: in/evansville/cape-place
  name: CAPE PLACE
  categories:
  - child-care
  address:
    street: 301 Lincoln Ave
    city: Evansville
    state: in
    zip: '47713'
  place: '1822000'
  geo:
    lat: 37.97014
    lng: -87.56008
  phone: 812-452-3132
  sources:
  - acf/head-start-locations
  verified:
    'on': '2026-07-19'
    method: api
- id: in/evansville/cape-place-annex
  name: Cape Place Annex
  categories:
  - child-care
  address:
    street: 322 E Mulberry St
    city: Evansville
    state: in
    zip: '47713'
  place: '1822000'
  geo:
    lat: 37.9696
    lng: -87.55926
  phone: 812-492-3907
  sources:
  - acf/head-start-locations
  verified:
    'on': '2026-07-19'
    method: api
- id: in/evansville/cleanslate-centers-evansville
  name: CleanSlate Centers Evansville
  categories:
  - su-treatment
  address:
    street: 4411 Washington Avenue
    city: Evansville
    state: in
    zip: '47714'
  place: '1822000'
  geo:
    lat: 37.96177
    lng: -87.49653
  phone: 812-213-0304
  website: https://www.cleanslatecenters.com
  sources:
  - samhsa/findtreatment
  verified:
    'on': '2026-07-19'
    method: api
- id: in/evansville/counseling-for-change-inc
  name: Counseling for Change Inc
  categories:
  - su-treatment
  address:
    street: 1133 Lincoln Avenue
    city: Evansville
    state: in
    zip: '47714'
  place: '1822000'
  geo:
    lat: 37.96968
    lng: -87.54434
  phone: 812-491-2615
  website: https://www.counselingforchangeinc.com/
  sources:
  - samhsa/findtreatment
  verified:
    'on': '2026-07-19'
    method: api
- id: in/evansville/deaconess-cross-pointe-inpatient
  name: Deaconess Cross Pointe Inpatient
  categories:
  - su-treatment
  - mh-treatment
  address:
    street: 7200 East Indiana Street
    city: Evansville
    state: in
    zip: '47715'
  place: '1822000'
  geo:
    lat: 37.97888
    lng: -87.46589
  phone: 812-476-7200
  website: https://www.deaconess.com
  sources:
  - samhsa/findtreatment
  verified:
    'on': '2026-07-19'
    method: api
- id: in/evansville/echo-community-health-care-inc-administrative-of
  name: ECHO Community Health Care, Inc. Administrative Office
  categories:
  - community-health-center
  address:
    street: 401 SE 6th St, Ste 202
    city: Evansville
    state: in
    zip: '47713'
  place: '1822000'
  geo:
    lat: 37.96897
    lng: -87.56602
  phone: 812-421-7489
  external_ids:
    bphc: BPS-H80-021951
  sources:
  - hrsa/health-center-sites
  verified:
    'on': '2026-07-19'
    method: api
- id: in/evansville/echo-community-health-care-inc-mulberry-street-c
  name: ECHO Community Health Care, Inc. Mulberry Street Clinic
  categories:
  - community-health-center
  address:
    street: 315 Mulberry St
    city: Evansville
    state: in
    zip: '47713'
  place: '1822000'
  geo:
    lat: 37.96596
    lng: -87.56739
  phone: 812-421-7489
  website: https://www.echochc.org
  external_ids:
    bphc: BPS-H80-008131
  sources:
  - hrsa/health-center-sites
  verified:
    'on': '2026-07-19'
    method: api
- id: in/evansville/echo-division-street-family-clinic
  name: ECHO Division Street Family Clinic
  categories:
  - community-health-center
  address:
    street: 25 W Division St
    city: Evansville
    state: in
    zip: '47710'
  place: '1822000'
  geo:
    lat: 37.97769
    lng: -87.56509
  phone: 812-436-4501
  website: https://www.echochc.org
  external_ids:
    bphc: BPS-H80-000016
  sources:
  - hrsa/health-center-sites
  verified:
    'on': '2026-07-19'
    method: api
- id: in/evansville/echo-john-street-woodson-homeless-health-clinic
  name: ECHO John Street Woodson Homeless Health Clinic
  categories:
  - community-health-center
  address:
    street: 401 John St
    city: Evansville
    state: in
    zip: '47713'
  place: '1822000'
  geo:
    lat: 37.97609
    lng: -87.5583
  phone: 812-436-0224
  external_ids:
    bphc: BPS-H80-032224
  sources:
  - hrsa/health-center-sites
  verified:
    'on': '2026-07-19'
    method: api
- id: in/evansville/echo-pediatric-and-prenatal-clinic
  name: ECHO Pediatric and Prenatal Clinic
  categories:
  - community-health-center
  address:
    street: 316 Chandler Ave
    city: Evansville
    state: in
    zip: '47713'
  place: '1822000'
  geo:
    lat: 37.96575
    lng: -87.56695
  phone: 812-436-4501
  external_ids:
    bphc: BPS-H80-014455
  sources:
  - hrsa/health-center-sites
  verified:
    'on': '2026-07-19'
    method: api
- id: in/evansville/enterprise-zone
  name: ENTERPRISE ZONE
  categories:
  - child-care
  address:
    street: 1000 E Virginia St
    city: Evansville
    state: in
    zip: '47711'
  place: '1822000'
  geo:
    lat: 37.9822
    lng: -87.54727
  phone: 812-452-3134
  sources:
  - acf/head-start-locations
  verified:
    'on': '2026-07-19'
    method: api
- id: in/evansville/evansville-comprehensive-treatment-cen-evansvill
  name: Evansville Comprehensive Treatment Cen Evansville Treatment Center LLC
  categories:
  - su-treatment
  - mh-treatment
  address:
    street: 1510 West Franklin Street
    city: Evansville
    state: in
    zip: '47710'
  place: '1822000'
  geo:
    lat: 37.98006
    lng: -87.58628
  phone: 812-512-9175
  website: https://www.ctcprograms.com/location/evansville-comprehensive-treatment-center/
  sources:
  - samhsa/findtreatment
  verified:
    'on': '2026-07-19'
    method: api
- id: in/evansville/evansville-comprehensive-treatment-center
  name: Evansville Comprehensive Treatment Center
  categories:
  - su-treatment
  address:
    street: 1510 West Franklin Street
    city: Evansville
    state: in
    zip: '47710'
  place: '1822000'
  geo:
    lat: 37.98006
    lng: -87.58628
  phone: 812-512-9175
  website: https://www.ctcprograms.com/location/evansville-comprehensive-treatment-center/
  sources:
  - samhsa/findtreatment
  verified:
    'on': '2026-07-19'
    method: api
- id: in/evansville/evansville-psychiatric-childrens-ctr-epcc
  name: Evansville Psychiatric Childrens Ctr (EPCC)
  categories:
  - mh-treatment
  address:
    street: 3300 East Morgan Avenue
    city: Evansville
    state: in
    zip: '47715'
  place: '1822000'
  phone: 812-477-6436 x233
  website: https://www.in.gov/fssa/dmha/state-psychiatric-hospitals/evansville-psychiatric-childrens-center/
  sources:
  - samhsa/findtreatment
  verified:
    'on': '2026-07-19'
    method: api
- id: in/evansville/hillcrest-washington-youth-home-inc
  name: Hillcrest Washington Youth Home Inc
  categories:
  - su-treatment
  - mh-treatment
  address:
    street: 2700 West Indiana Street
    city: Evansville
    state: in
    zip: '47712'
  place: '1822000'
  geo:
    lat: 37.97902
    lng: -87.60717
  phone: 812-429-9654
  website: https://www.hillcrestyouthservices.org
  sources:
  - samhsa/findtreatment
  verified:
    'on': '2026-07-19'
    method: api
- id: in/evansville/housing-authority-of-the-city-of-evansville
  name: Housing Authority Of The City Of Evansville
  categories:
  - housing-assistance
  address: {street: 500 SE 10th St, city: Evansville, state: in, zip: '47713'}
  description: Public housing and Housing Choice Voucher agency
  place: '1822000'
  geo: {lat: 37.97073, lng: -87.561}
  phone: 812-428-8500
  sources:
  - hud/resource-locator
  verified: {'on': '2026-07-19', method: api}
- id: in/evansville/ivy-tech-head-start
  name: IVY TECH HEAD START
  categories:
  - child-care
  address:
    street: 651 Fairway Dr
    city: Evansville
    state: in
    zip: '47710'
  place: '1822000'
  geo:
    lat: 38.01013
    lng: -87.57174
  phone: 812-401-1936
  sources:
  - acf/head-start-locations
  verified:
    'on': '2026-07-19'
    method: api
- id: in/evansville/now-counseling-services-llc
  name: NOW Counseling Services LLC
  categories:
  - su-treatment
  - mh-treatment
  address:
    street: 819 West Franklin Street
    city: Evansville
    state: in
    zip: '47710'
  place: '1822000'
  geo:
    lat: 37.98061
    lng: -87.57598
  phone: 812-602-5170
  website: https://www.nowcounseling.us
  sources:
  - samhsa/findtreatment
  verified:
    'on': '2026-07-19'
    method: api
- id: in/evansville/now-counseling-services-llc-2
  name: NOW Counseling Services LLC
  categories:
  - su-treatment
  - mh-treatment
  address:
    street: 1010 South Weinbach Avenue
    city: Evansville
    state: in
    zip: '47714'
  place: '1822000'
  geo:
    lat: 37.96213
    lng: -87.52944
  phone: 812-602-4022
  website: https://www.nowcounseling.us
  sources:
  - samhsa/findtreatment
  verified:
    'on': '2026-07-19'
    method: api
- id: in/evansville/now-counseling-services-llc-evansville-outpatien
  name: NOW Counseling Services LLC Evansville Outpatient Facility
  categories:
  - su-treatment
  - mh-treatment
  address:
    street: 629 Ingle Street
    city: Evansville
    state: in
    zip: '47708'
  place: '1822000'
  geo:
    lat: 37.97642
    lng: -87.57063
  phone: 812-602-4022
  website: https://www.nowcounseling.us
  sources:
  - samhsa/findtreatment
  verified:
    'on': '2026-07-19'
    method: api
- id: in/evansville/now-counseling-services-llc-partial-hospitalizat
  name: NOW Counseling Services LLC Partial Hospitalization Program
  categories:
  - su-treatment
  - mh-treatment
  address:
    street: 124 East Powell Street
    city: Evansville
    state: in
    zip: '47713'
  place: '1822000'
  geo:
    lat: 37.96495
    lng: -87.56277
  phone: 812-602-4022
  website: https://nowcounseling.us
  sources:
  - samhsa/findtreatment
  verified:
    'on': '2026-07-19'
    method: api
- id: in/evansville/now-counseling-services-llc-safe-now-recovery-ce
  name: NOW Counseling Services LLC Safe Now Recovery Center
  categories:
  - su-treatment
  - mh-treatment
  address:
    street: 928 SE 8th Street
    city: Evansville
    state: in
    zip: '47713'
  place: '1822000'
  geo:
    lat: 37.96362
    lng: -87.56227
  phone: 812-602-4022
  website: https://www.nowcounseling.us
  sources:
  - samhsa/findtreatment
  verified:
    'on': '2026-07-19'
    method: api
- id: in/evansville/paradise-center
  name: PARADISE CENTER
  categories:
  - child-care
  address:
    street: 253 Lincoln Ave
    city: Evansville
    state: in
    zip: '47713'
  place: '1822000'
  geo:
    lat: 37.97014
    lng: -87.56079
  phone: 812-425-5291
  sources:
  - acf/head-start-locations
  verified:
    'on': '2026-07-19'
    method: api
- id: in/evansville/salem
  name: SALEM
  categories:
  - child-care
  address:
    street: 6311 Kratzville Rd
    city: Evansville
    state: in
    zip: '47710'
  place: '1822000'
  geo:
    lat: 38.03571
    lng: -87.57937
  phone: 812-470-5419
  sources:
  - acf/head-start-locations
  verified:
    'on': '2026-07-19'
    method: api
- id: in/evansville/southwestern-behav-healthcare-inc-community-supp
  name: Southwestern Behav Healthcare Inc Community Support Services
  categories:
  - su-treatment
  - mh-treatment
  address:
    street: 410 Mulberry Street
    city: Evansville
    state: in
    zip: '47713'
  place: '1822000'
  geo:
    lat: 37.96723
    lng: -87.56655
  phone: 812-436-4243
  website: https://www.southwestern.org
  sources:
  - samhsa/findtreatment
  verified:
    'on': '2026-07-19'
    method: api
- id: in/evansville/southwestern-behav-healthcare-inc-moran-center
  name: Southwestern Behav Healthcare Inc Moran Center
  categories:
  - su-treatment
  - mh-treatment
  address:
    street: 60 South Stockwell Road
    city: Evansville
    state: in
    zip: '47714'
  place: '1822000'
  geo:
    lat: 37.97601
    lng: -87.49995
  phone: 812-476-5437
  website: https://www.southwestern.org
  sources:
  - samhsa/findtreatment
  verified:
    'on': '2026-07-19'
    method: api
- id: in/evansville/southwestern-behav-healthcare-inc-neurodevelopme
  name: Southwestern Behav Healthcare Inc Neurodevelopmental Center
  categories:
  - su-treatment
  - mh-treatment
  address:
    street: 19 East Chandler Avenue
    city: Evansville
    state: in
    zip: '47713'
  place: '1822000'
  geo:
    lat: 37.96565
    lng: -87.56542
  phone: 812-425-8190
  website: https://www.southwestern.org
  sources:
  - samhsa/findtreatment
  verified:
    'on': '2026-07-19'
    method: api
- id: in/evansville/southwestern-behavioral-healthcare-inc
  name: Southwestern Behavioral Healthcare Inc
  categories:
  - su-treatment
  - mh-treatment
  address:
    street: 415 Mulberry Street
    city: Evansville
    state: in
    zip: '47713'
  place: '1822000'
  geo:
    lat: 37.96674
    lng: -87.56596
  phone: 812-423-7791
  website: https://www.southwestern.org
  sources:
  - samhsa/findtreatment
  verified:
    'on': '2026-07-19'
    method: api
- id: in/evansville/southwestern-behavioral-healthcare-inc-moulton-c
  name: Southwestern Behavioral Healthcare Inc Moulton Center
  categories:
  - su-treatment
  - mh-treatment
  address:
    street: 1 North Barker Avenue
    city: Evansville
    state: in
    zip: '47712'
  place: '1822000'
  geo:
    lat: 37.97867
    lng: -87.60931
  phone: 812-423-4418
  website: https://www.southwestern.org
  sources:
  - samhsa/findtreatment
  verified:
    'on': '2026-07-19'
    method: api
- id: in/evansville/southwestern-behavioral-healthcare-inc-stepping
  name: Southwestern Behavioral Healthcare Inc Stepping Stone
  categories:
  - su-treatment
  address:
    street: 4001 John Street
    city: Evansville
    state: in
    zip: '47714'
  place: '1822000'
  geo:
    lat: 37.97571
    lng: -87.50082
  phone: 812-473-3144
  website: https://www.southwestern.org
  sources:
  - samhsa/findtreatment
  verified:
    'on': '2026-07-19'
    method: api
- id: in/evansville/um-pantry
  name: Um, pantry?
  categories:
  - food-pantry
  place: '1822000'
  geo:
    lat: 37.97587
    lng: -87.60815
  external_ids:
    lfp: '4756'
  sources:
  - littlefreepantry/map
  verified:
    'on': '2026-07-19'
    method: scrape
- id: in/evansville/villa-drive-little-free-pantry
  name: Villa Drive Little Free Pantry
  categories:
  - food-pantry
  place: '1822000'
  geo:
    lat: 37.96479
    lng: -87.51503
  external_ids:
    lfp: '2320'
  sources:
  - littlefreepantry/map
  verified:
    'on': '2026-07-19'
    method: scrape
- id: in/evansville/volunteers-of-america-ohin-fresh-start-recovery
  name: Volunteers of America OHIN Fresh Start Recovery Center Evansville
  categories:
  - su-treatment
  address:
    street: 1351 West Buena Vista Road
    city: Evansville
    state: in
    zip: '47710'
  place: '1822000'
  geo:
    lat: 38.01531
    lng: -87.58343
  phone: 833-659-4357
  website: https://www.voaohin.org
  sources:
  - samhsa/findtreatment
  verified:
    'on': '2026-07-19'
    method: api
- id: in/evansville/west-side-evv-little-free-pantry
  name: West Side EVV Little Free Pantry
  categories:
  - food-pantry
  place: '1822000'
  geo:
    lat: 37.97987
    lng: -87.59477
  external_ids:
    lfp: '3415'
  sources:
  - littlefreepantry/map
  verified:
    'on': '2026-07-19'
    method: scrape
