- id: in/fort-wayne/1133
  name: '1133'
  categories:
  - food-pantry
  place: '1825000'
  geo:
    lat: 41.07475
    lng: -85.15389
  external_ids:
    lfp: '1279'
  sources:
  - littlefreepantry/map
  verified:
    'on': '2026-07-19'
    method: scrape
- id: in/fort-wayne/administrative-office-ludwig
  name: Administrative Office Ludwig
  categories:
  - community-health-center
  address:
    street: 111 E Ludwig Rd
    city: Fort Wayne
    state: in
    zip: '46825'
  place: '1825000'
  geo:
    lat: 41.13934
    lng: -85.14052
  phone: 260-458-2641
  external_ids:
    bphc: BPS-H80-033021
  sources:
  - hrsa/health-center-sites
  verified:
    'on': '2026-07-19'
    method: api
- id: in/fort-wayne/allendale-behavioral-health
  name: Allendale Behavioral Health
  categories:
  - su-treatment
  - mh-treatment
  address:
    street: 454 East Dupont Road
    city: Fort Wayne
    state: in
    zip: '46825'
  place: '1825000'
  geo:
    lat: 41.17677
    lng: -85.13541
  phone: 260-498-2237
  website: https://www.allendalebehavioral.com
  sources:
  - samhsa/findtreatment
  verified:
    'on': '2026-07-19'
    method: api
- id: in/fort-wayne/alliance-health-center
  name: Alliance Health Center
  categories:
  - community-health-center
  address:
    street: 2700 Lafayette St, Ste 110
    city: Fort Wayne
    state: in
    zip: '46806'
  place: '1825000'
  geo:
    lat: 41.06027
    lng: -85.13304
  phone: 260-266-0780
  website: https://www.myalliancehealth.org
  external_ids:
    bphc: BPS-LAL-033700
  sources:
  - hrsa/health-center-sites
  verified:
    'on': '2026-07-19'
    method: api
- id: in/fort-wayne/alliance-health-centers-brave-alliance-health-ce
  name: Alliance Health Centers- Brave Alliance Health Center
  categories:
  - community-health-center
  address:
    street: 525 Oxford St
    city: Fort Wayne
    state: in
    zip: '46806'
  place: '1825000'
  geo:
    lat: 41.05351
    lng: -85.12933
  phone: 606-634-1456
  website: https://www.myalliancehealth.org/alliance-health-centers/home
  external_ids:
    bphc: BPS-LAL-038450
  sources:
  - hrsa/health-center-sites
  verified:
    'on': '2026-07-19'
    method: api
- id: in/fort-wayne/alliance-health-centers-charis-house
  name: Alliance Health Centers- Charis House
  categories:
  - community-health-center
  address:
    street: 5920 Decatur Rd
    city: Fort Wayne
    state: in
    zip: '46816'
  place: '1825000'
  geo:
    lat: 41.03018
    lng: -85.12631
  phone: 260-266-0780
  external_ids:
    bphc: BPS-LAL-040439
  sources:
  - hrsa/health-center-sites
  verified:
    'on': '2026-07-19'
    method: api
- id: in/fort-wayne/alliance-health-centers-pediatrics
  name: Alliance Health Centers- Pediatrics
  categories:
  - community-health-center
  address:
    street: 2700 Lafayette St, Suite 50
    city: Fort Wayne
    state: in
    zip: '46806'
  place: '1825000'
  geo:
    lat: 41.06041
    lng: -85.13363
  phone: 260-266-0780
  website: https://www.myalliancehealth.org/alliance-health-centers/home
  external_ids:
    bphc: BPS-LAL-038804
  sources:
  - hrsa/health-center-sites
  verified:
    'on': '2026-07-19'
    method: api
- id: in/fort-wayne/alliance-health-centers-the-bridge-of-grace
  name: Alliance Health Centers- The Bridge of Grace
  categories:
  - community-health-center
  address:
    street: 909 Elmrow Dr
    city: Fort Wayne
    state: in
    zip: '46806'
  place: '1825000'
  geo:
    lat: 41.03721
    lng: -85.12383
  phone: 260-266-0780
  website: https://www.myalliancehealth.org/alliance-health-centers/home
  external_ids:
    bphc: BPS-LAL-038451
  sources:
  - hrsa/health-center-sites
  verified:
    'on': '2026-07-19'
    method: api
- id: in/fort-wayne/alliance-health-centers-turnstone
  name: Alliance Health Centers-  Turnstone
  categories:
  - community-health-center
  address:
    street: 3320 N Clinton St
    city: Fort Wayne
    state: in
    zip: '46805'
  place: '1825000'
  geo:
    lat: 41.10656
    lng: -85.13507
  phone: 260-266-0780
  website: https://www.myalliancehealth.org/alliance-health-centers/home
  external_ids:
    bphc: BPS-LAL-039574
  sources:
  - hrsa/health-center-sites
  verified:
    'on': '2026-07-19'
    method: api
- id: in/fort-wayne/alliance-health-centers-urban-league
  name: Alliance Health Centers- Urban League
  categories:
  - community-health-center
  address:
    street: 2135 S Hanna St, Suite 2
    city: Fort Wayne
    state: in
    zip: '46803'
  place: '1825000'
  geo:
    lat: 41.06556
    lng: -85.12786
  phone: 260-266-0780
  website: https://www.myalliancehealth.org
  external_ids:
    bphc: BPS-LAL-041177
  sources:
  - hrsa/health-center-sites
  verified:
    'on': '2026-07-19'
    method: api
- id: in/fort-wayne/alliance-health-centers-washington-blvd
  name: Alliance Health Centers- Washington Blvd
  categories:
  - community-health-center
  address:
    street: 404 E Washington Blvd
    city: Fort Wayne
    state: in
    zip: '46802'
  place: '1825000'
  geo:
    lat: 41.07793
    lng: -85.13391
  phone: 260-266-0780
  external_ids:
    bphc: BPS-LAL-037210
  sources:
  - hrsa/health-center-sites
  verified:
    'on': '2026-07-19'
    method: api
- id: in/fort-wayne/anthony
  name: Anthony
  categories:
  - child-care
  address:
    street: 7910 S Anthony Blvd
    city: Fort Wayne
    state: in
    zip: '46816'
  place: '1825000'
  geo:
    lat: 41.0117
    lng: -85.11409
  phone: 260-969-0212
  sources:
  - acf/head-start-locations
  verified:
    'on': '2026-07-19'
    method: api
- id: in/fort-wayne/avenues-recovery-center-at-fort-wayne
  name: Avenues Recovery Center at Fort Wayne
  categories:
  - su-treatment
  address:
    street: 2626 Fairfield Avenue
    city: Fort Wayne
    state: in
    zip: '46807'
  place: '1825000'
  geo:
    lat: 41.06097
    lng: -85.14555
  phone: 260-235-5900
  website: https://www.avenuesrecovery.com
  sources:
  - samhsa/findtreatment
  verified:
    'on': '2026-07-19'
    method: api
- id: in/fort-wayne/beacon-heights-little-free-pantry
  name: Beacon Heights Little Free Pantry
  categories:
  - food-pantry
  place: '1825000'
  geo:
    lat: 41.10229
    lng: -85.10324
  external_ids:
    lfp: '919'
  sources:
  - littlefreepantry/map
  verified:
    'on': '2026-07-19'
    method: scrape
- id: in/fort-wayne/bowen-center-fort-wayne
  name: Bowen Center- Fort Wayne
  categories:
  - community-health-center
  address:
    street: 201 E Rudisill Blvd
    city: Fort Wayne
    state: in
    zip: '46806'
  place: '1825000'
  geo:
    lat: 41.05076
    lng: -85.13506
  phone: 260-471-3500
  website: https://www.bowencenter.org/fort-wayne
  external_ids:
    bphc: BPS-LAL-035591
  sources:
  - hrsa/health-center-sites
  verified:
    'on': '2026-07-19'
    method: api
- id: in/fort-wayne/bowen-center-goshen-road
  name: Bowen Center- Goshen Road
  categories:
  - community-health-center
  address:
    street: 2100 Goshen Rd
    city: Fort Wayne
    state: in
    zip: '46808'
  place: '1825000'
  geo:
    lat: 41.10885
    lng: -85.16973
  phone: 800-342-5653
  external_ids:
    bphc: BPS-LAL-035951
  sources:
  - hrsa/health-center-sites
  verified:
    'on': '2026-07-19'
    method: api
- id: in/fort-wayne/bowen-health
  name: Bowen Health
  categories:
  - su-treatment
  - mh-treatment
  address:
    street: 201 East Rudisill Boulevard
    city: Fort Wayne
    state: in
    zip: '46806'
  place: '1825000'
  geo:
    lat: 41.05101
    lng: -85.13523
  phone: 574-385-3139
  website: https://www.bowenhealth.org
  sources:
  - samhsa/findtreatment
  verified:
    'on': '2026-07-19'
    method: api
- id: in/fort-wayne/bowen-health-allen-county
  name: Bowen Health Allen County
  categories:
  - su-treatment
  - mh-treatment
  address:
    street: 2100 Goshen Road
    city: Fort Wayne
    state: in
    zip: '46808'
  place: '1825000'
  geo:
    lat: 41.10862
    lng: -85.16928
  phone: 800-342-5653
  website: https://www.bowenhealth.org
  sources:
  - samhsa/findtreatment
  verified:
    'on': '2026-07-19'
    method: api
- id: in/fort-wayne/bowen-health-recovery-center
  name: Bowen Health Recovery Center
  categories:
  - su-treatment
  address:
    street: 1415 Directors Row
    city: Fort Wayne
    state: in
    zip: '46808'
  place: '1825000'
  geo:
    lat: 41.11834
    lng: -85.16262
  phone: 260-471-9357
  website: https://bowencenter.org
  sources:
  - samhsa/findtreatment
  verified:
    'on': '2026-07-19'
    method: api
- id: in/fort-wayne/bowen-health-washington-center-road
  name: Bowen Health- Washington Center Road
  categories:
  - community-health-center
  address:
    street: 1313 W Washington Center Rd
    city: Fort Wayne
    state: in
    zip: '46825'
  place: '1825000'
  geo:
    lat: 41.13177
    lng: -85.15598
  phone: 800-342-5653
  external_ids:
    bphc: BPS-LAL-040122
  sources:
  - hrsa/health-center-sites
  verified:
    'on': '2026-07-19'
    method: api
- id: in/fort-wayne/clarvida-dockside-services
  name: Clarvida Dockside Services
  categories:
  - su-treatment
  - mh-treatment
  address:
    street: 3030 Lake Avenue
    city: Fort Wayne
    state: in
    zip: '46805'
  place: '1825000'
  geo:
    lat: 41.08928
    lng: -85.09937
  phone: 260-203-9185
  website: https://www.clarvida.com/indiana/
  sources:
  - samhsa/findtreatment
  verified:
    'on': '2026-07-19'
    method: api
- id: in/fort-wayne/cleanslate-centers-fort-wayne
  name: CleanSlate Centers Fort Wayne
  categories:
  - su-treatment
  address:
    street: 3005 East State Boulevard
    city: Fort Wayne
    state: in
    zip: '46805'
  place: '1825000'
  geo:
    lat: 41.09764
    lng: -85.1008
  phone: 260-267-9498
  website: https://www.cleanslatecenters.com
  sources:
  - samhsa/findtreatment
  verified:
    'on': '2026-07-19'
    method: api
- id: in/fort-wayne/crossroad-child-and-family-services
  name: Crossroad Child and Family Services
  categories:
  - su-treatment
  - mh-treatment
  address:
    street: 1825 Beacon Street
    city: Fort Wayne
    state: in
    zip: '46805'
  place: '1825000'
  geo:
    lat: 41.09315
    lng: -85.10365
  phone: 260-484-4153
  website: https://www.crossroadcares.org
  sources:
  - samhsa/findtreatment
  verified:
    'on': '2026-07-19'
    method: api
- id: in/fort-wayne/early-head-start
  name: Early Head Start
  categories:
  - child-care
  address:
    street: 227 E Washington Blvd
    city: Fort Wayne
    state: in
    zip: '46802'
  place: '1825000'
  geo:
    lat: 41.0779
    lng: -85.13635
  phone: 260-420-2833
  sources:
  - acf/head-start-locations
  verified:
    'on': '2026-07-19'
    method: api
- id: in/fort-wayne/east-wayne-head-start
  name: East Wayne Head Start
  categories:
  - child-care
  address:
    street: 825 Francis St
    city: Fort Wayne
    state: in
    zip: '46803'
  place: '1825000'
  geo:
    lat: 41.08045
    lng: -85.12774
  phone: 260-422-6503
  sources:
  - acf/head-start-locations
  verified:
    'on': '2026-07-19'
    method: api
- id: in/fort-wayne/fort-wayne-housing-authority
  name: Fort Wayne Housing Authority
  categories:
  - housing-assistance
  address: {street: 7315 Hanna St, city: Fort Wayne, state: in, zip: '46816'}
  description: Public housing and Housing Choice Voucher agency
  place: '1825000'
  geo: {lat: 41.01766, lng: -85.12632}
  phone: 260-267-9300
  sources:
  - hud/resource-locator
  verified: {'on': '2026-07-19', method: api}
- id: in/fort-wayne/fort-wayne-recovery
  name: Fort Wayne Recovery
  categories:
  - su-treatment
  - mh-treatment
  address:
    street: 310 East Dupont Road
    city: Fort Wayne
    state: in
    zip: '46825'
  place: '1825000'
  geo:
    lat: 41.177
    lng: -85.13736
  phone: 833-762-3739
  website: https://www.fortwaynerecovery.com
  sources:
  - samhsa/findtreatment
  verified:
    'on': '2026-07-19'
    method: api
- id: in/fort-wayne/groups-recover-together
  name: Groups Recover Together
  categories:
  - su-treatment
  address:
    street: 3282 Mallard Cove Lane
    city: Fort Wayne
    state: in
    zip: '46804'
  place: '1825000'
  geo:
    lat: 41.05353
    lng: -85.23147
  phone: 260-758-4070
  website: https://www.joingroups.com
  sources:
  - samhsa/findtreatment
  verified:
    'on': '2026-07-19'
    method: api
- id: in/fort-wayne/hanna-creighton
  name: Hanna Creighton
  categories:
  - child-care
  address:
    street: 2107 S Hanna St
    city: Fort Wayne
    state: in
    zip: '46803'
  place: '1825000'
  geo:
    lat: 41.06624
    lng: -85.12781
  phone: 260-456-1576
  sources:
  - acf/head-start-locations
  verified:
    'on': '2026-07-19'
    method: api
- id: in/fort-wayne/housing-authority-of-the-city-of-decatur
  name: Housing Authority Of The City Of Decatur
  categories:
  - housing-assistance
  address: {street: 7315 Hanna St, city: Fort Wayne, state: in, zip: '46816'}
  description: Housing Choice Voucher (Section 8) agency
  place: '1825000'
  geo: {lat: 41.01766, lng: -85.12632}
  phone: 260-267-9300
  sources:
  - hud/resource-locator
  verified: {'on': '2026-07-19', method: api}
- id: in/fort-wayne/indiana-center-for-cognitive-behavior-therapy
  name: Indiana Center for Cognitive Behavior Therapy
  categories:
  - su-treatment
  - mh-treatment
  address:
    street: 423 Airport North Office Park
    city: Fort Wayne
    state: in
    zip: '46825'
  place: '1825000'
  geo:
    lat: 41.14628
    lng: -85.16261
  phone: 260-969-5583
  website: https://www.iccbt.org
  sources:
  - samhsa/findtreatment
  verified:
    'on': '2026-07-19'
    method: api
- id: in/fort-wayne/indiana-center-for-recovery-alcohol-and-drug-reh
  name: Indiana Center for Recovery Alcohol and Drug Rehab Fort Wayne
  categories:
  - su-treatment
  - mh-treatment
  address:
    street: 7900 West Jefferson Boulevard
    city: Fort Wayne
    state: in
    zip: '46804'
  place: '1825000'
  geo:
    lat: 41.03848
    lng: -85.24815
  phone: 833-616-1093
  website: https://www.treatmentindiana.com/locations/fort-wayne/
  sources:
  - samhsa/findtreatment
  verified:
    'on': '2026-07-19'
    method: api
- id: in/fort-wayne/inspiration-house
  name: Inspiration House
  categories:
  - su-treatment
  address:
    city: Fort Wayne
    state: in
    zip: '46807'
  place: '1825000'
  phone: 260-702-0925
  website: https://www.starcareservices3.com
  sources:
  - samhsa/findtreatment
  verified:
    'on': '2026-07-19'
    method: api
- id: in/fort-wayne/johnnie-mae-farm
  name: Johnnie Mae Farm
  categories:
  - food-pantry
  place: '1825000'
  geo:
    lat: 41.06248
    lng: -85.11661
  external_ids:
    lfp: '889'
  sources:
  - littlefreepantry/map
  verified:
    'on': '2026-07-19'
    method: scrape
- id: in/fort-wayne/meridian-health-services-corp
  name: Meridian Health Services Corp
  categories:
  - community-health-center
  address:
    street: 2020 McKinnie Ave
    city: Fort Wayne
    state: in
    zip: '46806'
  place: '1825000'
  geo:
    lat: 41.04653
    lng: -85.10994
  phone: 765-288-1928
  external_ids:
    bphc: BPS-H80-040041
  sources:
  - hrsa/health-center-sites
  verified:
    'on': '2026-07-19'
    method: api
- id: in/fort-wayne/meridian-health-services-corp-2
  name: Meridian Health Services Corp
  categories:
  - community-health-center
  address:
    street: 2622 Lake Ave
    city: Fort Wayne
    state: in
    zip: '46805'
  place: '1825000'
  geo:
    lat: 41.08959
    lng: -85.10454
  phone: 765-282-1928
  external_ids:
    bphc: BPS-H80-035098
  sources:
  - hrsa/health-center-sites
  verified:
    'on': '2026-07-19'
    method: api
- id: in/fort-wayne/neighborhood-health-calhoun-site
  name: Neighborhood Health - Calhoun Site
  categories:
  - community-health-center
  address:
    street: 1721 S Calhoun St
    city: Fort Wayne
    state: in
    zip: '46802'
  place: '1825000'
  geo:
    lat: 41.06971
    lng: -85.13808
  phone: 260-458-2641
  website: https://www.nhci.org
  external_ids:
    bphc: BPS-H80-010034
  sources:
  - hrsa/health-center-sites
  verified:
    'on': '2026-07-19'
    method: api
- id: in/fort-wayne/neighborhood-health-calhoun-site-2
  name: Neighborhood Health - Calhoun Site
  categories:
  - community-health-center
  address:
    street: 1717 S Calhoun St
    city: Fort Wayne
    state: in
    zip: '46802'
  place: '1825000'
  geo:
    lat: 41.06986
    lng: -85.1381
  phone: 260-458-2641
  website: https://www.nhci.org
  external_ids:
    bphc: BPS-H80-004669
  sources:
  - hrsa/health-center-sites
  verified:
    'on': '2026-07-19'
    method: api
- id: in/fort-wayne/neighborhood-health-calhoun-site-3
  name: Neighborhood Health - Calhoun Site
  categories:
  - community-health-center
  address:
    street: 1725 S Calhoun St
    city: Fort Wayne
    state: in
    zip: '46802'
  place: '1825000'
  geo:
    lat: 41.06952
    lng: -85.13788
  phone: 260-458-2641
  website: https://www.nhci.org
  external_ids:
    bphc: BPS-H80-008731
  sources:
  - hrsa/health-center-sites
  verified:
    'on': '2026-07-19'
    method: api
- id: in/fort-wayne/neighborhood-health-family-medicine-center
  name: Neighborhood Health Family Medicine Center
  categories:
  - community-health-center
  address:
    street: 750 Broadway, Suite 350
    city: Fort Wayne
    state: in
    zip: '46802'
  place: '1825000'
  geo:
    lat: 41.07775
    lng: -85.14873
  phone: 206-423-2675
  external_ids:
    bphc: BPS-H80-038193
  sources:
  - hrsa/health-center-sites
  verified:
    'on': '2026-07-19'
    method: api
- id: in/fort-wayne/neighborhood-health-family-medicine-center-admin
  name: Neighborhood Health Family Medicine Center Administration
  categories:
  - community-health-center
  address:
    street: 750 Broadway
    city: Fort Wayne
    state: in
    zip: '46802'
  place: '1825000'
  geo:
    lat: 41.07775
    lng: -85.14873
  phone: 260-423-2675
  external_ids:
    bphc: BPS-H80-038472
  sources:
  - hrsa/health-center-sites
  verified:
    'on': '2026-07-19'
    method: api
- id: in/fort-wayne/neighborhood-health-oxford
  name: Neighborhood Health Oxford
  categories:
  - community-health-center
  address:
    street: 3501 Warsaw St
    city: Fort Wayne
    state: in
    zip: '46806'
  place: '1825000'
  geo:
    lat: 41.05288
    lng: -85.12985
  phone: 260-458-2641
  external_ids:
    bphc: BPS-H80-040016
  sources:
  - hrsa/health-center-sites
  verified:
    'on': '2026-07-19'
    method: api
- id: in/fort-wayne/neighborhood-health-southeast-clinic
  name: Neighborhood Health - Southeast Clinic
  categories:
  - community-health-center
  address:
    street: 3350 E Paulding Rd
    city: Fort Wayne
    state: in
    zip: '46816'
  place: '1825000'
  geo:
    lat: 41.03161
    lng: -85.09274
  phone: 260-458-2641
  website: https://www.nhci.org
  external_ids:
    bphc: BPS-H80-013629
  sources:
  - hrsa/health-center-sites
  verified:
    'on': '2026-07-19'
    method: api
- id: in/fort-wayne/park-center-inc
  name: Park Center Inc
  categories:
  - su-treatment
  - mh-treatment
  address:
    street: 909 East State Boulevard
    city: Fort Wayne
    state: in
    zip: '46805'
  place: '1825000'
  geo:
    lat: 41.09799
    lng: -85.12687
  phone: 260-481-2700
  website: https://www.parkview.com/medical-services/behavioral-health
  sources:
  - samhsa/findtreatment
  verified:
    'on': '2026-07-19'
    method: api
- id: in/fort-wayne/park-center-inc-park-center-carew
  name: Park Center Inc Park Center Carew
  categories:
  - su-treatment
  - mh-treatment
  address:
    street: 1909 Carew Street
    city: Fort Wayne
    state: in
    zip: '46805'
  place: '1825000'
  geo:
    lat: 41.09365
    lng: -85.10856
  phone: 260-481-2700
  website: https://www.parkview.com/locations/details/2215/parkview-behavioral-health-institute-park-center
  sources:
  - samhsa/findtreatment
  verified:
    'on': '2026-07-19'
    method: api
- id: in/fort-wayne/park-center-inc-park-center-lake-avenue
  name: Park Center Inc Park Center Lake Avenue
  categories:
  - su-treatment
  - mh-treatment
  address:
    street: 2710 Lake Avenue
    city: Fort Wayne
    state: in
    zip: '46805'
  place: '1825000'
  geo:
    lat: 41.08953
    lng: -85.10345
  phone: 260-481-2700
  website: https://www.parkview.com/medical-services/behavioral-health
  sources:
  - samhsa/findtreatment
  verified:
    'on': '2026-07-19'
    method: api
- id: in/fort-wayne/parking-garage
  name: Parking Garage
  categories:
  - community-health-center
  address:
    street: 1710 S Calhoun St
    city: Fort Wayne
    state: in
    zip: '46802'
  place: '1825000'
  geo:
    lat: 41.07
    lng: -85.1385
  phone: 260-458-2641
  website: https://www.nhci.org
  external_ids:
    bphc: BPS-H80-010089
  sources:
  - hrsa/health-center-sites
  verified:
    'on': '2026-07-19'
    method: api
- id: in/fort-wayne/parkview-behavioral-health
  name: Parkview Behavioral Health
  categories:
  - su-treatment
  - mh-treatment
  address:
    street: 1720 Beacon Street
    city: Fort Wayne
    state: in
    zip: '46805'
  place: '1825000'
  geo:
    lat: 41.09191
    lng: -85.10185
  phone: 260-373-7500
  website: https://www.parkview.com
  sources:
  - samhsa/findtreatment
  verified:
    'on': '2026-07-19'
    method: api
- id: in/fort-wayne/reed
  name: Reed
  categories:
  - child-care
  address:
    street: 2820 Reed St
    city: Fort Wayne
    state: in
    zip: '46806'
  place: '1825000'
  geo:
    lat: 41.05952
    lng: -85.11768
  phone: 260-888-2029
  sources:
  - acf/head-start-locations
  verified:
    'on': '2026-07-19'
    method: api
- id: in/fort-wayne/temple
  name: Temple
  categories:
  - child-care
  address:
    street: 5200 Old Mill Rd
    street2: Achduth Vesholom Temple
    city: Fort Wayne
    state: in
    zip: '46807'
  place: '1825000'
  geo:
    lat: 41.03594
    lng: -85.15156
  phone: 260-745-5001
  sources:
  - acf/head-start-locations
  verified:
    'on': '2026-07-19'
    method: api
- id: in/fort-wayne/va-northern-indiana-healthcare-system
  name: VA Northern Indiana Healthcare System
  categories:
  - su-treatment
  - mh-treatment
  address:
    street: 2500 East State Boulevard
    city: Fort Wayne
    state: in
    zip: '46805'
  place: '1825000'
  geo:
    lat: 41.09578
    lng: -85.10633
  phone: 260-426-5431
  website: https://www.va.gov/northern-indiana-health-care/locations/fort-wayne-va-clinic/
  sources:
  - samhsa/findtreatment
  verified:
    'on': '2026-07-19'
    method: api
- id: in/fort-wayne/ywca-northeast-indiana-recovery-services
  name: YWCA Northeast Indiana Recovery Services
  categories:
  - su-treatment
  address:
    street: 1313 West Washington Center Road
    city: Fort Wayne
    state: in
    zip: '46825'
  place: '1825000'
  phone: 260-424-4908
  website: https://ywcanein.org
  sources:
  - samhsa/findtreatment
  verified:
    'on': '2026-07-19'
    method: api
