- id: in/highland-3466/219-health-network
  name: 219 Health Network
  categories:
  - community-health-center
  address:
    street: 3145 45th Ave
    city: Highland
    state: in
    zip: '46322'
  place: '1833466'
  geo:
    lat: 41.53732
    lng: -87.45132
  phone: 219-440-5353
  external_ids:
    bphc: BPS-LAL-039542
  sources:
  - hrsa/health-center-sites
  verified:
    'on': '2026-07-19'
    method: api
- id: in/highland-3466/219-health-network-inc
  name: 219 Health Network, Inc.
  categories:
  - community-health-center
  address:
    street: 3100 45th St, Suite 4
    city: Highland
    state: in
    zip: '46322'
  place: '1833466'
  geo:
    lat: 41.53694
    lng: -87.45404
  phone: 219-922-6911
  external_ids:
    bphc: BPS-LAL-037787
  sources:
  - hrsa/health-center-sites
  verified:
    'on': '2026-07-19'
    method: api
- id: in/highland-3466/219-health-network-inc-2
  name: 219 Health Network, Inc.
  categories:
  - community-health-center
  address:
    street: 8141 Kennedy Ave
    city: Highland
    state: in
    zip: '46322'
  place: '1833466'
  geo:
    lat: 41.56533
    lng: -87.4605
  phone: 219-838-5040
  website: https://219health.org
  external_ids:
    bphc: BPS-LAL-028295
  sources:
  - hrsa/health-center-sites
  verified:
    'on': '2026-07-19'
    method: api
- id: in/highland-3466/regional-health-systems-lakeside-counseling-cent
  name: Regional Health Systems Lakeside Counseling Center
  categories:
  - su-treatment
  - mh-treatment
  address:
    street: 2600 Highway Avenue
    city: Highland
    state: in
    zip: '46322'
  place: '1833466'
  geo:
    lat: 41.55531
    lng: -87.46595
  phone: 219-972-0131
  website: https://www.rhs.care
  sources:
  - samhsa/findtreatment
  verified:
    'on': '2026-07-19'
    method: api
- id: in/highland-3466/southridge-elementary
  name: Southridge Elementary
  categories:
  - child-care
  address:
    street: 9221 Johnston St
    city: Highland
    state: in
    zip: '46322'
  place: '1833466'
  geo:
    lat: 41.546
    lng: -87.44343
  phone: 219-699-0604
  sources:
  - acf/head-start-locations
  verified:
    'on': '2026-07-19'
    method: api
- id: in/highland-3466/thetablenwi
  name: TheTableNWI
  categories:
  - food-pantry
  place: '1833466'
  geo:
    lat: 41.55631
    lng: -87.46131
  external_ids:
    lfp: '529'
  sources:
  - littlefreepantry/map
  verified:
    'on': '2026-07-19'
    method: scrape
