- id: in/la-porte/fresh-start-counseling-services
  name: Fresh Start Counseling Services
  categories:
  - su-treatment
  address:
    street: 502 Jefferson Avenue
    city: La Porte
    state: in
    zip: '46350'
  place: '1842246'
  geo:
    lat: 41.61163
    lng: -86.71783
  phone: 219-324-3990
  website: https://www.freshstartcounseling.org
  sources:
  - samhsa/findtreatment
  verified:
    'on': '2026-07-19'
    method: api
- id: in/la-porte/groups-recover-together
  name: Groups Recover Together
  categories:
  - su-treatment
  address:
    street: 614 Andrew Avenue
    city: La Porte
    state: in
    zip: '46350'
  place: '1842246'
  geo:
    lat: 41.60117
    lng: -86.73449
  phone: 219-247-8690
  website: https://www.joingroups.com
  sources:
  - samhsa/findtreatment
  verified:
    'on': '2026-07-19'
    method: api
- id: in/la-porte/healthlinc-la-porte
  name: HealthLinc La Porte
  categories:
  - community-health-center
  address:
    street: 400 Teegarden St
    city: Laporte
    state: in
    zip: '46350'
  place: '1842246'
  geo:
    lat: 41.60923
    lng: -86.72954
  phone: 888-580-1060
  external_ids:
    bphc: BPS-H80-027898
  sources:
  - hrsa/health-center-sites
  verified:
    'on': '2026-07-19'
    method: api
- id: in/la-porte/healthlinc-la-porte-pediatrics
  name: HealthLinc La Porte Pediatrics
  categories:
  - community-health-center
  address:
    street: 1509 State St
    city: La Porte
    state: in
    zip: '46350'
  place: '1842246'
  geo:
    lat: 41.60835
    lng: -86.72906
  phone: 888-580-1060
  external_ids:
    bphc: BPS-H80-039370
  sources:
  - hrsa/health-center-sites
  verified:
    'on': '2026-07-19'
    method: api
- id: in/la-porte/laporte-county-comp-mh-council-inc-swanson-cente
  name: LaPorte County Comp MH Council Inc Swanson Center LP Outpatient
  categories:
  - su-treatment
  - mh-treatment
  address:
    street: 1230 West State Road 2
    city: La Porte
    state: in
    zip: '46350'
  place: '1842246'
  geo:
    lat: 41.59961
    lng: -86.73217
  phone: 219-879-4621
  website: https://www.swansoncenter.org
  sources:
  - samhsa/findtreatment
  verified:
    'on': '2026-07-19'
    method: api
- id: in/la-porte/northshore-health-centers
  name: NorthShore Health Centers
  categories:
  - su-treatment
  - mh-treatment
  address:
    street: 508 Legacy Plaza West
    city: La Porte
    state: in
    zip: '46350'
  place: '1842246'
  geo:
    lat: 41.60247
    lng: -86.69534
  phone: 219-763-8112
  website: https://northshorehealth.org/health-services/substance-abuse/
  sources:
  - samhsa/findtreatment
  verified:
    'on': '2026-07-19'
    method: api
- id: in/la-porte/northshore-laporte-health-center
  name: NorthShore LaPorte Health Center
  categories:
  - community-health-center
  address:
    street: 504 Legacy Plz W
    city: La Porte
    state: in
    zip: '46350'
  place: '1842246'
  geo:
    lat: 41.60192
    lng: -86.69561
  phone: 219-763-8112
  external_ids:
    bphc: BPS-H80-032342
  sources:
  - hrsa/health-center-sites
  verified:
    'on': '2026-07-19'
    method: api
- id: in/la-porte/northshore-laporte-health-center-2
  name: NorthShore LaPorte Health Center
  categories:
  - community-health-center
  address:
    street: 508 Legacy Plz W
    city: La Porte
    state: in
    zip: '46350'
  place: '1842246'
  geo:
    lat: 41.60189
    lng: -86.69564
  phone: 219-763-8112
  external_ids:
    bphc: BPS-H80-032380
  sources:
  - hrsa/health-center-sites
  verified:
    'on': '2026-07-19'
    method: api
- id: in/la-porte/northshore-laporte-high-school-health-center
  name: NorthShore LaPorte High School Health Center
  categories:
  - community-health-center
  address:
    street: 602 F St
    city: La Porte
    state: in
    zip: '46350'
  place: '1842246'
  geo:
    lat: 41.60103
    lng: -86.72716
  phone: 219-763-8112
  external_ids:
    bphc: BPS-H80-032742
  sources:
  - hrsa/health-center-sites
  verified:
    'on': '2026-07-19'
    method: api
- id: in/la-porte/paladin-bethany-lutheran-church
  name: Paladin - Bethany Lutheran Church
  categories:
  - child-care
  address:
    street: 102 G St
    city: La Porte
    state: in
    zip: '46350'
  place: '1842246'
  geo:
    lat: 41.60626
    lng: -86.7271
  phone: 219-873-2146
  sources:
  - acf/head-start-locations
  verified:
    'on': '2026-07-19'
    method: api
- id: in/la-porte/porter-starke-services-inc-recovery-center-lapor
  name: Porter Starke Services Inc Recovery Center/LaPorte
  categories:
  - su-treatment
  address:
    street: 1230 West State Road 2
    city: La Porte
    state: in
    zip: '46350'
  place: '1842246'
  geo:
    lat: 41.59973
    lng: -86.7323
  phone: 219-304-6300
  website: https://www.porterstarke.org
  sources:
  - samhsa/findtreatment
  verified:
    'on': '2026-07-19'
    method: api
