- id: in/marion-6908/allen-elementary
  name: Allen Elementary
  categories:
  - child-care
  address:
    street: 1115 E Bradford St
    city: Marion
    state: in
    zip: '46952'
  place: '1846908'
  geo:
    lat: 40.56824
    lng: -85.64187
  phone: 765-664-7355
  sources:
  - acf/head-start-locations
  verified:
    'on': '2026-07-19'
    method: api
- id: in/marion-6908/alliance-health-centers-marion
  name: Alliance Health Centers - Marion
  categories:
  - community-health-center
  address:
    street: 2620 S Western Ave
    city: Marion
    state: in
    zip: '46953'
  place: '1846908'
  geo:
    lat: 40.53792
    lng: -85.67432
  phone: 260-266-0780
  website: https://www.myalliancehealth.org
  external_ids:
    bphc: BPS-LAL-040722
  sources:
  - hrsa/health-center-sites
  verified:
    'on': '2026-07-19'
    method: api
- id: in/marion-6908/carey-services-inc
  name: Carey Services, Inc.
  categories:
  - child-care
  address:
    street: 2724 S Carey St
    city: Marion
    state: in
    zip: '46953'
  place: '1846908'
  geo:
    lat: 40.53601
    lng: -85.67042
  phone: 765-668-8961
  sources:
  - acf/head-start-locations
  verified:
    'on': '2026-07-19'
    method: api
- id: in/marion-6908/community-medical-services-marion
  name: Community Medical Services Marion
  categories:
  - su-treatment
  address:
    street: 315 South Norton Avenue
    city: Marion
    state: in
    zip: '46952'
  place: '1846908'
  geo:
    lat: 40.55808
    lng: -85.68701
  phone: 765-664-0101
  website: https://communitymedicalservices.org
  sources:
  - samhsa/findtreatment
  verified:
    'on': '2026-07-19'
    method: api
- id: in/marion-6908/frances-slocum-elementary
  name: Frances Slocum Elementary
  categories:
  - child-care
  address:
    street: 2909 S Torrence St
    city: Marion
    state: in
    zip: '46953'
  place: '1846908'
  geo:
    lat: 40.53418
    lng: -85.66587
  phone: 765-664-0589
  sources:
  - acf/head-start-locations
  verified:
    'on': '2026-07-19'
    method: api
- id: in/marion-6908/groups-recover-together
  name: Groups Recover Together
  categories:
  - su-treatment
  address:
    street: 1001 North Western Avenue
    city: Marion
    state: in
    zip: '46952'
  place: '1846908'
  geo:
    lat: 40.57055
    lng: -85.6747
  phone: 812-269-3834
  website: https://www.joingroups.com
  sources:
  - samhsa/findtreatment
  verified:
    'on': '2026-07-19'
    method: api
- id: in/marion-6908/housing-authority-of-the-city-of-marion-in
  name: Housing Authority Of The City Of Marion, In
  categories:
  - housing-assistance
  address:
    street: 601 S Adams St
    city: Marion
    state: in
    zip: '46953'
  description: Public housing and Housing Choice Voucher agency
  place: '1846908'
  geo:
    lat: 40.55603
    lng: -85.65834
  phone: 765-664-5194
  sources:
  - hud/resource-locator
  verified:
    'on': '2026-07-19'
    method: api
- id: in/marion-6908/ihc-grant-blackford
  name: IHC Grant-Blackford
  categories:
  - community-health-center
  address:
    street: 116 E 32nd St STE A
    city: Marion
    state: in
    zip: '46953'
  place: '1846908'
  geo:
    lat: 40.53117
    lng: -85.65901
  phone: 765-662-2039
  external_ids:
    bphc: BPS-H80-036210
  sources:
  - hrsa/health-center-sites
  verified:
    'on': '2026-07-19'
    method: api
- id: in/marion-6908/ihc-grant-county-wic
  name: IHC Grant County WIC
  categories:
  - community-health-center
  address:
    street: 325 E 2nd St
    city: Marion
    state: in
    zip: '46952'
  place: '1846908'
  geo:
    lat: 40.5598
    lng: -85.65609
  phone: 765-613-0150
  external_ids:
    bphc: BPS-H80-032740
  sources:
  - hrsa/health-center-sites
  verified:
    'on': '2026-07-19'
    method: api
- id: in/marion-6908/ihc-marion
  name: IHC Marion
  categories:
  - community-health-center
  address:
    street: 3710 S Western Ave
    city: Marion
    state: in
    zip: '46953'
  place: '1846908'
  geo:
    lat: 40.52519
    lng: -85.67536
  phone: 765-664-7492
  external_ids:
    bphc: BPS-H80-037295
  sources:
  - hrsa/health-center-sites
  verified:
    'on': '2026-07-19'
    method: api
- id: in/marion-6908/kendall-elementary
  name: Kendall Elementary
  categories:
  - child-care
  address:
    street: 2009 W Kem Rd
    city: Marion
    state: in
    zip: '46952'
  place: '1846908'
  geo:
    lat: 40.5734
    lng: -85.68971
  phone: 765-662-7364
  sources:
  - acf/head-start-locations
  verified:
    'on': '2026-07-19'
    method: api
- id: in/marion-6908/marion-little-free-pantry
  name: Marion Little Free Pantry
  categories:
  - food-pantry
  place: '1846908'
  geo:
    lat: 40.55365
    lng: -85.65942
  external_ids:
    lfp: '3441'
  sources:
  - littlefreepantry/map
  verified:
    'on': '2026-07-19'
    method: scrape
- id: in/marion-6908/marion-va-medical-center
  name: Marion VA Medical Center
  categories:
  - va-facility
  - health
  description: VA Medical Center (VAMC)
  address: {street: 1700 East 38th Street, city: Marion, state: in, zip: '46953'}
  place: '1846908'
  geo: {lat: 40.52368, lng: -85.6372}
  phone: 765-674-3321
  website: https://www.va.gov/northern-indiana-health-care/locations/marion-va-medical-center/
  hours:
  - {days: [mon, tue, wed, thu, fri], open: '08:00', close: '16:30'}
  services:
  - Addiction and substance use care
  - Audiology and speech
  - COVID-19 vaccines
  - Cardiology
  - CaregiverSupport
  - Dental/oral surgery
  - Dermatology
  - Gastroenterology
  - Gynecology
  - Mental health care
  - Neurology
  - Optometry
  - PTSD care
  - Primary care
  - Returning service member care
  - Surgery
  - Urgent care
  - Veteran readiness and employment programs
  external_ids: {va: vha_610}
  sources:
  - va/facilities-api
  verified: {'on': '2026-07-19', method: api}
- id: in/marion-6908/meridian-health-services-corp
  name: Meridian Health Services Corp
  categories:
  - community-health-center
  address:
    street: 323 E 2nd St STE 1
    city: Marion
    state: in
    zip: '46952'
  place: '1846908'
  geo:
    lat: 40.56
    lng: -85.65627
  phone: 765-573-5567
  external_ids:
    bphc: BPS-H80-038092
  sources:
  - hrsa/health-center-sites
  verified:
    'on': '2026-07-19'
    method: api
- id: in/marion-6908/meridian-health-services-corp-2
  name: Meridian Health Services Corp
  categories:
  - community-health-center
  address:
    street: 911 N Western Ave
    city: Marion
    state: in
    zip: '46952'
  place: '1846908'
  geo:
    lat: 40.56993
    lng: -85.67463
  phone: 765-289-1928
  external_ids:
    bphc: BPS-H80-036195
  sources:
  - hrsa/health-center-sites
  verified:
    'on': '2026-07-19'
    method: api
- id: in/marion-6908/mini-food-pantry
  name: Mini Food Pantry
  categories:
  - food-pantry
  place: '1846908'
  geo:
    lat: 40.54036
    lng: -85.6583
  external_ids:
    lfp: '3534'
  sources:
  - littlefreepantry/map
  verified:
    'on': '2026-07-19'
    method: scrape
- id: in/marion-6908/nc-eastbrook-jr-sr-high-school
  name: Nc Eastbrook Jr-Sr High School
  categories:
  - meal-program
  address:
    street: 560 S 900 E
    city: Marion
    state: in
    zip: '46953'
  description: Free summer meals for kids and teens (2026 season) — sponsored by Eastbrook Community School
    Corp.
  place: '1846908'
  geo:
    lat: 40.54543
    lng: -85.50353
  external_ids:
    usda_master: Cycle 03_IN_SFSP_0567
  sources:
  - usda/summer-meal-sites
  verified:
    'on': '2026-07-19'
    method: api
- id: in/marion-6908/radiant-health-adams-street
  name: Radiant Health Adams Street
  categories:
  - su-treatment
  - mh-treatment
  address:
    street: 3010 South Adams Street
    city: Marion
    state: in
    zip: '46953'
  place: '1846908'
  geo:
    lat: 40.5334
    lng: -85.659
  phone: 765-662-3971
  website: https://getradiant.org
  sources:
  - samhsa/findtreatment
  verified:
    'on': '2026-07-19'
    method: api
- id: in/marion-6908/radiant-health-downtown
  name: Radiant Health Downtown
  categories:
  - su-treatment
  - mh-treatment
  address:
    street: 101 South Washington Street
    city: Marion
    state: in
    zip: '46952'
  place: '1846908'
  geo:
    lat: 40.56041
    lng: -85.6595
  phone: 765-662-3971
  website: https://getradiant.org
  sources:
  - samhsa/findtreatment
  verified:
    'on': '2026-07-19'
    method: api
- id: in/marion-6908/radiant-health-north
  name: Radiant Health North
  categories:
  - su-treatment
  - mh-treatment
  address:
    street: 505 North Wabash Avenue
    city: Marion
    state: in
    zip: '46952'
  place: '1846908'
  geo:
    lat: 40.56497
    lng: -85.66652
  phone: 765-662-3971
  website: https://getradiant.org
  sources:
  - samhsa/findtreatment
  verified:
    'on': '2026-07-19'
    method: api
- id: in/marion-6908/radiant-health-south
  name: Radiant Health South
  categories:
  - su-treatment
  - mh-treatment
  address:
    street: 116 East 32nd Street
    city: Marion
    state: in
    zip: '46953'
  place: '1846908'
  geo:
    lat: 40.53119
    lng: -85.65904
  phone: 765-662-3971
  website: https://getradiant.org
  sources:
  - samhsa/findtreatment
  verified:
    'on': '2026-07-19'
    method: api
- id: in/marion-6908/radiant-health-stepping-stone
  name: Radiant Health Stepping Stone
  categories:
  - su-treatment
  - mh-treatment
  address:
    street: 505 North Wabash Avenue
    city: Marion
    state: in
    zip: '46952'
  place: '1846908'
  phone: 765-662-3971
  website: https://getradiant.org
  sources:
  - samhsa/findtreatment
  verified:
    'on': '2026-07-19'
    method: api
- id: in/marion-6908/river-walk-pantry
  name: River Walk Pantry
  categories:
  - food-pantry
  place: '1846908'
  geo:
    lat: 40.5653
    lng: -85.66402
  external_ids:
    lfp: '3694'
  sources:
  - littlefreepantry/map
  verified:
    'on': '2026-07-19'
    method: scrape
- id: in/marion-6908/riverview-elementary
  name: Riverview Elementary
  categories:
  - child-care
  address:
    street: 513 W Buckingham Dr
    city: Marion
    state: in
    zip: '46952'
  place: '1846908'
  geo:
    lat: 40.57034
    lng: -85.66404
  phone: 765-662-2427
  sources:
  - acf/head-start-locations
  verified:
    'on': '2026-07-19'
    method: api
- id: in/marion-6908/schneggbray-pantry
  name: Schneggbray Pantry
  categories:
  - food-pantry
  place: '1846908'
  geo:
    lat: 40.56476
    lng: -85.64371
  external_ids:
    lfp: '4410'
  sources:
  - littlefreepantry/map
  verified:
    'on': '2026-07-19'
    method: scrape
- id: in/marion-6908/sherman-street-pantry
  name: Sherman Street Pantry
  categories:
  - food-pantry
  place: '1846908'
  geo:
    lat: 40.56476
    lng: -85.64371
  external_ids:
    lfp: '4478'
  sources:
  - littlefreepantry/map
  verified:
    'on': '2026-07-19'
    method: scrape
- id: in/marion-6908/the-community-cupboard
  name: The Community Cupboard
  categories:
  - food-pantry
  place: '1846908'
  geo:
    lat: 40.55388
    lng: -85.66
  external_ids:
    lfp: '5997'
  sources:
  - littlefreepantry/map
  verified:
    'on': '2026-07-19'
    method: scrape
- id: in/marion-6908/va-northern-indiana-healthcare-system
  name: VA Northern Indiana Healthcare System
  categories:
  - su-treatment
  - mh-treatment
  address:
    street: 1700 East 38th Street
    city: Marion
    state: in
    zip: '46953'
  place: '1846908'
  geo:
    lat: 40.52344
    lng: -85.62988
  phone: 765-674-3321 x73402
  website: https://www.va.gov/northern-indiana-health-care/locations/marion-va-medical-center/
  sources:
  - samhsa/findtreatment
  verified:
    'on': '2026-07-19'
    method: api
- id: in/marion-6908/va-regional-benefit-satellite-office-at-marion-v
  name: VA Regional Benefit Satellite Office at Marion VA Medical Center
  categories:
  - va-facility
  description: Satellite Office
  address: {street: '1700 East 38th Street, Suite 1300', city: Marion, state: in, zip: '46953'}
  place: '1846908'
  geo: {lat: 40.52368, lng: -85.6372}
  phone: 260-426-5431, ext. 73804
  external_ids: {va: vba_326c}
  sources:
  - va/facilities-api
  verified: {'on': '2026-07-19', method: api}
