- id: in/mishawaka/avenues-recovery-center-at-south-bend
  name: Avenues Recovery Center at South Bend
  categories:
  - su-treatment
  address:
    street: 60205 Bodnar Boulevard
    city: Mishawaka
    state: in
    zip: '46544'
  place: '1849932'
  geo:
    lat: 41.62012
    lng: -86.14228
  phone: 574-345-0246
  website: https://avenuesrecovery.com
  sources:
  - samhsa/findtreatment
  verified:
    'on': '2026-07-19'
    method: api
- id: in/mishawaka/elsie-rogers-elementary
  name: Elsie Rogers Elementary
  categories:
  - child-care
  address:
    street: 56219 Currant Rd
    city: Mishawaka
    state: in
    zip: '46545'
  place: '1849932'
  geo:
    lat: 41.67847
    lng: -86.12898
  phone: 574-259-5231
  sources:
  - acf/head-start-locations
  verified:
    'on': '2026-07-19'
    method: api
- id: in/mishawaka/healthlinc-mishawaka
  name: HealthLinc Mishawaka
  categories:
  - community-health-center
  address:
    street: 420 W 4th St
    city: Mishawaka
    state: in
    zip: '46544'
  place: '1849932'
  geo:
    lat: 41.65971
    lng: -86.18546
  phone: 219-462-7173
  website: https://www.healthlincchc.org
  external_ids:
    bphc: BPS-H80-010640
  sources:
  - hrsa/health-center-sites
  verified:
    'on': '2026-07-19'
    method: api
- id: in/mishawaka/hums-elementary-school
  name: Hums Elementary School
  categories:
  - child-care
  address:
    street: 3208 Harrison Rd
    city: Mishawaka
    state: in
    zip: '46544'
  place: '1849932'
  geo:
    lat: 41.65177
    lng: -86.1293
  phone: 574-254-3800
  sources:
  - acf/head-start-locations
  verified:
    'on': '2026-07-19'
    method: api
- id: in/mishawaka/indiana-center-for-recovery-alcohol-drug-rehab-c
  name: Indiana Center for Recovery/Alcohol Drug Rehab Center Mishawaka South Bend
  categories:
  - su-treatment
  - mh-treatment
  address:
    street: 215 West 4th Street
    city: Mishawaka
    state: in
    zip: '46544'
  place: '1849932'
  geo:
    lat: 41.65853
    lng: -86.18185
  phone: 833-616-1093
  website: https://www.treatmentindiana.com/locations/mishawaka-southbend/
  sources:
  - samhsa/findtreatment
  verified:
    'on': '2026-07-19'
    method: api
- id: in/mishawaka/indiana-ctr-for-recovery-alcohol-and-drug-rehab
  name: Indiana Ctr for Recovery Alcohol and Drug Rehab Mishawaka South Bend
  categories:
  - su-treatment
  address:
    street: 215 West 4th Street
    city: Mishawaka
    state: in
    zip: '46544'
  place: '1849932'
  geo:
    lat: 41.65853
    lng: -86.18185
  phone: 833-616-1093
  website: https://www.treatmentindiana.com/locations/mishawaka-southbend/
  sources:
  - samhsa/findtreatment
  verified:
    'on': '2026-07-19'
    method: api
- id: in/mishawaka/liberty-elementary
  name: Liberty Elementary
  categories:
  - child-care
  address:
    street: 600 Pregel Dr
    city: Mishawaka
    state: in
    zip: '46545'
  place: '1849932'
  geo:
    lat: 41.68178
    lng: -86.17536
  phone: 574-393-5864
  sources:
  - acf/head-start-locations
  verified:
    'on': '2026-07-19'
    method: api
- id: in/mishawaka/va-northern-indiana-healthcare-system-st-joseph
  name: VA Northern Indiana Healthcare System St Joseph CBOC
  categories:
  - su-treatment
  - mh-treatment
  address:
    street: 1540 Trinity Place
    city: Mishawaka
    state: in
    zip: '46545'
  place: '1849932'
  geo:
    lat: 41.70808
    lng: -86.16102
  phone: 574-272-9000
  website: https://www.va.gov/northern-indiana-health-care/locations/jackie-walorski-va-clinic/
  sources:
  - samhsa/findtreatment
  verified:
    'on': '2026-07-19'
    method: api
