- id: in/north-vernon/centerstone-of-indiana-inc-jennings-county
  name: Centerstone of Indiana Inc Jennings County
  categories:
  - su-treatment
  - mh-treatment
  address:
    street: 216 North State Street
    city: North Vernon
    state: in
    zip: '47265'
  place: '1855116'
  geo:
    lat: 39.00588
    lng: -85.62875
  phone: 877-467-3123
  website: https://centerstone.org
  sources:
  - samhsa/findtreatment
  verified:
    'on': '2026-07-19'
    method: api
- id: in/north-vernon/first-united-methodist-church
  name: First United Methodist Church
  categories:
  - food-pantry
  place: '1855116'
  geo:
    lat: 39.0022
    lng: -85.63213
  external_ids:
    lfp: '3851'
  sources:
  - littlefreepantry/map
  verified:
    'on': '2026-07-19'
    method: scrape
- id: in/north-vernon/groups-recover-together
  name: Groups Recover Together
  categories:
  - su-treatment
  address:
    street: 203 State Street
    city: North Vernon
    state: in
    zip: '47265'
  place: '1855116'
  geo:
    lat: 39.00526
    lng: -85.62907
  phone: 812-200-2714
  website: https://www.joingroups.com
  sources:
  - samhsa/findtreatment
  verified:
    'on': '2026-07-19'
    method: api
- id: in/north-vernon/hearne-s-blessing-box
  name: Hearne's Blessing Box
  categories:
  - food-pantry
  place: '1855116'
  geo:
    lat: 39.00529
    lng: -85.62825
  external_ids:
    lfp: '3852'
  sources:
  - littlefreepantry/map
  verified:
    'on': '2026-07-19'
    method: scrape
- id: in/north-vernon/nc-jennings-county-high-school
  name: Nc Jennings County High School
  categories:
  - meal-program
  address:
    street: 800 W. Walnut
    city: North Vernon
    state: in
    zip: '47265'
  description: Free summer meals for kids and teens (2026 season) — sponsored by Jennings County School
    Corp.
  place: '1855116'
  geo:
    lat: 39.00055
    lng: -85.64253
  external_ids:
    usda_master: Cycle 04_IN_SFSP_0742
  sources:
  - usda/summer-meal-sites
  verified:
    'on': '2026-07-19'
    method: api
- id: in/north-vernon/o-v-o-north-vernon-head-start-center
  name: O.V.O. North Vernon Head Start Center
  categories:
  - child-care
  address:
    street: 3040 N State Highway 3
    city: North Vernon
    state: in
    zip: '47265'
  place: '1855116'
  geo:
    lat: 39.00888
    lng: -85.63291
  phone: 812-346-8965
  sources:
  - acf/head-start-locations
  verified:
    'on': '2026-07-19'
    method: api
- id: in/north-vernon/st-mary-s-catholic-church
  name: St. Mary's Catholic Church
  categories:
  - food-pantry
  place: '1855116'
  geo:
    lat: 39.0091
    lng: -85.62917
  external_ids:
    lfp: '3856'
  sources:
  - littlefreepantry/map
  verified:
    'on': '2026-07-19'
    method: scrape
