- id: in/portland/east-jay-elementary-school
  name: East Jay Elementary School
  categories:
  - meal-program
  address:
    street: 225 E Water St
    city: Portland
    state: in
    zip: '47371'
  description: Free summer meals for kids and teens (2026 season) — sponsored by Jay County School Corporation.
  place: '1861236'
  geo:
    lat: 40.43235
    lng: -84.9755
  external_ids:
    usda_master: Cycle 04_IN_SFSP_0739
  sources:
  - usda/summer-meal-sites
  verified:
    'on': '2026-07-19'
    method: api
- id: in/portland/jay-outpatient-health-services-indiana-universit
  name: Jay Outpatient Health Services Indiana University Health Ball
  categories:
  - su-treatment
  - mh-treatment
  address:
    street: 510 West Votaw Street
    city: Portland
    state: in
    zip: '47371'
  place: '1861236'
  geo:
    lat: 40.4407
    lng: -84.98558
  phone: 260-726-1960
  website: https://
  services:
  - Outpatient
  cost: varies
  sources:
  - samhsa/findtreatment
  verified:
    'on': '2026-07-19'
    method: api
- id: in/portland/meridian-health-services-corp
  name: Meridian Health Services Corp
  categories:
  - community-health-center
  cost: sliding-scale
  address: {street: 406 W Votaw St, city: Portland, state: in, zip: '47371'}
  place: '1861236'
  geo: {lat: 40.43959, lng: -84.98214}
  phone: 765-288-1928
  external_ids: {bphc: BPS-H80-036196}
  sources:
  - hrsa/health-center-sites
  verified: {'on': '2026-07-19', method: api}
- id: in/portland/meridian-health-services-corp-2
  name: Meridian Health Services Corp
  categories:
  - community-health-center
  cost: sliding-scale
  address: {street: 2072 W State Road 67, city: Portland, state: in, zip: '47371'}
  place: '1861236'
  geo: {lat: 40.42975, lng: -85.0233}
  phone: 765-288-1928
  external_ids: {bphc: BPS-H80-037821}
  sources:
  - hrsa/health-center-sites
  verified: {'on': '2026-07-19', method: api}
- id: in/portland/meridian-health-services-corp-3
  name: Meridian Health Services Corp
  categories:
  - community-health-center
  cost: sliding-scale
  address: {street: 931 W Water St, city: Portland, state: in, zip: '47371'}
  place: '1861236'
  geo: {lat: 40.43186, lng: -84.99032}
  phone: 260-726-4350
  external_ids: {bphc: BPS-H80-032443}
  sources:
  - hrsa/health-center-sites
  verified: {'on': '2026-07-19', method: api}
- id: in/portland/meridianmd-convenience-care
  name: MeridianMD Convenience Care
  categories:
  - community-health-center
  cost: sliding-scale
  address: {street: 500 W Votaw St, city: Portland, state: in, zip: '47371'}
  place: '1861236'
  geo: {lat: 40.44129, lng: -84.98489}
  phone: 260-726-9348
  website: https://www.meridianhs.org
  external_ids: {bphc: BPS-H80-018872}
  sources:
  - hrsa/health-center-sites
  verified: {'on': '2026-07-19', method: api}
- id: in/portland/portland-head-start
  name: Portland Head Start
  categories:
  - child-care
  address:
    street: 406 E Arch St
    city: Portland
    state: in
    zip: '47371'
  place: '1861236'
  geo:
    lat: 40.43688
    lng: -84.97188
  phone: 260-413-7259
  sources:
  - acf/head-start-locations
  verified:
    'on': '2026-07-19'
    method: api
- id: in/portland/scus-head-start-portland
  name: SCUS Head Start Portland
  categories:
  - child-care
  address:
    street: 406 E Arch St
    city: Portland
    state: in
    zip: '47371'
  place: '1861236'
  geo:
    lat: 40.43685
    lng: -84.97186
  phone: 260-726-5819
  sources:
  - acf/head-start-locations
  verified:
    'on': '2026-07-19'
    method: api
