- id: in/rockville/hamilton-center-inc
  name: Hamilton Center Inc
  categories:
  - su-treatment
  - mh-treatment
  address:
    street: 215 North Jefferson Street
    city: Rockville
    state: in
    zip: '47872'
  place: '1865520'
  geo:
    lat: 39.76435
    lng: -87.22741
  phone: 765-569-2031
  website: https://
  sources:
  - samhsa/findtreatment
  verified:
    'on': '2026-07-19'
    method: api
- id: in/rockville/hickory-treatment-center-at-rockville
  name: Hickory Treatment Center at Rockville
  categories:
  - su-treatment
  - mh-treatment
  address:
    street: 768 North U.S. Highway 41
    city: Rockville
    state: in
    zip: '47872'
  place: '1865520'
  geo:
    lat: 39.756
    lng: -87.24266
  phone: 765-889-5511
  website: https://www.hickorytreatmentcenters.com
  sources:
  - samhsa/findtreatment
  verified:
    'on': '2026-07-19'
    method: api
- id: in/rockville/jr-pharmacy-4-rockville
  name: JR Pharmacy 4 - Rockville
  categories:
  - community-health-center
  address:
    street: 1330 N Lincoln Rd
    city: Rockville
    state: in
    zip: '47872'
  place: '1865520'
  geo:
    lat: 39.77636
    lng: -87.23655
  phone: 765-569-6900
  external_ids:
    bphc: BPS-H80-040854
  sources:
  - hrsa/health-center-sites
  verified:
    'on': '2026-07-19'
    method: api
- id: in/rockville/nc-parke-heritage-high-school
  name: Nc Parke Heritage High School
  categories:
  - meal-program
  address:
    street: 506 N Beadle Street
    city: Rockville
    state: in
    zip: '47872'
  description: Free summer meals for kids and teens (2026 season) — sponsored by North Central Parke Community
    Schools Corporation.
  place: '1865520'
  geo:
    lat: 39.76841
    lng: -87.23199
  external_ids:
    usda_master: Cycle 04_IN_SFSP_0805
  sources:
  - usda/summer-meal-sites
  verified:
    'on': '2026-07-19'
    method: api
- id: in/rockville/parke-head-start
  name: Parke Head Start
  categories:
  - child-care
  address:
    street: 112 E York St
    city: Rockville
    state: in
    zip: '47872'
  place: '1865520'
  geo:
    lat: 39.76383
    lng: -87.2266
  phone: 765-569-3848
  sources:
  - acf/head-start-locations
  verified:
    'on': '2026-07-19'
    method: api
- id: in/rockville/rockville-housing-authority
  name: Rockville Housing Authority
  categories:
  - housing-assistance
  address:
    street: 217B W Ohio St
    city: Rockville
    state: in
    zip: '47872'
  description: Housing Choice Voucher (Section 8) agency
  place: '1865520'
  geo:
    lat: 39.7625
    lng: -87.22984
  phone: 765-569-3639
  sources:
  - hud/resource-locator
  verified:
    'on': '2026-07-19'
    method: api
- id: in/rockville/valley-professionals-community-health-center-vpc
  name: Valley Professionals Community Health Center (VPCHC)
  categories:
  - su-treatment
  - mh-treatment
  address:
    street: 727 Lincoln Road
    city: Rockville
    state: in
    zip: '47872'
  place: '1865520'
  geo:
    lat: 39.77021
    lng: -87.23572
  phone: 765-569-1123
  website: https://valleyprohealth.org
  sources:
  - samhsa/findtreatment
  verified:
    'on': '2026-07-19'
    method: api
- id: in/rockville/vpchc-rockville
  name: VPCHC - Rockville
  categories:
  - community-health-center
  address:
    street: 727 N Lincoln Rd
    city: Rockville
    state: in
    zip: '47872'
  place: '1865520'
  geo:
    lat: 39.77025
    lng: -87.2357
  phone: 765-569-1123
  website: https://www.valleyprohealth.org
  external_ids:
    bphc: BPS-H80-019447
  sources:
  - hrsa/health-center-sites
  verified:
    'on': '2026-07-19'
    method: api
