- id: in/rockport/lifespring-health-systems-rockport-office
  name: LifeSpring Health Systems Rockport Office
  categories:
  - su-treatment
  - mh-treatment
  address:
    street: 818 Madison Street
    city: Rockport
    state: in
    zip: '47635'
  place: '1865484'
  geo:
    lat: 37.88888
    lng: -87.05703
  phone: 812-206-1200
  website: https://www.lifespringhealthsystems.org
  sources:
  - samhsa/findtreatment
  verified:
    'on': '2026-07-19'
    method: api
- id: in/rockport/nc-south-spencer-high-school
  name: Nc South Spencer High School
  categories:
  - meal-program
  address:
    street: 1142 N County Rd 275 W
    city: Rockport
    state: in
    zip: '47635'
  description: Free summer meals for kids and teens (2026 season) — sponsored by South Spencer Co School
    Corp.
  place: '1865484'
  geo:
    lat: 37.9035
    lng: -87.10489
  external_ids:
    usda_master: Cycle 05_IN_SFSP_0997
  sources:
  - usda/summer-meal-sites
  verified:
    'on': '2026-07-19'
    method: api
- id: in/rockport/now-counseling-services-llc-safe-now-recovery-ce
  name: NOW Counseling Services LLC Safe Now Recovery Center Outpatient
  categories:
  - su-treatment
  - mh-treatment
  address:
    street: 122 South 3rd Street
    city: Rockport
    state: in
    zip: '47635'
  place: '1865484'
  geo:
    lat: 37.88256
    lng: -87.04742
  phone: 812-602-4022
  website: https://www.nowcounseling.us
  sources:
  - samhsa/findtreatment
  verified:
    'on': '2026-07-19'
    method: api
- id: in/rockport/rockport-elementary
  name: Rockport Elementary
  categories:
  - meal-program
  address:
    street: 200 S 6Th Street
    city: Rockport
    state: in
    zip: '47635'
  description: Free summer meals for kids and teens (2026 season) — sponsored by South Spencer Co School
    Corp.
  place: '1865484'
  geo:
    lat: 37.88108
    lng: -87.05276
  external_ids:
    usda_master: Cycle 05_IN_SFSP_0998
  sources:
  - usda/summer-meal-sites
  verified:
    'on': '2026-07-19'
    method: api
- id: in/rockport/south-spencer-head-start-terry-davis-center
  name: South Spencer Head Start -Terry Davis Center
  categories:
  - child-care
  address:
    street: 501 Washington St
    city: Rockport
    state: in
    zip: '47635'
  place: '1865484'
  geo:
    lat: 37.88719
    lng: -87.0499
  phone: 800-467-1435
  sources:
  - acf/head-start-locations
  verified:
    'on': '2026-07-19'
    method: api
