- id: tn/chattanooga/avondale
  name: Avondale
  categories:
  - child-care
  address:
    street: 2302 Ocoee St
    city: Chattanooga
    state: tn
    zip: '37406'
  place: '4714000'
  geo:
    lat: 35.05451
    lng: -85.25839
  phone: 423-643-6533
  sources:
  - acf/head-start-locations
  verified:
    'on': '2026-07-19'
    method: api
- id: tn/chattanooga/behavioral-health-services
  name: Behavioral Health Services
  categories:
  - community-health-center
  address:
    street: 1000 E 3rd St STE 103
    city: Chattanooga
    state: tn
    zip: '37403'
  place: '4714000'
  geo:
    lat: 35.04768
    lng: -85.29029
  phone: 423-265-2273
  website: https://www.cempa.org
  external_ids:
    bphc: BPS-LAL-030309
  sources:
  - hrsa/health-center-sites
  verified:
    'on': '2026-07-19'
    method: api
- id: tn/chattanooga/bradford-health-services-chattanooga-regional-of
  name: Bradford Health Services Chattanooga Regional Office
  categories:
  - su-treatment
  address:
    street: 6160 Shallowford Road
    city: Chattanooga
    state: tn
    zip: '37421'
  place: '4714000'
  geo:
    lat: 35.05195
    lng: -85.18132
  phone: 423-892-2639
  website: https://www.bradfordhealth.com
  sources:
  - samhsa/findtreatment
  verified:
    'on': '2026-07-19'
    method: api
- id: tn/chattanooga/calvin-donaldson-elementary
  name: Calvin Donaldson Elementary
  categories:
  - child-care
  address:
    street: 927 W 37th St
    city: Chattanooga
    state: tn
    zip: '37410'
  place: '4714000'
  geo:
    lat: 35.0113
    lng: -85.31892
  phone: 423-643-6537
  sources:
  - acf/head-start-locations
  verified:
    'on': '2026-07-19'
    method: api
- id: tn/chattanooga/cedar-hill
  name: Cedar Hill
  categories:
  - child-care
  address:
    street: 4701 Divine Ave
    city: Chattanooga
    state: tn
    zip: '37407'
  place: '4714000'
  geo:
    lat: 34.98869
    lng: -85.2963
  phone: 423-643-6640
  sources:
  - acf/head-start-locations
  verified:
    'on': '2026-07-19'
    method: api
- id: tn/chattanooga/cempa-community-care-clinic
  name: Cempa Community Care Clinic
  categories:
  - community-health-center
  address:
    street: 1000 E 3rd St, Suite 300
    city: Chattanooga
    state: tn
    zip: '37403'
  place: '4714000'
  geo:
    lat: 35.04726
    lng: -85.29052
  phone: 423-265-2273
  website: https://www.cempa.org
  external_ids:
    bphc: BPS-LAL-030269
  sources:
  - hrsa/health-center-sites
  verified:
    'on': '2026-07-19'
    method: api
- id: tn/chattanooga/cempa-community-pharmacy
  name: Cempa Community Pharmacy
  categories:
  - community-health-center
  address:
    street: 1000 E 3rd St STE 302
    city: Chattanooga
    state: tn
    zip: '37403'
  place: '4714000'
  geo:
    lat: 35.04768
    lng: -85.29029
  phone: 423-541-9450
  external_ids:
    bphc: BPS-LAL-037934
  sources:
  - hrsa/health-center-sites
  verified:
    'on': '2026-07-19'
    method: api
- id: tn/chattanooga/cempa-dental-clinic
  name: Cempa Dental Clinic
  categories:
  - community-health-center
  address:
    street: 1042 E 3rd St STE 100
    city: Chattanooga
    state: tn
    zip: '37403'
  place: '4714000'
  geo:
    lat: 35.04698
    lng: -85.28847
  phone: 423-203-1568
  external_ids:
    bphc: BPS-LAL-037800
  sources:
  - hrsa/health-center-sites
  verified:
    'on': '2026-07-19'
    method: api
- id: tn/chattanooga/cempa-finance-administration
  name: Cempa Finance & Administration
  categories:
  - community-health-center
  address:
    street: 1000 E 3rd St STE 202
    city: Chattanooga
    state: tn
    zip: '37403'
  place: '4714000'
  geo:
    lat: 35.04768
    lng: -85.29036
  phone: 423-265-2273
  website: https://www.cempa.org
  external_ids:
    bphc: BPS-LAL-030310
  sources:
  - hrsa/health-center-sites
  verified:
    'on': '2026-07-19'
    method: api
- id: tn/chattanooga/cempa-food-market-transportation
  name: Cempa Food Market & Transportation
  categories:
  - community-health-center
  address:
    street: 1000 E 3rd St STE 102
    city: Chattanooga
    state: tn
    zip: '37403'
  place: '4714000'
  geo:
    lat: 35.04768
    lng: -85.29029
  phone: 423-265-2273
  website: https://www.cempa.org
  external_ids:
    bphc: BPS-LAL-030308
  sources:
  - hrsa/health-center-sites
  verified:
    'on': '2026-07-19'
    method: api
- id: tn/chattanooga/centerstone-chattanooga-clinic
  name: Centerstone Chattanooga Clinic
  categories:
  - su-treatment
  - mh-treatment
  address:
    street: 6110 Shallowford Road
    city: Chattanooga
    state: tn
    zip: '37421'
  place: '4714000'
  geo:
    lat: 35.05217
    lng: -85.183
  phone: 423-499-1031
  website: https://www.centerstone.org
  sources:
  - samhsa/findtreatment
  verified:
    'on': '2026-07-19'
    method: api
- id: tn/chattanooga/chambliss-center-for-children
  name: Chambliss Center for Children
  categories:
  - child-care
  address:
    street: 315 Gillespie Rd
    city: Chattanooga
    state: tn
    zip: '37411'
  place: '4714000'
  geo:
    lat: 35.0285
    lng: -85.24288
  phone: 423-698-2456
  sources:
  - acf/head-start-locations
  verified:
    'on': '2026-07-19'
    method: api
- id: tn/chattanooga/chattanooga-hamilton-county-health-department
  name: Chattanooga Hamilton County Health Department
  categories:
  - community-health-center
  address:
    street: 921 E 3rd St
    city: Chattanooga
    state: tn
    zip: '37403'
  place: '4714000'
  geo:
    lat: 35.04885
    lng: -85.29259
  phone: 423-209-8100
  website: https://www.health.hamiltontn.gov
  external_ids:
    bphc: BPS-H80-006606
  sources:
  - hrsa/health-center-sites
  verified:
    'on': '2026-07-19'
    method: api
- id: tn/chattanooga/chattanooga-housing-authority
  name: Chattanooga Housing Authority
  categories:
  - housing-assistance
  address: {street: 801 N Holtzclaw Ave, city: Chattanooga, state: tn, zip: '37404'}
  description: Public housing and Housing Choice Voucher agency
  place: '4714000'
  geo: {lat: 35.04942, lng: -85.27708}
  phone: 423-752-4893
  sources:
  - hud/resource-locator
  verified: {'on': '2026-07-19', method: api}
- id: tn/chattanooga/chs-chattanooga
  name: CHS Chattanooga
  categories:
  - community-health-center
  address:
    street: 5600 Brainerd Rd STE A4
    city: Chattanooga
    state: tn
    zip: '37411'
  place: '4714000'
  geo:
    lat: 35.0086
    lng: -85.21392
  phone: 423-266-4588
  external_ids:
    bphc: BPS-H80-022021
  sources:
  - hrsa/health-center-sites
  verified:
    'on': '2026-07-19'
    method: api
- id: tn/chattanooga/clarvida-of-southeastern-tn-chattanooga
  name: Clarvida of Southeastern TN Chattanooga
  categories:
  - su-treatment
  - mh-treatment
  address:
    street: 3917 Volunteer Drive
    city: Chattanooga
    state: tn
    zip: '37416'
  place: '4714000'
  geo:
    lat: 35.07157
    lng: -85.20016
  phone: 540-710-6085
  website: https://www.clarvida.com/
  sources:
  - samhsa/findtreatment
  verified:
    'on': '2026-07-19'
    method: api
- id: tn/chattanooga/council-for-alcohol-da-servs-inc-cadas
  name: Council for Alcohol/DA Servs Inc (CADAS)
  categories:
  - su-treatment
  address:
    street: 207 Spears Avenue
    city: Chattanooga
    state: tn
    zip: '37405'
  place: '4714000'
  geo:
    lat: 35.06512
    lng: -85.31066
  phone: 423-756-7644 x105
  website: https://www.cadas.org
  sources:
  - samhsa/findtreatment
  verified:
    'on': '2026-07-19'
    method: api
- id: tn/chattanooga/council-for-alcohol-da-servs-inc-cadas-scholze-c
  name: Council for Alcohol/DA Servs Inc (CADAS)/Scholze Ctr for Adolescents
  categories:
  - su-treatment
  address:
    city: Chattanooga
    state: tn
    zip: '37405'
  place: '4714000'
  phone: 423-267-6425
  website: https://www.cadas.org
  sources:
  - samhsa/findtreatment
  verified:
    'on': '2026-07-19'
    method: api
- id: tn/chattanooga/cumberland-heights-outpatient-services-of-chatta
  name: Cumberland Heights Outpatient Services of Chattanooga
  categories:
  - su-treatment
  address:
    street: 6650 East Brainerd Road
    city: Chattanooga
    state: tn
    zip: '37421'
  place: '4714000'
  geo:
    lat: 35.01796
    lng: -85.18687
  phone: 615-234-8615
  website: https://www.cumberlandheights.org
  sources:
  - samhsa/findtreatment
  verified:
    'on': '2026-07-19'
    method: api
- id: tn/chattanooga/dodson-avenue-comm-health-center
  name: DODSON AVENUE COMM HEALTH CENTER
  categories:
  - community-health-center
  address:
    street: 1200 Dodson Ave
    city: Chattanooga
    state: tn
    zip: '37406'
  place: '4714000'
  geo:
    lat: 35.05032
    lng: -85.26174
  phone: 423-778-2800
  website: http://www.erlanger.org/body.cfm?id=722
  external_ids:
    bphc: BPS-H80-001395
  sources:
  - hrsa/health-center-sites
  verified:
    'on': '2026-07-19'
    method: api
- id: tn/chattanooga/east-brainard-elementary
  name: East Brainard Elementary
  categories:
  - child-care
  address:
    street: 7660 Goodwin Rd
    city: Chattanooga
    state: tn
    zip: '37421'
  place: '4714000'
  geo:
    lat: 35.028
    lng: -85.14963
  phone: 423-855-2600
  sources:
  - acf/head-start-locations
  verified:
    'on': '2026-07-19'
    method: api
- id: tn/chattanooga/east-ridge-elementary
  name: East Ridge Elementary
  categories:
  - child-care
  address:
    street: 1014 John Ross Rd
    city: Chattanooga
    state: tn
    zip: '37412'
  place: '4714000'
  geo:
    lat: 34.99613
    lng: -85.24984
  phone: 423-493-6209
  sources:
  - acf/head-start-locations
  verified:
    'on': '2026-07-19'
    method: api
- id: tn/chattanooga/erlanger-behavioral-health-hospital
  name: Erlanger Behavioral Health Hospital
  categories:
  - su-treatment
  - mh-treatment
  address:
    street: 804 North Holtzclaw Avenue
    city: Chattanooga
    state: tn
    zip: '37404'
  place: '4714000'
  geo:
    lat: 35.049
    lng: -85.27588
  phone: 423-498-4650
  website: https://www.erlangerbh.com/
  sources:
  - samhsa/findtreatment
  verified:
    'on': '2026-07-19'
    method: api
- id: tn/chattanooga/erlanger-community-health-center-school-based
  name: Erlanger Community Health Center School Based
  categories:
  - community-health-center
  address:
    street: 100 E 25th St
    city: Chattanooga
    state: tn
    zip: '37408'
  place: '4714000'
  geo:
    lat: 35.0264
    lng: -85.30914
  phone: 423-498-6850
  external_ids:
    bphc: BPS-H80-037469
  sources:
  - hrsa/health-center-sites
  verified:
    'on': '2026-07-19'
    method: api
- id: tn/chattanooga/erlanger-community-health-center-st-elmo
  name: Erlanger Community Health Center - St.Elmo
  categories:
  - community-health-center
  address:
    street: 3800 Tennessee Ave
    city: Chattanooga
    state: tn
    zip: '37409'
  place: '4714000'
  geo:
    lat: 35.01033
    lng: -85.32599
  phone: 423-778-2700
  website: https://www.erlanger.org
  external_ids:
    bphc: BPS-H80-020952
  sources:
  - hrsa/health-center-sites
  verified:
    'on': '2026-07-19'
    method: api
- id: tn/chattanooga/erlanger-medical-center
  name: Erlanger Medical Center
  categories:
  - community-health-center
  address:
    street: 975 E 3rd St STE B-708
    city: Chattanooga
    state: tn
    zip: '37403'
  place: '4714000'
  geo:
    lat: 35.04796
    lng: -85.2909
  phone: 423-778-7100
  external_ids:
    bphc: BPS-H80-012478
  sources:
  - hrsa/health-center-sites
  verified:
    'on': '2026-07-19'
    method: api
- id: tn/chattanooga/erlanger-premier-healthcare-center
  name: Erlanger Premier Healthcare Center
  categories:
  - community-health-center
  address:
    street: 251 N Lyerly St, Ste 300
    city: Chattanooga
    state: tn
    zip: '37404'
  place: '4714000'
  geo:
    lat: 35.03694
    lng: -85.26761
  phone: 423-778-2700
  website: https://www.erlanger.org
  external_ids:
    bphc: BPS-H80-021044
  sources:
  - hrsa/health-center-sites
  verified:
    'on': '2026-07-19'
    method: api
- id: tn/chattanooga/focus-treatment-centers
  name: Focus Treatment Centers
  categories:
  - su-treatment
  - mh-treatment
  address:
    street: 7429 Shallowford Road
    city: Chattanooga
    state: tn
    zip: '37421'
  place: '4714000'
  geo:
    lat: 35.04003
    lng: -85.14706
  phone: 423-308-2560
  website: https://focustreatmentcenters.com/
  sources:
  - samhsa/findtreatment
  verified:
    'on': '2026-07-19'
    method: api
- id: tn/chattanooga/hardy-elementary
  name: Hardy Elementary
  categories:
  - child-care
  address:
    street: 2100 Glass St
    city: Chattanooga
    state: tn
    zip: '37406'
  place: '4714000'
  geo:
    lat: 35.06202
    lng: -85.25745
  phone: 423-493-0300
  sources:
  - acf/head-start-locations
  verified:
    'on': '2026-07-19'
    method: api
- id: tn/chattanooga/health-connect-america-chattanooga-office
  name: Health Connect America Chattanooga Office
  categories:
  - su-treatment
  - mh-treatment
  address:
    street: 2115 Chapman Road
    city: Chattanooga
    state: tn
    zip: '37421'
  place: '4714000'
  geo:
    lat: 35.05505
    lng: -85.18949
  phone: 423-702-5508
  website: https://healthconnectamerica.com
  sources:
  - samhsa/findtreatment
  verified:
    'on': '2026-07-19'
    method: api
- id: tn/chattanooga/helen-ross-mcnabb-center-hamilton-cnty-children
  name: Helen Ross McNabb Center Hamilton Cnty Children and Adol Center
  categories:
  - su-treatment
  - mh-treatment
  address:
    street: 6055 Shallowford Road
    city: Chattanooga
    state: tn
    zip: '37421'
  place: '4714000'
  geo:
    lat: 35.05487
    lng: -85.18147
  phone: 800-255-9711 x1119
  website: https://www.mcnabbcenter.org
  sources:
  - samhsa/findtreatment
  verified:
    'on': '2026-07-19'
    method: api
- id: tn/chattanooga/helen-ross-mcnabb-center-hamilton-co-adult-cente
  name: Helen Ross McNabb Center Hamilton Co Adult Center
  categories:
  - su-treatment
  - mh-treatment
  address:
    street: 601 Cumberland Street
    city: Chattanooga
    state: tn
    zip: '37404'
  place: '4714000'
  geo:
    lat: 35.048
    lng: -85.27813
  phone: 800-255-9711
  website: https://www.mcnabbcenter.org
  sources:
  - samhsa/findtreatment
  verified:
    'on': '2026-07-19'
    method: api
- id: tn/chattanooga/homeless-health-care-center
  name: Homeless Health Care Center
  categories:
  - community-health-center
  address:
    street: 730 E 11th St
    city: Chattanooga
    state: tn
    zip: '37403'
  place: '4714000'
  geo:
    lat: 35.04003
    lng: -85.29985
  phone: 423-265-5708
  website: https://www.health.hamiltontn.org
  external_ids:
    bphc: BPS-H80-010090
  sources:
  - hrsa/health-center-sites
  verified:
    'on': '2026-07-19'
    method: api
- id: tn/chattanooga/hope-community-fridge
  name: Hope community fridge
  categories:
  - food-pantry
  place: '4714000'
  geo:
    lat: 35.0557
    lng: -85.25936
  external_ids:
    lfp: '4556'
  sources:
  - littlefreepantry/map
  verified:
    'on': '2026-07-19'
    method: scrape
- id: tn/chattanooga/iris-wellness-group
  name: Iris Wellness Group
  categories:
  - su-treatment
  - mh-treatment
  address:
    street: 901 Mountain Creek Road
    city: Chattanooga
    state: tn
    zip: '37405'
  place: '4714000'
  geo:
    lat: 35.10332
    lng: -85.32801
  phone: 423-541-0656
  website: https://iriswellnessgroup.com/
  sources:
  - samhsa/findtreatment
  verified:
    'on': '2026-07-19'
    method: api
- id: tn/chattanooga/maurice-kirby-child-care
  name: Maurice Kirby Child Care
  categories:
  - child-care
  address:
    street: 2500 S Market St
    city: Chattanooga
    state: tn
    zip: '37408'
  place: '4714000'
  geo:
    lat: 35.02601
    lng: -85.30974
  phone: 423-266-1802
  sources:
  - acf/head-start-locations
  verified:
    'on': '2026-07-19'
    method: api
- id: tn/chattanooga/maurice-kirby-child-care-center
  name: Maurice Kirby Child Care Center
  categories:
  - child-care
  address:
    street: 2500 Market St
    city: Chattanooga
    state: tn
    zip: '37408'
  place: '4714000'
  geo:
    lat: 35.04243
    lng: -85.30905
  phone: 423-643-6674
  sources:
  - acf/head-start-locations
  verified:
    'on': '2026-07-19'
    method: api
- id: tn/chattanooga/moccasin-bend-mental-health-institute
  name: Moccasin Bend Mental Health Institute
  categories:
  - su-treatment
  - mh-treatment
  address:
    street: 100 Moccasin Bend Road
    city: Chattanooga
    state: tn
    zip: '37405'
  place: '4714000'
  geo:
    lat: 35.02689
    lng: -85.33548
  phone: 423-265-2271
  website: https://tn.gov/behavioral-health/hospitals.html
  sources:
  - samhsa/findtreatment
  verified:
    'on': '2026-07-19'
    method: api
- id: tn/chattanooga/newton-child-care-development-center
  name: Newton Child Care Development Center
  categories:
  - child-care
  address:
    street: 1301 Grove Street Ct
    city: Chattanooga
    state: tn
    zip: '37402'
  place: '4714000'
  geo:
    lat: 35.04304
    lng: -85.31914
  phone: 423-266-4341
  sources:
  - acf/head-start-locations
  verified:
    'on': '2026-07-19'
    method: api
- id: tn/chattanooga/newton-early-head-start
  name: Newton Early Head Start
  categories:
  - child-care
  address:
    street: 1301 Grove Street Ct
    city: Chattanooga
    state: tn
    zip: '37402'
  place: '4714000'
  geo:
    lat: 35.04296
    lng: -85.31896
  phone: 423-266-4341
  sources:
  - acf/head-start-locations
  verified:
    'on': '2026-07-19'
    method: api
- id: tn/chattanooga/purpose-point-learning-academy
  name: Purpose Point Learning Academy
  categories:
  - child-care
  address:
    street: 4801 Highway 58
    street2: Ste 105
    city: Chattanooga
    state: tn
    zip: '37416'
  place: '4714000'
  geo:
    lat: 35.09127
    lng: -85.18762
  phone: 423-541-9626
  sources:
  - acf/head-start-locations
  verified:
    'on': '2026-07-19'
    method: api
- id: tn/chattanooga/restoration-recovery-pllc-addiction
  name: Restoration Recovery PLLC Addiction
  categories:
  - su-treatment
  - mh-treatment
  address:
    street: 6141 Shallowford Road
    city: Chattanooga
    state: tn
    zip: '37421'
  place: '4714000'
  geo:
    lat: 35.05475
    lng: -85.18004
  phone: 423-498-2000
  website: https://www.restoration-recovery.com
  sources:
  - samhsa/findtreatment
  verified:
    'on': '2026-07-19'
    method: api
- id: tn/chattanooga/river-valley-health
  name: River Valley Health
  categories:
  - su-treatment
  - mh-treatment
  address:
    street: 5600 Brainerd Road
    city: Chattanooga
    state: tn
    zip: '37411'
  place: '4714000'
  geo:
    lat: 35.0082
    lng: -85.21473
  phone: 423-266-4588
  website: https://www.rvh.org
  sources:
  - samhsa/findtreatment
  verified:
    'on': '2026-07-19'
    method: api
- id: tn/chattanooga/spero-health-chattanooga
  name: Spero Health Chattanooga
  categories:
  - su-treatment
  address:
    street: 7030 Lee Highway
    city: Chattanooga
    state: tn
    zip: '37421'
  place: '4714000'
  geo:
    lat: 35.04616
    lng: -85.15967
  phone: 423-301-5930
  website: https://www.sperohealth.com/
  sources:
  - samhsa/findtreatment
  verified:
    'on': '2026-07-19'
    method: api
- id: tn/chattanooga/tennessee-community-counseling-services-inc
  name: Tennessee Community Counseling Services Inc
  categories:
  - su-treatment
  address:
    street: 951 Eastgate Loop
    city: Chattanooga
    state: tn
    zip: '37411'
  place: '4714000'
  geo:
    lat: 35.01012
    lng: -85.2136
  phone: 423-296-6451
  website: https://tccschattanooga.com
  sources:
  - samhsa/findtreatment
  verified:
    'on': '2026-07-19'
    method: api
- id: tn/chattanooga/time-wellness-tennessee
  name: Time Wellness Tennessee
  categories:
  - su-treatment
  - mh-treatment
  address:
    street: 1635 Chestnut Street
    city: Chattanooga
    state: tn
    zip: '37408'
  place: '4714000'
  geo:
    lat: 35.03702
    lng: -85.31442
  phone: 423-402-8210
  website: https://timewellnesscenters.com/
  sources:
  - samhsa/findtreatment
  verified:
    'on': '2026-07-19'
    method: api
- id: tn/chattanooga/volunteer-behavioral-health-chattanooga-campus
  name: Volunteer Behavioral Health Chattanooga Campus
  categories:
  - su-treatment
  - mh-treatment
  address:
    street: 420 West Bell Avenue
    city: Chattanooga
    state: tn
    zip: '37405'
  place: '4714000'
  geo:
    lat: 35.06839
    lng: -85.31405
  phone: 423-634-8884
  website: https://volunteerbehavioralhealth.org
  sources:
  - samhsa/findtreatment
  verified:
    'on': '2026-07-19'
    method: api
- id: tn/chattanooga/volunteer-comprehensive-treatment-ctr-volunteer
  name: Volunteer Comprehensive Treatment Ctr Volunteer Treatment Center LLC
  categories:
  - su-treatment
  address:
    street: 2347 Rossville Boulevard
    city: Chattanooga
    state: tn
    zip: '37408'
  place: '4714000'
  geo:
    lat: 35.02315
    lng: -85.29727
  phone: 423-265-3122
  website: https://www.ctcprograms.com/location/volunteer-comprehensi
  sources:
  - samhsa/findtreatment
  verified:
    'on': '2026-07-19'
    method: api
- id: tn/chattanooga/woodmore
  name: Woodmore
  categories:
  - child-care
  address:
    street: 800 Woodmore Ln
    city: Chattanooga
    state: tn
    zip: '37411'
  place: '4714000'
  geo:
    lat: 35.03128
    lng: -85.22544
  phone: 423-493-0394
  sources:
  - acf/head-start-locations
  verified:
    'on': '2026-07-19'
    method: api
