- id: tn/covington/covington-housing-authority
  name: Covington Housing Authority
  categories:
  - housing-assistance
  address: {street: 1701 Shoaf St, city: Covington, state: tn, zip: '38019'}
  description: Public housing (Low-Rent) agency
  place: '4717680'
  geo: {lat: 35.54847, lng: -89.6521}
  phone: 901-476-6135
  sources:
  - hud/resource-locator
  verified: {'on': '2026-07-19', method: api}
- id: tn/covington/hope-restored-counseling-covington-civic-center
  name: Hope Restored Counseling Covington Civic Center
  categories:
  - su-treatment
  - mh-treatment
  address:
    street: 100 West Washington Avenue
    city: Covington
    state: tn
    zip: '38019'
  place: '4717680'
  geo:
    lat: 35.56309
    lng: -89.6466
  phone: 901-813-8930
  website: https://www.hoperestoredtn.com
  sources:
  - samhsa/findtreatment
  verified:
    'on': '2026-07-19'
    method: api
- id: tn/covington/professional-care-services-inc-west-tennessee
  name: Professional Care Services Inc West Tennessee
  categories:
  - su-treatment
  address:
    street: 1997 Highway 51
    city: Covington
    state: tn
    zip: '38019'
  place: '4717680'
  geo:
    lat: 35.53552
    lng: -89.67993
  phone: 901-476-8967
  website: https://www.pcswtn.org
  sources:
  - samhsa/findtreatment
  verified:
    'on': '2026-07-19'
    method: api
- id: tn/covington/professional-care-services-inc-west-tennessee-2
  name: Professional Care Services Inc West Tennessee
  categories:
  - su-treatment
  - mh-treatment
  address:
    street: 1997 Highway 51 South
    city: Covington
    state: tn
    zip: '38019'
  place: '4717680'
  geo:
    lat: 35.53376
    lng: -89.67826
  phone: 901-476-8967
  website: https://www.pcswtn.org
  sources:
  - samhsa/findtreatment
  verified:
    'on': '2026-07-19'
    method: api
- id: tn/covington/scus-tipton-head-start-early-head-start
  name: SCUS Tipton Head Start/Early Head Start
  categories:
  - child-care
  address:
    street: 410 Alston Ave
    city: Covington
    state: tn
    zip: '38019'
  place: '4717680'
  geo:
    lat: 35.57203
    lng: -89.64907
  phone: 901-810-3500
  sources:
  - acf/head-start-locations
  verified:
    'on': '2026-07-19'
    method: api
