- id: tn/fayetteville/centerstone-fayetteville
  name: Centerstone Fayetteville
  categories:
  - su-treatment
  - mh-treatment
  address:
    street: 2241 Thornton Taylor Parkway
    city: Fayetteville
    state: tn
    zip: '37334'
  place: '4725920'
  geo:
    lat: 35.14529
    lng: -86.56419
  phone: 931-433-6456
  website: https://centerstone.org
  sources:
  - samhsa/findtreatment
  verified:
    'on': '2026-07-19'
    method: api
- id: tn/fayetteville/elk-river-trading-pantry
  name: Elk River Trading Pantry
  categories:
  - food-pantry
  place: '4725920'
  geo:
    lat: 35.1213
    lng: -86.56642
  external_ids:
    lfp: '1305'
  sources:
  - littlefreepantry/map
  verified:
    'on': '2026-07-19'
    method: scrape
- id: tn/fayetteville/highland-rim-elementary
  name: Highland Rim Elementary
  categories:
  - meal-program
  address:
    street: 111 Highland Rim Road
    city: Fayetteville
    state: tn
    zip: '37334'
  description: Free summer meals for kids and teens (2026 season) — sponsored by Lincoln County.
  place: '4725920'
  geo:
    lat: 35.06458
    lng: -86.59249
  phone: (931) 227-4131
  external_ids:
    usda_master: Cycle 03_TN_SSO_0296
  sources:
  - usda/summer-meal-sites
  verified:
    'on': '2026-07-19'
    method: api
- id: tn/fayetteville/lincoln-central-academy
  name: Lincoln Central Academy
  categories:
  - meal-program
  address:
    street: 909 Main Ave. South
    city: Fayetteville
    state: tn
    zip: '37334'
  description: Free summer meals for kids and teens (2026 season) — sponsored by Lincoln County.
  place: '4725920'
  geo:
    lat: 35.14414
    lng: -86.57179
  phone: (931) 227-4131
  external_ids:
    usda_master: Cycle 03_TN_SSO_0298
  sources:
  - usda/summer-meal-sites
  verified:
    'on': '2026-07-19'
    method: api
- id: tn/fayetteville/lincoln-county-fairgrounds-non-congregate
  name: Lincoln County Fairgrounds Non-Congregate
  categories:
  - meal-program
  address:
    street: 1003 Hedgemont Ave
    city: Fayetteville
    state: tn
    zip: '37334'
  description: Free summer meals for kids and teens (2026 season) — sponsored by SOUTH CENTRAL HUMAN RESOURCE.
  place: '4725920'
  geo:
    lat: 35.1441
    lng: -86.57431
  phone: (931) 433-7182
  external_ids:
    usda_master: Cycle 06_TN_SFSP_0154
  sources:
  - usda/summer-meal-sites
  verified:
    'on': '2026-07-19'
    method: api
- id: tn/fayetteville/lincoln-early-head-start-head-start
  name: Lincoln Early Head Start/Head Start
  categories:
  - child-care
  address:
    street: 111 Shelbyville Hwy
    city: Fayetteville
    state: tn
    zip: '37334'
  place: '4725920'
  geo:
    lat: 35.15877
    lng: -86.5603
  phone: 931-297-5095
  sources:
  - acf/head-start-locations
  verified:
    'on': '2026-07-19'
    method: api
- id: tn/fayetteville/south-lincoln-elementary
  name: South Lincoln Elementary
  categories:
  - meal-program
  address:
    street: 362 Smith Mill Road
    city: Fayetteville
    state: tn
    zip: '37334'
  description: Free summer meals for kids and teens (2026 season) — sponsored by Lincoln County.
  place: '4725920'
  geo:
    lat: 35.05073
    lng: -86.50502
  phone: (931) 227-4131
  external_ids:
    usda_master: Cycle 03_TN_SSO_0297
  sources:
  - usda/summer-meal-sites
  verified:
    'on': '2026-07-19'
    method: api
