- id: tn/goodlettsville/allied-behavioral-health-solutions
  name: Allied Behavioral Health Solutions
  categories:
  - mh-treatment
  address:
    street: 3000 Business Park Circle
    city: Goodlettsville
    state: tn
    zip: '37072'
  place: '4729920'
  geo:
    lat: 36.33075
    lng: -86.70015
  phone: 615-292-3661
  website: https://www.alliedbehavior.com
  sources:
  - samhsa/findtreatment
  verified:
    'on': '2026-07-19'
    method: api
- id: tn/goodlettsville/b-millersville-community-center-non-congregate
  name: B-Millersville Community Center (Non-Congregate)
  categories:
  - meal-program
  address: {street: 1181 Louisville Highway, city: Goodlettsville, state: tn, zip: '37072'}
  description: Free summer meals for kids and teens (2026 season) — sponsored by YMCA of Memphis and the
    Mid South.
  place: '4729920'
  geo: {lat: 36.37039, lng: -86.71019}
  phone: (901) 766-7677
  external_ids: {usda_master: Cycle 05_TN_SFSP_0918}
  sources:
  - usda/summer-meal-sites
  verified: {'on': '2026-07-19', method: api}
- id: tn/goodlettsville/church-on-the-rock
  name: Church On The Rock
  categories:
  - meal-program
  address: {street: 1304 Dickerson Pike, city: Goodlettsville, state: tn, zip: '37072'}
  description: Free summer meals for kids and teens (2026 season) — sponsored by METROPOLITAN ACTION COMMISSION.
  place: '4729920'
  geo: {lat: 36.28801, lng: -86.74342}
  phone: (615) 915-7223
  external_ids: {usda_master: Cycle 06_AK_SFSP_0023}
  sources:
  - usda/summer-meal-sites
  verified: {'on': '2026-07-19', method: api}
- id: tn/goodlettsville/tennessee-voices-for-children
  name: Tennessee Voices for Children
  categories:
  - su-treatment
  - mh-treatment
  address:
    street: 500 Professional Park Drive
    city: Goodlettsville
    state: tn
    zip: '37072'
  place: '4729920'
  geo:
    lat: 36.31244
    lng: -86.70049
  phone: 615-269-7751
  website: https://www.tnvoices.org
  sources:
  - samhsa/findtreatment
  verified:
    'on': '2026-07-19'
    method: api
- id: tn/goodlettsville/the-free-box
  name: The Free Box
  categories:
  - food-pantry
  place: '4729920'
  geo:
    lat: 36.2693
    lng: -86.68562
  external_ids:
    lfp: '2438'
  sources:
  - littlefreepantry/map
  verified:
    'on': '2026-07-19'
    method: scrape
- id: tn/goodlettsville/the-retreat-at-dry-creek-farms
  name: The Retreat At Dry Creek Farms
  categories:
  - meal-program
  address: {street: 100 Robert Cartwright Drive, city: Goodlettsville, state: tn, zip: '37072'}
  description: Free summer meals for kids and teens (2026 season) — sponsored by METROPOLITAN ACTION COMMISSION.
  place: '4729920'
  geo: {lat: 36.29794, lng: -86.72826}
  phone: (615) 859-9850
  external_ids: {usda_master: Cycle 06_TN_SFSP_0092}
  sources:
  - usda/summer-meal-sites
  verified: {'on': '2026-07-19', method: api}
- id: tn/goodlettsville/watauga-elementary-school-rear-playground-non-co
  name: Watauga Elementary School Rear Playground {Non-Congregate}
  categories:
  - meal-program
  address: {street: 1755 Lake Rd, city: Goodlettsville, state: tn, zip: '37073'}
  description: Free summer meals for kids and teens (2026 season) — sponsored by TNKIDS NUTRITION, INC..
  place: '4729920'
  geo: {lat: 36.39635, lng: -86.76503}
  phone: (615) 973-7050
  external_ids: {usda_master: Cycle 05_TN_SFSP_1152}
  sources:
  - usda/summer-meal-sites
  verified: {'on': '2026-07-19', method: api}
