- id: tn/greeneville/baileyton
  name: Baileyton
  categories:
  - child-care
  address:
    street: 6535 Horton Hwy
    city: Greeneville
    state: tn
    zip: '37745'
  place: '4730980'
  geo:
    lat: 36.33375
    lng: -82.83928
  phone: 423-234-2753
  sources:
  - acf/head-start-locations
  verified:
    'on': '2026-07-19'
    method: api
- id: tn/greeneville/baileyton-medical-center
  name: BAILEYTON MEDICAL CENTER
  categories:
  - community-health-center
  address:
    street: 580 Van Hill Rd
    city: Greeneville
    state: tn
    zip: '37745'
  place: '4730980'
  geo:
    lat: 36.33042
    lng: -82.83831
  phone: 423-234-1020
  website: https://www.rhsctn.com
  external_ids:
    bphc: BPS-H80-002358
  sources:
  - hrsa/health-center-sites
  verified:
    'on': '2026-07-19'
    method: api
- id: tn/greeneville/camp-creek
  name: Camp Creek
  categories:
  - child-care
  address:
    street: 2941 Camp Creek Rd
    city: Greeneville
    state: tn
    zip: '37743'
  place: '4730980'
  geo:
    lat: 36.06084
    lng: -82.76549
  phone: 423-638-4034
  sources:
  - acf/head-start-locations
  verified:
    'on': '2026-07-19'
    method: api
- id: tn/greeneville/camp-creek-medical-center
  name: Camp Creek Medical Center
  categories:
  - community-health-center
  address:
    street: 2994 Camp Creek Rd
    city: Greeneville
    state: tn
    zip: '37743'
  place: '4730980'
  geo:
    lat: 36.06207
    lng: -82.76524
  phone: 423-787-0680
  website: https://www.rhsctn.com
  external_ids:
    bphc: BPS-H80-021040
  sources:
  - hrsa/health-center-sites
  verified:
    'on': '2026-07-19'
    method: api
- id: tn/greeneville/east-view
  name: East View
  categories:
  - child-care
  address:
    street: 454 E Bernard Ave
    city: Greeneville
    state: tn
    zip: '37745'
  place: '4730980'
  geo:
    lat: 36.16723
    lng: -82.81178
  phone: 423-638-6351
  sources:
  - acf/head-start-locations
  verified:
    'on': '2026-07-19'
    method: api
- id: tn/greeneville/frontier-health-church-street-pavilion
  name: Frontier Health Church Street Pavilion
  categories:
  - su-treatment
  - mh-treatment
  address:
    street: 616 East Church Street
    city: Greeneville
    state: tn
    zip: '37745'
  place: '4730980'
  geo:
    lat: 36.16156
    lng: -82.8206
  phone: 423-639-3213
  website: https://www.frontierhealth.org
  sources:
  - samhsa/findtreatment
  verified:
    'on': '2026-07-19'
    method: api
- id: tn/greeneville/frontier-health-nolachuckey-holston-area-mh-cent
  name: Frontier Health Nolachuckey Holston Area MH Center
  categories:
  - su-treatment
  - mh-treatment
  address:
    street: 401 Holston Drive
    city: Greeneville
    state: tn
    zip: '37743'
  place: '4730980'
  geo:
    lat: 36.16619
    lng: -82.84638
  phone: 423-639-1104
  website: https://www.frontierhealth.org
  sources:
  - samhsa/findtreatment
  verified:
    'on': '2026-07-19'
    method: api
- id: tn/greeneville/george-clem
  name: George Clem
  categories:
  - child-care
  address:
    street: 310 Floral St
    city: Greeneville
    state: tn
    zip: '37743'
  place: '4730980'
  geo:
    lat: 36.16393
    lng: -82.83981
  phone: 423-639-3031
  sources:
  - acf/head-start-locations
  verified:
    'on': '2026-07-19'
    method: api
- id: tn/greeneville/greeneville-housing-authority
  name: Greeneville Housing Authority
  categories:
  - housing-assistance
  address: {street: 100 Cox Cir, city: Greeneville, state: tn, zip: '37743'}
  description: Public housing (Low-Rent) agency
  place: '4730980'
  geo: {lat: 36.16949, lng: -82.84578}
  phone: 423-638-3111
  sources:
  - hud/resource-locator
  verified: {'on': '2026-07-19', method: api}
- id: tn/greeneville/greeneville-technology-center-gtc
  name: Greeneville Technology Center (GTC)
  categories:
  - child-care
  address:
    street: 1121 Hal Henard Rd
    city: Greeneville
    state: tn
    zip: '37743'
  place: '4730980'
  geo:
    lat: 36.15586
    lng: -82.88157
  phone: 423-638-9340
  sources:
  - acf/head-start-locations
  verified:
    'on': '2026-07-19'
    method: api
- id: tn/greeneville/hal-henard
  name: Hal Henard
  categories:
  - child-care
  address:
    street: 425 E Vann Rd
    city: Greeneville
    state: tn
    zip: '37743'
  place: '4730980'
  geo:
    lat: 36.14991
    lng: -82.84146
  phone: 423-638-3511
  sources:
  - acf/head-start-locations
  verified:
    'on': '2026-07-19'
    method: api
- id: tn/greeneville/highland-head-start-pre-k
  name: Highland Head Start/Pre-K
  categories:
  - child-care
  address:
    street: 208 N Highland Ave
    city: Greeneville
    state: tn
    zip: '37745'
  place: '4730980'
  geo:
    lat: 36.16847
    lng: -82.83548
  phone: 423-638-3341
  sources:
  - acf/head-start-locations
  verified:
    'on': '2026-07-19'
    method: api
- id: tn/greeneville/nolachuckey
  name: Nolachuckey
  categories:
  - child-care
  address:
    street: 565 Nolichuckey Rd
    city: Greeneville
    state: tn
    zip: '37743'
  place: '4730980'
  geo:
    lat: 36.04402
    lng: -82.9338
  phone: 423-798-9455
  sources:
  - acf/head-start-locations
  verified:
    'on': '2026-07-19'
    method: api
- id: tn/greeneville/tusculum-view
  name: Tusculum View
  categories:
  - child-care
  address:
    street: 1725 Lafayette St
    city: Greeneville
    state: tn
    zip: '37745'
  place: '4730980'
  geo:
    lat: 36.1818
    lng: -82.78913
  phone: 423-787-0007
  sources:
  - acf/head-start-locations
  verified:
    'on': '2026-07-19'
    method: api
