- id: tn/harriman/coalfield-pre-k
  name: Coalfield Pre K
  categories:
  - child-care
  address:
    street: 1720 Coal Hill Rd
    city: Harriman
    state: tn
    zip: '37748'
  place: '4732520'
  geo:
    lat: 36.02512
    lng: -84.42168
  phone: 423-346-6633
  sources:
  - acf/head-start-locations
  verified:
    'on': '2026-07-19'
    method: api
- id: tn/harriman/crossroads-of-harriman
  name: Crossroads of Harriman
  categories:
  - su-treatment
  address:
    street: 2305 North Gateway Avenue
    city: Harriman
    state: tn
    zip: '37748'
  place: '4732520'
  geo:
    lat: 35.89422
    lng: -84.62298
  phone: 800-805-6989
  website: https://www.crossroadstreatmentcenters.com
  sources:
  - samhsa/findtreatment
  verified:
    'on': '2026-07-19'
    method: api
- id: tn/harriman/fairmont-center
  name: Fairmont Center
  categories:
  - child-care
  address:
    street: 130 Fairmont Ave
    city: Harriman
    state: tn
    zip: '37748'
  place: '4732520'
  geo:
    lat: 35.91298
    lng: -84.57708
  phone: 865-882-8737
  sources:
  - acf/head-start-locations
  verified:
    'on': '2026-07-19'
    method: api
- id: tn/harriman/harriman-housing-authority
  name: Harriman Housing Authority
  categories:
  - housing-assistance
  address: {street: 300 N Roane St, city: Harriman, state: tn, zip: '37748'}
  description: Public housing (Low-Rent) agency
  place: '4732520'
  geo: {lat: 35.93355, lng: -84.55233}
  phone: 865-882-9636
  sources:
  - hud/resource-locator
  verified: {'on': '2026-07-19', method: api}
- id: tn/harriman/midtown-elementary-school
  name: Midtown Elementary School
  categories:
  - child-care
  address:
    street: 2830 Roane State Hwy
    city: Harriman
    state: tn
    zip: '37748'
  place: '4732520'
  geo:
    lat: 35.88038
    lng: -84.56666
  phone: 865-376-2308
  sources:
  - acf/head-start-locations
  verified:
    'on': '2026-07-19'
    method: api
- id: tn/harriman/ridgeview
  name: Ridgeview
  categories:
  - su-treatment
  - mh-treatment
  address:
    street: 307 Devonia Street
    city: Harriman
    state: tn
    zip: '37748'
  place: '4732520'
  geo:
    lat: 35.93485
    lng: -84.55328
  phone: 865-882-1164
  website: https://www.ridgeview.com
  sources:
  - samhsa/findtreatment
  verified:
    'on': '2026-07-19'
    method: api
- id: tn/harriman/roane-county-service-center
  name: Roane County Service Center
  categories:
  - child-care
  address:
    street: 2305 N Gateway Ave
    street2: Unit 9
    city: Harriman
    state: tn
    zip: '37748'
  place: '4732520'
  geo:
    lat: 35.89424
    lng: -84.62266
  phone: 865-354-0450
  sources:
  - acf/head-start-locations
  verified:
    'on': '2026-07-19'
    method: api
