- id: tn/jackson/a-mothers-love-tamb-of-jackson-tn-inc
  name: A Mothers Love TAMB of Jackson TN Inc
  categories:
  - su-treatment
  address:
    street: 103 Cedar Street
    city: Jackson
    state: tn
    zip: '38301'
  place: '4737640'
  geo:
    lat: 35.62085
    lng: -88.82109
  phone: 731-427-7238
  website: https://www.aspellrecovery.com
  sources:
  - samhsa/findtreatment
  verified:
    'on': '2026-07-19'
    method: api
- id: tn/jackson/applegate-recovery-jackson
  name: AppleGate Recovery Jackson
  categories:
  - su-treatment
  - mh-treatment
  address:
    street: 23 Weatherford Square
    city: Jackson
    state: tn
    zip: '38305'
  place: '4737640'
  geo:
    lat: 35.66683
    lng: -88.84038
  phone: 731-215-0041
  website: https://applegaterecovery.com/locations/tennessee/jackson/
  sources:
  - samhsa/findtreatment
  verified:
    'on': '2026-07-19'
    method: api
- id: tn/jackson/aspell-recovery-center
  name: Aspell Recovery Center
  categories:
  - su-treatment
  address:
    street: 110 McCowat Street
    city: Jackson
    state: tn
    zip: '38301'
  place: '4737640'
  geo:
    lat: 35.62082
    lng: -88.81975
  phone: 731-427-7238
  website: https://www.aspellrecovery.com
  sources:
  - samhsa/findtreatment
  verified:
    'on': '2026-07-19'
    method: api
- id: tn/jackson/bhg-jackson-tn-treatment-center
  name: BHG Jackson TN Treatment Center
  categories:
  - su-treatment
  address:
    street: 58 Carriage House Drive
    city: Jackson
    state: tn
    zip: '38305'
  place: '4737640'
  geo:
    lat: 35.66668
    lng: -88.83103
  phone: 731-660-0880
  website: https://www.bhgrecovery.com/locations/jackson-tn
  sources:
  - samhsa/findtreatment
  verified:
    'on': '2026-07-19'
    method: api
- id: tn/jackson/cumberland-heights-outpatient-of-jackson
  name: Cumberland Heights Outpatient of Jackson
  categories:
  - su-treatment
  address:
    street: 130 Stonebridge Boulevard
    city: Jackson
    state: tn
    zip: '38305'
  place: '4737640'
  geo:
    lat: 35.67628
    lng: -88.85177
  phone: 615-234-8615
  website: https://www.cumberlandheights.org
  sources:
  - samhsa/findtreatment
  verified:
    'on': '2026-07-19'
    method: api
- id: tn/jackson/east-jackson-health-center
  name: East Jackson Health Center
  categories:
  - community-health-center
  address:
    street: 655 Lexington Ave
    city: Jackson
    state: tn
    zip: '38301'
  place: '4737640'
  geo:
    lat: 35.62235
    lng: -88.79217
  phone: 731-540-0330
  website: https://www.christcommunityhealth.org/
  external_ids:
    bphc: BPS-H80-029504
  sources:
  - hrsa/health-center-sites
  verified:
    'on': '2026-07-19'
    method: api
- id: tn/jackson/east-jackson-women-s-health-center
  name: East Jackson Women's Health Center
  categories:
  - community-health-center
  address:
    street: 1104 Whitehall St
    city: Jackson
    state: tn
    zip: '38301'
  place: '4737640'
  geo:
    lat: 35.63477
    lng: -88.78371
  phone: 731-213-6899
  external_ids:
    bphc: BPS-H80-036288
  sources:
  - hrsa/health-center-sites
  verified:
    'on': '2026-07-19'
    method: api
- id: tn/jackson/give-back-jack-blessing-box-1-arm
  name: 'Give Back Jack Blessing Box #1 - ARM'
  categories:
  - food-pantry
  place: '4737640'
  geo:
    lat: 35.61272
    lng: -88.82137
  external_ids:
    lfp: '1277'
  sources:
  - littlefreepantry/map
  verified:
    'on': '2026-07-19'
    method: scrape
- id: tn/jackson/give-back-jack-blessing-box-2-hands-up-preschool
  name: 'Give Back Jack Blessing Box #2 - Hands Up! Preschool'
  categories:
  - food-pantry
  place: '4737640'
  geo:
    lat: 35.65135
    lng: -88.85784
  external_ids:
    lfp: '1283'
  sources:
  - littlefreepantry/map
  verified:
    'on': '2026-07-19'
    method: scrape
- id: tn/jackson/give-back-jack-blessing-box-3-englewood
  name: 'Give Back Jack Blessing Box #3 - Englewood'
  categories:
  - food-pantry
  place: '4737640'
  geo:
    lat: 35.66575
    lng: -88.82956
  external_ids:
    lfp: '1284'
  sources:
  - littlefreepantry/map
  verified:
    'on': '2026-07-19'
    method: scrape
- id: tn/jackson/give-back-jack-blessing-box-4-jacoa
  name: 'Give Back Jack Blessing Box #4 - JACOA'
  categories:
  - food-pantry
  place: '4737640'
  geo:
    lat: 35.61168
    lng: -88.80054
  external_ids:
    lfp: '1287'
  sources:
  - littlefreepantry/map
  verified:
    'on': '2026-07-19'
    method: scrape
- id: tn/jackson/give-back-jack-blessing-box-5-rolling-acres
  name: 'Give Back Jack Blessing Box #5 - Rolling Acres'
  categories:
  - food-pantry
  place: '4737640'
  geo:
    lat: 35.70712
    lng: -88.83048
  external_ids:
    lfp: '1288'
  sources:
  - littlefreepantry/map
  verified:
    'on': '2026-07-19'
    method: scrape
- id: tn/jackson/give-back-jack-blessing-box-6-the-salvation-army
  name: 'Give Back Jack Blessing Box #6 - The Salvation Army'
  categories:
  - food-pantry
  place: '4737640'
  geo:
    lat: 35.62555
    lng: -88.81737
  external_ids:
    lfp: '1466'
  sources:
  - littlefreepantry/map
  verified:
    'on': '2026-07-19'
    method: scrape
- id: tn/jackson/give-back-jack-blessing-box-7-lane-college
  name: 'Give Back Jack Blessing Box #7 - Lane College'
  categories:
  - food-pantry
  place: '4737640'
  geo:
    lat: 35.62802
    lng: -88.80925
  external_ids:
    lfp: '1467'
  sources:
  - littlefreepantry/map
  verified:
    'on': '2026-07-19'
    method: scrape
- id: tn/jackson/give-back-jack-blessing-box-8-lambuth-memorial-u
  name: 'Give Back Jack Blessing Box #8 - Lambuth Memorial United Methodist Church'
  categories:
  - food-pantry
  place: '4737640'
  geo:
    lat: 35.62207
    lng: -88.82386
  external_ids:
    lfp: '1468'
  sources:
  - littlefreepantry/map
  verified:
    'on': '2026-07-19'
    method: scrape
- id: tn/jackson/give-back-jack-blessing-box-9-kidz-first-child-d
  name: 'Give Back Jack Blessing Box #9 - Kidz First Child Development Center'
  categories:
  - food-pantry
  place: '4737640'
  geo:
    lat: 35.69493
    lng: -88.83489
  external_ids:
    lfp: '1740'
  sources:
  - littlefreepantry/map
  verified:
    'on': '2026-07-19'
    method: scrape
- id: tn/jackson/health-connect-america
  name: Health Connect America
  categories:
  - su-treatment
  address:
    street: 14 Weatherford Square
    city: Jackson
    state: tn
    zip: '38305'
  place: '4737640'
  geo:
    lat: 35.66731
    lng: -88.83986
  phone: 731-668-7593
  website: https://www.healthconnectamerica.com
  sources:
  - samhsa/findtreatment
  verified:
    'on': '2026-07-19'
    method: api
- id: tn/jackson/health-connect-america-jackson
  name: Health Connect America Jackson
  categories:
  - su-treatment
  - mh-treatment
  address:
    street: 14 Weatherford Square
    city: Jackson
    state: tn
    zip: '38305'
  place: '4737640'
  geo:
    lat: 35.66731
    lng: -88.83986
  phone: 731-668-7593
  website: https://www.healthconnectamerica.com
  sources:
  - samhsa/findtreatment
  verified:
    'on': '2026-07-19'
    method: api
- id: tn/jackson/hopefield-healthcare-services
  name: Hopefield Healthcare Services
  categories:
  - su-treatment
  - mh-treatment
  address:
    street: 30 Sandstone Circle
    city: Jackson
    state: tn
    zip: '38305'
  place: '4737640'
  geo:
    lat: 35.67682
    lng: -88.85348
  phone: 731-240-1695
  website: https://www.hopefieldhealthcare.com
  sources:
  - samhsa/findtreatment
  verified:
    'on': '2026-07-19'
    method: api
- id: tn/jackson/impact-healthcare-jackson
  name: Impact Healthcare Jackson
  categories:
  - su-treatment
  - mh-treatment
  address:
    street: 37 Sandstone Circle
    city: Jackson
    state: tn
    zip: '38305'
  place: '4737640'
  geo:
    lat: 35.67699
    lng: -88.8546
  phone: 731-265-6025
  website: https://pathwayhealthcare.com
  sources:
  - samhsa/findtreatment
  verified:
    'on': '2026-07-19'
    method: api
- id: tn/jackson/isaac-lane-pre-k-head-start
  name: Isaac Lane Pre K Head Start
  categories:
  - child-care
  address:
    street: 746 Lexington Ave
    city: Jackson
    state: tn
    zip: '38301'
  place: '4737640'
  geo:
    lat: 35.62274
    lng: -88.78862
  phone: 731-423-4720
  sources:
  - acf/head-start-locations
  verified:
    'on': '2026-07-19'
    method: api
- id: tn/jackson/jackson-housing-authority
  name: Jackson Housing Authority
  categories:
  - housing-assistance
  address: {street: 125 Preston St, city: Jackson, state: tn, zip: '38301'}
  description: Public housing and Housing Choice Voucher agency
  place: '4737640'
  geo: {lat: 35.62365, lng: -88.81474}
  phone: 731-422-1671
  sources:
  - hud/resource-locator
  verified: {'on': '2026-07-19', method: api}
- id: tn/jackson/nova
  name: Nova
  categories:
  - child-care
  address:
    street: 248 Bedford White Rd
    street2: Nova Elementary School
    city: Jackson
    state: tn
    zip: '38305'
  place: '4737640'
  geo:
    lat: 36.11575
    lng: -89.27877
  phone: 731-424-1591
  sources:
  - acf/head-start-locations
  verified:
    'on': '2026-07-19'
    method: api
- id: tn/jackson/pathways-of-tennessee-inc-pathways-employee-assi
  name: Pathways of Tennessee Inc Pathways Employee Assistance Program
  categories:
  - su-treatment
  - mh-treatment
  address:
    street: 33 Directors Row
    city: Jackson
    state: tn
    zip: '38305'
  place: '4737640'
  geo:
    lat: 35.66917
    lng: -88.82545
  phone: 731-541-7605
  website: https://www.wth.org/pathways
  sources:
  - samhsa/findtreatment
  verified:
    'on': '2026-07-19'
    method: api
- id: tn/jackson/pathways-of-tennessee-inc-pathways-of-tennessee
  name: Pathways of Tennessee Inc Pathways of Tennessee Madison County
  categories:
  - su-treatment
  - mh-treatment
  address:
    street: 238 Summar Drive
    city: Jackson
    state: tn
    zip: '38301'
  place: '4737640'
  geo:
    lat: 35.6368
    lng: -88.83356
  phone: 731-541-8200
  website: https://www.wth.org/pathways
  sources:
  - samhsa/findtreatment
  verified:
    'on': '2026-07-19'
    method: api
- id: tn/jackson/quinco-mental-health-center-madison-county-cente
  name: Quinco Mental Health Center Madison County Center
  categories:
  - su-treatment
  - mh-treatment
  address:
    street: 45 Executive Drive
    city: Jackson
    state: tn
    zip: '38305'
  place: '4737640'
  geo:
    lat: 35.67043
    lng: -88.82708
  phone: 731-664-2111
  website: https://QuincoTN.com
  sources:
  - samhsa/findtreatment
  verified:
    'on': '2026-07-19'
    method: api
- id: tn/jackson/spero-health-jackson
  name: Spero Health Jackson
  categories:
  - su-treatment
  address:
    street: 172 West University Parkway
    city: Jackson
    state: tn
    zip: '38305'
  place: '4737640'
  geo:
    lat: 35.69543
    lng: -88.83662
  phone: 731-201-5590
  website: https://www.sperohealth.com/
  sources:
  - samhsa/findtreatment
  verified:
    'on': '2026-07-19'
    method: api
- id: tn/jackson/washington-douglass-head-start
  name: Washington Douglass Head Start
  categories:
  - child-care
  address:
    street: 409 Iselin St
    city: Jackson
    state: tn
    zip: '38301'
  place: '4737640'
  geo:
    lat: 35.60456
    lng: -88.79793
  phone: 731-424-4842
  sources:
  - acf/head-start-locations
  verified:
    'on': '2026-07-19'
    method: api
