- id: tn/jamestown/fentress-county-health-department-community-heal
  name: Fentress County Health Department Community Health Center
  categories:
  - community-health-center
  address:
    street: 240 Colonial Cir, Suite A
    city: Jamestown
    state: tn
    zip: '38556'
  place: '4737780'
  geo:
    lat: 36.42391
    lng: -84.93073
  phone: 931-879-9936
  external_ids:
    bphc: BPS-H80-003997
  sources:
  - hrsa/health-center-sites
  verified:
    'on': '2026-07-19'
    method: api
- id: tn/jamestown/jamestown-head-start
  name: Jamestown Head Start
  categories:
  - child-care
  address:
    street: 629 N Main St
    city: Jamestown
    state: tn
    zip: '38556'
  place: '4737780'
  geo:
    lat: 36.44221
    lng: -84.93699
  phone: 931-879-7973
  sources:
  - acf/head-start-locations
  verified:
    'on': '2026-07-19'
    method: api
- id: tn/jamestown/pine-haven-elementary
  name: Pine Haven Elementary
  categories:
  - meal-program
  address:
    street: 800 North York Hwy
    city: Jamestown
    state: tn
    zip: '38556'
  description: Free summer meals for kids and teens (2026 season) — sponsored by Fentress County.
  place: '4737780'
  geo:
    lat: 36.4546
    lng: -84.93797
  phone: (931) 879-9218
  external_ids:
    usda_master: Cycle 09_TN_SSO_0039
  sources:
  - usda/summer-meal-sites
  verified:
    'on': '2026-07-19'
    method: api
- id: tn/jamestown/ridgeview
  name: Ridgeview
  categories:
  - su-treatment
  - mh-treatment
  address:
    street: 101 A Duncan Street
    city: Jamestown
    state: tn
    zip: '38556'
  place: '4737780'
  geo:
    lat: 36.43137
    lng: -84.94436
  phone: 865-482-1076
  website: https://www.ridgeview.com
  sources:
  - samhsa/findtreatment
  verified:
    'on': '2026-07-19'
    method: api
- id: tn/jamestown/york-elementary
  name: York Elementary
  categories:
  - meal-program
  address:
    street: 218 School Ave.
    city: Jamestown
    state: tn
    zip: '38556'
  description: Free summer meals for kids and teens (2026 season) — sponsored by Fentress County.
  place: '4737780'
  geo:
    lat: 36.42304
    lng: -84.93457
  phone: (931) 879-9218
  external_ids:
    usda_master: Cycle 09_TN_SSO_0040
  sources:
  - usda/summer-meal-sites
  verified:
    'on': '2026-07-19'
    method: api
