- id: tn/jellico/bread-of-life-jellico
  name: Bread of Life - Jellico
  org: tn/second-harvest-food-bank-of-east-tennessee
  categories:
  - food-pantry
  address:
    street: 290 N Main St
    city: Jellico
    state: tn
    zip: '37762'
  place: '4738020'
  sources:
  - foodbank/tn-second-harvest-food-bank-of-east-tennessee
  verified:
    'on': '2026-07-21'
    method: api
  geo: {lat: 36.58945, lng: -84.12653}
- id: tn/jellico/brick-plant-church
  name: Brick Plant Church
  categories:
  - meal-program
  address:
    street: 128 Brickplant Lane
    city: Jellico
    state: tn
    zip: '37762'
  description: Free summer meals for kids and teens (2026 season) — sponsored by Campbell County.
  place: '4738020'
  geo:
    lat: 36.55969
    lng: -84.15603
  phone: (423) 201-4381
  external_ids:
    usda_master: Cycle 09_TN_SSO_0296
  sources:
  - usda/summer-meal-sites
  verified:
    'on': '2026-07-19'
    method: api
- id: tn/jellico/dayspring-health
  name: Dayspring Health
  categories:
  - su-treatment
  - mh-treatment
  address:
    street: 550 Sunset Trail
    city: Jellico
    state: tn
    zip: '37762'
  place: '4738020'
  geo:
    lat: 36.57617
    lng: -84.12948
  phone: 423-784-5771
  website: https://www.dayspringhealth.org/
  services:
  - Outpatient
  eligibility: Serves children/adolescents, young adults, adults, seniors.
  cost: sliding-scale
  sources:
  - samhsa/findtreatment
  verified:
    'on': '2026-07-19'
    method: api
- id: tn/jellico/dayspring-jellico
  name: Dayspring Jellico
  categories:
  - community-health-center
  cost: sliding-scale
  address:
    street: 550 Sunset Trl
    city: Jellico
    state: tn
    zip: '37762'
  place: '4738020'
  geo:
    lat: 36.57617
    lng: -84.12949
  phone: 423-784-5771
  external_ids:
    bphc: BPS-H80-001001
  sources:
  - hrsa/health-center-sites
  verified:
    'on': '2026-07-19'
    method: api
- id: tn/jellico/jellico-housing-authority
  name: Jellico Housing Authority
  categories:
  - housing-assistance
  address:
    street: 120 Bacon St
    city: Jellico
    state: tn
    zip: '37762'
  description: Public housing (Low-Rent) agency
  place: '4738020'
  geo:
    lat: 36.58701
    lng: -84.12947
  phone: 423-784-8809
  sources:
  - hud/resource-locator
  verified:
    'on': '2026-07-19'
    method: api
- id: tn/jellico/nc-jellico-high
  name: Nc Jellico High
  categories:
  - meal-program
  address:
    street: 141 High School Road
    city: Jellico
    state: tn
    zip: '37762'
  description: Free summer meals for kids and teens (2026 season) — sponsored by Campbell County.
  place: '4738020'
  geo:
    lat: 36.57855
    lng: -84.11799
  phone: (423) 201-4381
  external_ids:
    usda_master: Cycle 04_TN_SSO_0259
  sources:
  - usda/summer-meal-sites
  verified:
    'on': '2026-07-19'
    method: api
- id: tn/jellico/tannery-hollow-baptist-church
  name: Tannery Hollow Baptist Church
  categories:
  - meal-program
  address:
    street: 651 Maple Street
    city: Jellico
    state: tn
    zip: '37762'
  description: Free summer meals for kids and teens (2026 season) — sponsored by Campbell County.
  place: '4738020'
  geo:
    lat: 36.57762
    lng: -84.12788
  phone: (423) 437-2407
  external_ids:
    usda_master: Cycle 09_TN_SSO_0297
  sources:
  - usda/summer-meal-sites
  verified:
    'on': '2026-07-19'
    method: api
