- id: tn/kodak/chs-northview-intermediate-school-clinic
  name: CHS Northview Intermediate School Clinic
  categories:
  - community-health-center
  address:
    street: 3295 Douglas Dam Rd
    city: Kodak
    state: tn
    zip: '37764'
  geo:
    lat: 35.9569
    lng: -83.61989
  phone: 865-933-7985
  external_ids:
    bphc: BPS-H80-010182
  sources:
  - hrsa/health-center-sites
  verified:
    'on': '2026-07-19'
    method: api
- id: tn/kodak/chs-northview-primary-school-clinic
  name: CHS Northview Primary School Clinic
  categories:
  - community-health-center
  address:
    street: 3293 Douglas Dam Rd
    city: Kodak
    state: tn
    zip: '37764'
  geo:
    lat: 35.95599
    lng: -83.61668
  phone: 865-933-2415
  external_ids:
    bphc: BPS-H80-010191
  sources:
  - hrsa/health-center-sites
  verified:
    'on': '2026-07-19'
    method: api
- id: tn/kodak/first-step-counseling-and-medical
  name: First Step Counseling and Medical
  categories:
  - su-treatment
  address:
    street: 3651 Winfield Dunn Parkway
    city: Kodak
    state: tn
    zip: '37764'
  geo:
    lat: 35.99001
    lng: -83.60992
  phone: 865-465-7815
  website: https://www.1stepcounseling.com
  sources:
  - samhsa/findtreatment
  verified:
    'on': '2026-07-19'
    method: api
- id: tn/kodak/restoration-house-ministires-the-resta
  name: Restoration House Ministires The Resta
  categories:
  - su-treatment
  - mh-treatment
  address:
    street: 154 Lee Greenwood Way
    city: Kodak
    state: tn
    zip: '37764'
  geo:
    lat: 35.94011
    lng: -83.58042
  phone: 865-352-1274
  website: https://www.rhmsevier.com
  sources:
  - samhsa/findtreatment
  verified:
    'on': '2026-07-19'
    method: api
- id: tn/kodak/restoration-house-ministries-corporate-campus
  name: Restoration House Ministries Corporate Campus
  categories:
  - su-treatment
  - mh-treatment
  address:
    city: Kodak
    state: tn
    zip: '37764'
  phone: 865-352-1274
  website: https://www.rhmsevier.com
  sources:
  - samhsa/findtreatment
  verified:
    'on': '2026-07-19'
    method: api
- id: tn/kodak/underwood
  name: UNDERWOOD
  categories:
  - child-care
  address:
    street: 4125 Douglas Dam Rd
    city: Kodak
    state: tn
    zip: '37764'
  geo:
    lat: 35.99729
    lng: -83.63536
  phone: 865-933-5656
  sources:
  - acf/head-start-locations
  verified:
    'on': '2026-07-19'
    method: api
