- id: tn/la-follette/campbell-county-va-clinic
  name: Campbell County VA Clinic
  categories:
  - su-treatment
  - mh-treatment
  address:
    city: La Follette
    state: tn
    zip: '37766'
  place: '4740180'
  phone: 423-563-7666
  website: https://
  sources:
  - samhsa/findtreatment
  verified:
    'on': '2026-07-19'
    method: api
- id: tn/la-follette/community-health-of-east-tennessee-inc
  name: Community Health of East Tennessee, Inc.
  categories:
  - community-health-center
  address:
    street: 130 Independence Ln
    city: La Follette
    state: tn
    zip: '37766'
  place: '4740180'
  geo:
    lat: 36.35303
    lng: -84.15813
  phone: 423-562-1705
  website: https://www.chetn.org
  external_ids:
    bphc: BPS-H80-011162
  sources:
  - hrsa/health-center-sites
  verified:
    'on': '2026-07-19'
    method: api
- id: tn/la-follette/glade-springs-baptist-church
  name: Glade Springs Baptist Church
  categories:
  - meal-program
  address: {street: 360 Glade Springs Road, city: Lafollette, state: tn, zip: '37766'}
  description: Free summer meals for kids and teens (2026 season) — sponsored by Campbell County.
  place: '4740180'
  geo: {lat: 36.40742, lng: -84.04641}
  phone: (423) 201-4381
  external_ids: {usda_master: Cycle 04_TN_SSO_0254}
  sources:
  - usda/summer-meal-sites
  verified: {'on': '2026-07-19', method: api}
- id: tn/la-follette/jellico-hwy-church-of-god
  name: Jellico Hwy. Church Of God
  categories:
  - meal-program
  address: {street: 2544 S. Hwy 25, city: Lafollette, state: tn, zip: '37766'}
  description: Free summer meals for kids and teens (2026 season) — sponsored by Campbell County.
  place: '4740180'
  geo: {lat: 36.42759, lng: -84.08427}
  phone: (423) 201-4381
  external_ids: {usda_master: Cycle 11_TN_SSO_0303}
  sources:
  - usda/summer-meal-sites
  verified: {'on': '2026-07-19', method: api}
- id: tn/la-follette/lafollette-housing-authority
  name: Lafollette Housing Authority
  categories:
  - housing-assistance
  address:
    street: 802 S 4th St
    city: La Follette
    state: tn
    zip: '37766'
  description: Public housing and Housing Choice Voucher agency
  place: '4740180'
  geo:
    lat: 36.37864
    lng: -84.11291
  phone: 423-562-2261
  sources:
  - hud/resource-locator
  verified:
    'on': '2026-07-19'
    method: api
- id: tn/la-follette/mobile-unit
  name: Mobile Unit
  categories:
  - community-health-center
  address:
    street: 130 Independence Ln
    city: La Follette
    state: tn
    zip: '37766'
  place: '4740180'
  geo:
    lat: 36.35303
    lng: -84.15813
  phone: 423-562-1705
  external_ids:
    bphc: BPS-H80-036796
  sources:
  - hrsa/health-center-sites
  verified:
    'on': '2026-07-19'
    method: api
- id: tn/la-follette/nc-valley-view
  name: Nc Valley View
  categories:
  - meal-program
  address: {street: 1187 Old Middlesboro Hwy, city: Lafollette, state: tn, zip: '37766'}
  description: Free summer meals for kids and teens (2026 season) — sponsored by Campbell County.
  place: '4740180'
  geo: {lat: 36.41817, lng: -84.02866}
  phone: (423) 201-4381
  external_ids: {usda_master: Cycle 04_TN_SSO_0260}
  sources:
  - usda/summer-meal-sites
  verified: {'on': '2026-07-19', method: api}
- id: tn/la-follette/one-love-church
  name: One Love Church
  categories:
  - meal-program
  address: {street: '2301 Jacksboro Pike #3', city: Lafollette, state: tn, zip: '37766'}
  description: Free summer meals for kids and teens (2026 season) — sponsored by Campbell County.
  place: '4740180'
  geo: {lat: 36.34482, lng: -84.16164}
  phone: (423) 201-4381
  external_ids: {usda_master: Cycle 09_TN_SSO_0298}
  sources:
  - usda/summer-meal-sites
  verified: {'on': '2026-07-19', method: api}
- id: tn/la-follette/ridgeview-psychiatric-hospital-and-center
  name: Ridgeview Psychiatric Hospital and Center
  categories:
  - su-treatment
  - mh-treatment
  address:
    street: 108 South 5th Street
    city: La Follette
    state: tn
    zip: '37766'
  place: '4740180'
  geo:
    lat: 36.37852
    lng: -84.12411
  phone: 865-482-1076
  website: https://www.ridgeview.com
  sources:
  - samhsa/findtreatment
  verified:
    'on': '2026-07-19'
    method: api
- id: tn/la-follette/tennova-lafollette-medical-center-senior-behavio
  name: Tennova LaFollette Medical Center Senior Behavioral Health
  categories:
  - su-treatment
  - mh-treatment
  address:
    street: 923 East Central Avenue
    city: La Follette
    state: tn
    zip: '37766'
  place: '4740180'
  geo:
    lat: 36.38895
    lng: -84.11183
  phone: 423-907-1222
  website: https://tennova.com
  sources:
  - samhsa/findtreatment
  verified:
    'on': '2026-07-19'
    method: api
- id: tn/la-follette/valley-view-head-start-center
  name: Valley View Head Start Center
  categories:
  - child-care
  address:
    street: 1189 Old Middlesboro Hwy
    city: La Follette
    state: tn
    zip: '37766'
  place: '4740180'
  geo:
    lat: 36.41683
    lng: -84.03276
  phone: 423-562-7090
  sources:
  - acf/head-start-locations
  verified:
    'on': '2026-07-19'
    method: api
- id: tn/la-follette/west-lafollette-head-start-center
  name: West LaFollette Head Start Center
  categories:
  - child-care
  address:
    street: 210 E Beech St
    city: La Follette
    state: tn
    zip: '37766'
  place: '4740180'
  geo:
    lat: 36.38061
    lng: -84.11869
  phone: 423-562-7335
  sources:
  - acf/head-start-locations
  verified:
    'on': '2026-07-19'
    method: api
