- id: tn/la-follette/campbell-county-va-clinic
  name: Campbell County VA Clinic
  categories:
  - su-treatment
  - mh-treatment
  address:
    city: La Follette
    state: tn
    zip: '37766'
  place: '4740180'
  phone: 423-563-7666
  website: https://
  sources:
  - samhsa/findtreatment
  verified:
    'on': '2026-07-19'
    method: api
- id: tn/la-follette/community-health-of-east-tennessee-inc
  name: Community Health of East Tennessee, Inc.
  categories:
  - community-health-center
  address:
    street: 130 Independence Ln
    city: La Follette
    state: tn
    zip: '37766'
  place: '4740180'
  geo:
    lat: 36.35303
    lng: -84.15813
  phone: 423-562-1705
  website: https://www.chetn.org
  external_ids:
    bphc: BPS-H80-011162
  sources:
  - hrsa/health-center-sites
  verified:
    'on': '2026-07-19'
    method: api
- id: tn/la-follette/lafollette-housing-authority
  name: Lafollette Housing Authority
  categories:
  - housing-assistance
  address: {street: 802 S 4th St, city: La Follette, state: tn, zip: '37766'}
  description: Public housing and Housing Choice Voucher agency
  place: '4740180'
  geo: {lat: 36.37864, lng: -84.11291}
  phone: 423-562-2261
  sources:
  - hud/resource-locator
  verified: {'on': '2026-07-19', method: api}
- id: tn/la-follette/mobile-unit
  name: Mobile Unit
  categories:
  - community-health-center
  address:
    street: 130 Independence Ln
    city: La Follette
    state: tn
    zip: '37766'
  place: '4740180'
  geo:
    lat: 36.35303
    lng: -84.15813
  phone: 423-562-1705
  external_ids:
    bphc: BPS-H80-036796
  sources:
  - hrsa/health-center-sites
  verified:
    'on': '2026-07-19'
    method: api
- id: tn/la-follette/ridgeview-psychiatric-hospital-and-center
  name: Ridgeview Psychiatric Hospital and Center
  categories:
  - su-treatment
  - mh-treatment
  address:
    street: 108 South 5th Street
    city: La Follette
    state: tn
    zip: '37766'
  place: '4740180'
  geo:
    lat: 36.37852
    lng: -84.12411
  phone: 865-482-1076
  website: https://www.ridgeview.com
  sources:
  - samhsa/findtreatment
  verified:
    'on': '2026-07-19'
    method: api
- id: tn/la-follette/tennova-lafollette-medical-center-senior-behavio
  name: Tennova LaFollette Medical Center Senior Behavioral Health
  categories:
  - su-treatment
  - mh-treatment
  address:
    street: 923 East Central Avenue
    city: La Follette
    state: tn
    zip: '37766'
  place: '4740180'
  geo:
    lat: 36.38895
    lng: -84.11183
  phone: 423-907-1222
  website: https://tennova.com
  sources:
  - samhsa/findtreatment
  verified:
    'on': '2026-07-19'
    method: api
- id: tn/la-follette/valley-view-head-start-center
  name: Valley View Head Start Center
  categories:
  - child-care
  address:
    street: 1189 Old Middlesboro Hwy
    city: La Follette
    state: tn
    zip: '37766'
  place: '4740180'
  geo:
    lat: 36.41683
    lng: -84.03276
  phone: 423-562-7090
  sources:
  - acf/head-start-locations
  verified:
    'on': '2026-07-19'
    method: api
- id: tn/la-follette/west-lafollette-head-start-center
  name: West LaFollette Head Start Center
  categories:
  - child-care
  address:
    street: 210 E Beech St
    city: La Follette
    state: tn
    zip: '37766'
  place: '4740180'
  geo:
    lat: 36.38061
    lng: -84.11869
  phone: 423-562-7335
  sources:
  - acf/head-start-locations
  verified:
    'on': '2026-07-19'
    method: api
