- id: tn/livingston/livingston-head-start
  name: Livingston Head Start
  categories:
  - child-care
  address:
    street: 480 Cross Ave
    city: Livingston
    state: tn
    zip: '38570'
  place: '4743140'
  geo:
    lat: 36.39268
    lng: -85.33257
  phone: 931-823-1757
  sources:
  - acf/head-start-locations
  verified:
    'on': '2026-07-19'
    method: api
- id: tn/livingston/livingston-housing-authority
  name: Livingston Housing Authority
  categories:
  - housing-assistance
  address: {street: 620 E 7th St, city: Livingston, state: tn, zip: '38570'}
  description: Public housing (Low-Rent) agency
  place: '4743140'
  geo: {lat: 36.39313, lng: -85.31909}
  phone: 931-823-6423
  sources:
  - hud/resource-locator
  verified: {'on': '2026-07-19', method: api}
- id: tn/livingston/livingston-regional-hospital
  name: Livingston Regional Hospital
  categories:
  - su-treatment
  - mh-treatment
  address:
    street: 315 Oak Street
    city: Livingston
    state: tn
    zip: '38570'
  place: '4743140'
  geo:
    lat: 36.38529
    lng: -85.32759
  phone: 931-403-2167
  website: https://www.mylivingstonhospital.com
  sources:
  - samhsa/findtreatment
  verified:
    'on': '2026-07-19'
    method: api
- id: tn/livingston/overton-county-health-department-community-healt
  name: Overton County Health Department Community Health Center
  categories:
  - community-health-center
  address:
    street: 5880 Bradford Hicks Dr
    city: Livingston
    state: tn
    zip: '38570'
  place: '4743140'
  geo:
    lat: 36.39837
    lng: -85.32395
  phone: 931-823-6260
  external_ids:
    bphc: BPS-H80-004907
  sources:
  - hrsa/health-center-sites
  verified:
    'on': '2026-07-19'
    method: api
- id: tn/livingston/volunteer-behavioral-health-livingston-campus
  name: Volunteer Behavioral Health Livingston Campus
  categories:
  - su-treatment
  - mh-treatment
  address:
    street: 501 Spruce Street
    city: Livingston
    state: tn
    zip: '38570'
  place: '4743140'
  geo:
    lat: 36.38426
    lng: -85.31664
  phone: 931-823-5678
  website: https://volunteerbehavioralhealth.org
  sources:
  - samhsa/findtreatment
  verified:
    'on': '2026-07-19'
    method: api
