- id: tn/loudon/ft-loudon-middle-school
  name: Ft Loudon Middle School
  categories:
  - meal-program
  address: {street: 1083 Mulberry Street, city: Loudon, state: tn, zip: '37774'}
  description: Free summer meals for kids and teens (2026 season) — sponsored by EAST TENNESSEE HUMAN
    RESOURCE AGENCY.
  place: '4743780'
  geo: {lat: 35.72501, lng: -84.3532}
  phone: (865) 705-8437
  external_ids: {usda_master: Cycle 05_TN_SFSP_0155}
  sources:
  - usda/summer-meal-sites
  verified: {'on': '2026-07-19', method: api}
- id: tn/loudon/loudon-elementary
  name: Loudon Elementary
  categories:
  - meal-program
  address: {street: 2175 Roberts Road, city: Loudon, state: tn, zip: '37774'}
  description: Free summer meals for kids and teens (2026 season) — sponsored by EAST TENNESSEE HUMAN
    RESOURCE AGENCY.
  place: '4743780'
  geo: {lat: 35.71959, lng: -84.3409}
  phone: (865) 705-8437
  external_ids: {usda_master: Cycle 05_TN_SFSP_0179}
  sources:
  - usda/summer-meal-sites
  verified: {'on': '2026-07-19', method: api}
- id: tn/loudon/loudon-high-school
  name: Loudon High School
  categories:
  - meal-program
  address: {street: 1039 Mulberry Street, city: Loudon, state: tn, zip: '37774'}
  description: Free summer meals for kids and teens (2026 season) — sponsored by EAST TENNESSEE HUMAN
    RESOURCE AGENCY.
  place: '4743780'
  geo: {lat: 35.72727, lng: -84.35144}
  phone: (865) 705-8437
  external_ids: {usda_master: Cycle 05_TN_SFSP_0180}
  sources:
  - usda/summer-meal-sites
  verified: {'on': '2026-07-19', method: api}
- id: tn/loudon/loudon-pool
  name: Loudon Pool
  categories:
  - meal-program
  address: {street: 1051 Mulberry Street, city: Loudon, state: tn, zip: '37774'}
  description: Free summer meals for kids and teens (2026 season) — sponsored by EAST TENNESSEE HUMAN
    RESOURCE AGENCY.
  place: '4743780'
  geo: {lat: 35.7253, lng: -84.35298}
  phone: (865) 705-8437
  external_ids: {usda_master: Cycle 05_TN_SFSP_0181}
  sources:
  - usda/summer-meal-sites
  verified: {'on': '2026-07-19', method: api}
- id: tn/loudon/loudon-umc
  name: Loudon UMC
  categories:
  - food-pantry
  place: '4743780'
  geo:
    lat: 35.73955
    lng: -84.33858
  external_ids:
    lfp: '2439'
  sources:
  - littlefreepantry/map
  verified:
    'on': '2026-07-19'
    method: scrape
- id: tn/loudon/steekee-elementary
  name: Steekee Elementary
  categories:
  - meal-program
  address: {street: 4500 Steekee School Road, city: Loudon, state: tn, zip: '37774'}
  description: Free summer meals for kids and teens (2026 season) — sponsored by EAST TENNESSEE HUMAN
    RESOURCE AGENCY.
  place: '4743780'
  geo: {lat: 35.70121, lng: -84.32469}
  phone: (865) 705-8437
  external_ids: {usda_master: Cycle 05_TN_SFSP_0210}
  sources:
  - usda/summer-meal-sites
  verified: {'on': '2026-07-19', method: api}
- id: tn/loudon/westside-terrace-apt
  name: Westside Terrace Apt
  categories:
  - meal-program
  address: {street: 939 Maramont Pkwy, city: Loudon, state: tn, zip: '37774'}
  description: Free summer meals for kids and teens (2026 season) — sponsored by EAST TENNESSEE HUMAN
    RESOURCE AGENCY.
  place: '4743780'
  geo: {lat: 35.73364, lng: -84.35137}
  phone: (865) 705-8437
  external_ids: {usda_master: Cycle 05_TN_SFSP_0225}
  sources:
  - usda/summer-meal-sites
  verified: {'on': '2026-07-19', method: api}
