- id: tn/pikeville/bledsoe-county-fairgrounds-non-congregate
  name: Bledsoe County Fairgrounds- {Non Congregate}
  categories:
  - meal-program
  address:
    street: 254 Allen P. Deakins Rd.
    city: Pikeville
    state: tn
    zip: '37367'
  description: Free summer meals for kids and teens (2026 season) — sponsored by YMCA OF METROPOLITAN
    CHATTANOOGA.
  place: '4758120'
  geo:
    lat: 35.61358
    lng: -85.1938
  phone: (423) 805-3361
  external_ids:
    usda_master: Cycle 05_TN_SFSP_1203
  sources:
  - usda/summer-meal-sites
  verified:
    'on': '2026-07-19'
    method: api
- id: tn/pikeville/bledsoe-county-high
  name: Bledsoe County High
  categories:
  - meal-program
  address:
    street: 877 Main Street
    city: Pikeville
    state: tn
    zip: '37367'
  description: Free summer meals for kids and teens (2026 season) — sponsored by Bledsoe County.
  place: '4758120'
  geo:
    lat: 35.58446
    lng: -85.21476
  phone: (423) 447-2914
  external_ids:
    usda_master: Cycle 03_TN_SSO_0141
  sources:
  - usda/summer-meal-sites
  verified:
    'on': '2026-07-19'
    method: api
- id: tn/pikeville/bledsoe-county-high-school-non-congregate
  name: Bledsoe County High School "Non Congregate"
  categories:
  - meal-program
  address:
    street: 877 Main Street
    city: Pikeville
    state: tn
    zip: '37367'
  description: Free summer meals for kids and teens (2026 season) — sponsored by Bledsoe County.
  place: '4758120'
  geo:
    lat: 35.58446
    lng: -85.21476
  phone: (432) 447-2914
  external_ids:
    usda_master: Cycle 02_TN_SSO_0066
  sources:
  - usda/summer-meal-sites
  verified:
    'on': '2026-07-19'
    method: api
- id: tn/pikeville/bledsoe-county-middle-school-nc
  name: Bledsoe County Middle School "Nc"
  categories:
  - meal-program
  address:
    street: 857 Main Street
    city: Pikeville
    state: tn
    zip: '37367'
  description: Free summer meals for kids and teens (2026 season) — sponsored by Bledsoe County.
  place: '4758120'
  geo:
    lat: 35.58309
    lng: -85.21705
  phone: (432) 447-2914
  external_ids:
    usda_master: Cycle 09_TN_SSO_0251
  sources:
  - usda/summer-meal-sites
  verified:
    'on': '2026-07-19'
    method: api
- id: tn/pikeville/bledsoe-county-primary-care-ctr
  name: BLEDSOE COUNTY PRIMARY CARE CTR.
  categories:
  - community-health-center
  cost: sliding-scale
  address: {street: 3625 Main St, city: Pikeville, state: tn, zip: '37367'}
  place: '4758120'
  geo: {lat: 35.61276, lng: -85.18846}
  phone: 423-447-6287
  external_ids: {bphc: BPS-H80-001059}
  sources:
  - hrsa/health-center-sites
  verified: {'on': '2026-07-19', method: api}
- id: tn/pikeville/bledsoe-early-head-start
  name: Bledsoe Early Head Start
  categories:
  - child-care
  address:
    street: 2531 Main St
    city: Pikeville
    state: tn
    zip: '37367'
  place: '4758120'
  geo:
    lat: 35.59731
    lng: -85.19164
  phone: 423-403-7581
  sources:
  - acf/head-start-locations
  verified:
    'on': '2026-07-19'
    method: api
- id: tn/pikeville/bledsoe-middle-school
  name: Bledsoe Middle School
  categories:
  - meal-program
  address:
    street: 857 Main Street
    city: Pikeville
    state: tn
    zip: '37367'
  description: Free summer meals for kids and teens (2026 season) — sponsored by Bledsoe County.
  place: '4758120'
  geo:
    lat: 35.58309
    lng: -85.21705
  phone: (423) 447-2383
  external_ids:
    usda_master: Cycle 03_TN_SSO_0142
  sources:
  - usda/summer-meal-sites
  verified:
    'on': '2026-07-19'
    method: api
- id: tn/pikeville/pikeville-elementary-non-congregate
  name: Pikeville Elementary "Non-Congregate"
  categories:
  - meal-program
  address:
    street: 41068 Sr 30
    city: Pikeville
    state: tn
    zip: '37367'
  description: Free summer meals for kids and teens (2026 season) — sponsored by Bledsoe County.
  place: '4758120'
  geo:
    lat: 35.59123
    lng: -85.19099
  phone: (423) 447-2383
  external_ids:
    usda_master: Cycle 02_TN_SSO_0065
  sources:
  - usda/summer-meal-sites
  verified:
    'on': '2026-07-19'
    method: api
- id: tn/pikeville/summer-city
  name: Summer City
  categories:
  - child-care
  address:
    street: 311 Summer City Rd
    city: Pikeville
    state: tn
    zip: '37367'
  place: '4758120'
  geo:
    lat: 35.57644
    lng: -85.11109
  phone: 423-382-0047
  sources:
  - acf/head-start-locations
  verified:
    'on': '2026-07-19'
    method: api
