- id: tn/sunbright/faith-in-grace-baptist
  name: Faith In Grace Baptist
  categories:
  - meal-program
  address: {street: 388 Peters Ford Rd, city: Sunbright, state: tn, zip: '37872'}
  description: Free summer meals for kids and teens (2026 season) — sponsored by Morgan County.
  place: '4772140'
  geo: {lat: 36.3022, lng: -84.76825}
  phone: (423) 223-5783
  external_ids: {usda_master: Cycle 09_TN_SSO_0648}
  sources:
  - usda/summer-meal-sites
  verified: {'on': '2026-07-19', method: api}
- id: tn/sunbright/midway-baptist
  name: Midway Baptist
  categories:
  - meal-program
  address: {street: 7895 Morgan Co Hwy, city: Sunbright, state: tn, zip: '37872'}
  description: Free summer meals for kids and teens (2026 season) — sponsored by Morgan County.
  place: '4772140'
  geo: {lat: 36.24099, lng: -84.67108}
  phone: (423) 539-2319
  external_ids: {usda_master: Cycle 09_TN_SSO_0651}
  sources:
  - usda/summer-meal-sites
  verified: {'on': '2026-07-19', method: api}
- id: tn/sunbright/pleasant-ridge-missionary-baptist-church
  name: Pleasant Ridge Missionary Baptist Church
  categories:
  - meal-program
  address: {street: 114 Burrville Rd, city: Sunbright, state: tn, zip: '37872'}
  description: Free summer meals for kids and teens (2026 season) — sponsored by Morgan County.
  place: '4772140'
  geo: {lat: 36.25484, lng: -84.66849}
  phone: (423) 319-7535
  external_ids: {usda_master: Cycle 09_TN_SSO_0640}
  sources:
  - usda/summer-meal-sites
  verified: {'on': '2026-07-19', method: api}
- id: tn/sunbright/pre-k-sunbright
  name: Pre K Sunbright
  categories:
  - child-care
  address:
    street: 205 Burrville Rd
    city: Sunbright
    state: tn
    zip: '37872'
  place: '4772140'
  geo:
    lat: 36.25988
    lng: -84.67745
  phone: 423-346-6633
  sources:
  - acf/head-start-locations
  verified:
    'on': '2026-07-19'
    method: api
- id: tn/sunbright/sunbright-1st-baptist-church
  name: Sunbright 1St Baptist Church
  categories:
  - meal-program
  address: {street: 7895 Morgan Co Hwy, city: Sunbright, state: tn, zip: '37872'}
  description: Free summer meals for kids and teens (2026 season) — sponsored by Morgan County.
  place: '4772140'
  geo: {lat: 36.24099, lng: -84.67108}
  phone: (865) 805-7888
  external_ids: {usda_master: Cycle 09_TN_SSO_0592}
  sources:
  - usda/summer-meal-sites
  verified: {'on': '2026-07-19', method: api}
- id: tn/sunbright/sunbright-library
  name: Sunbright Library
  categories:
  - meal-program
  address: {street: 142 Melton Dr, city: Sunbright, state: tn, zip: '37872'}
  description: Free summer meals for kids and teens (2026 season) — sponsored by Morgan County.
  place: '4772140'
  geo: {lat: 36.24753, lng: -84.66863}
  phone: (423) 628-0353
  external_ids: {usda_master: Cycle 09_TN_SSO_0653}
  sources:
  - usda/summer-meal-sites
  verified: {'on': '2026-07-19', method: api}
- id: tn/sunbright/sunbright-united-methodist-church
  name: Sunbright United Methodist Church
  categories:
  - meal-program
  address: {street: 7911 Morgan County Hwy, city: Sunbright, state: tn, zip: '37872'}
  description: Free summer meals for kids and teens (2026 season) — sponsored by Morgan County.
  place: '4772140'
  geo: {lat: 36.24264, lng: -84.67051}
  phone: (423) 628-5120
  external_ids: {usda_master: Cycle 09_TN_SSO_0597}
  sources:
  - usda/summer-meal-sites
  verified: {'on': '2026-07-19', method: api}
- id: tn/sunbright/white-oak-baptist-church
  name: White Oak Baptist Church
  categories:
  - meal-program
  address: {street: 107 White Oak Circle, city: Sunbright, state: tn, zip: '37872'}
  description: Free summer meals for kids and teens (2026 season) — sponsored by Morgan County.
  place: '4772140'
  geo: {lat: 36.24264, lng: -84.65835}
  phone: (423) 346-7631
  external_ids: {usda_master: Cycle 09_TN_SSO_0606}
  sources:
  - usda/summer-meal-sites
  verified: {'on': '2026-07-19', method: api}
