- id: tn/sweetwater/sweetwater
  name: SWEETWATER
  categories:
  - child-care
  address:
    street: 29 Valley View Village Dr
    city: Sweetwater
    state: tn
    zip: '37874'
  place: '4772540'
  geo:
    lat: 35.59565
    lng: -84.50203
  phone: 423-337-5303
  sources:
  - acf/head-start-locations
  verified:
    'on': '2026-07-19'
    method: api
- id: tn/sweetwater/sweetwater-boys-and-girls-club
  name: Sweetwater Boys And Girls Club
  categories:
  - meal-program
  address: {street: 135 Starrett St., city: Sweetwater, state: tn, zip: '37874'}
  description: Free summer meals for kids and teens (2026 season) — sponsored by YMCA ATHENS - MCMINN
    COUNTY.
  place: '4772540'
  geo: {lat: 35.59794, lng: -84.45392}
  phone: (423) 745-4904
  external_ids: {usda_master: Cycle 05_TN_SFSP_1183}
  sources:
  - usda/summer-meal-sites
  verified: {'on': '2026-07-19', method: api}
- id: tn/sweetwater/sweetwater-elementary
  name: Sweetwater Elementary
  categories:
  - meal-program
  address: {street: 301 Broad St., city: Sweetwater, state: tn, zip: '37874'}
  description: Free summer meals for kids and teens (2026 season) — sponsored by Sweetwater City Schools.
  place: '4772540'
  geo: {lat: 35.60399, lng: -84.46484}
  phone: (423) 337-2344
  external_ids: {usda_master: Cycle 09_TN_SSO_0217}
  sources:
  - usda/summer-meal-sites
  verified: {'on': '2026-07-19', method: api}
- id: tn/sweetwater/sweetwater-high-school
  name: Sweetwater High School
  categories:
  - community-health-center
  cost: sliding-scale
  address:
    street: 414 S High St
    city: Sweetwater
    state: tn
    zip: '37874'
  place: '4772540'
  geo:
    lat: 35.59674
    lng: -84.46974
  phone: 423-337-7881
  external_ids:
    bphc: BPS-H80-006675
  sources:
  - hrsa/health-center-sites
  verified:
    'on': '2026-07-19'
    method: api
- id: tn/sweetwater/sweetwater-housing-authority
  name: Sweetwater Housing Authority
  categories:
  - housing-assistance
  address:
    street: 3 Valley View Village Dr
    city: Sweetwater
    state: tn
    zip: '37874'
  description: Public housing (Low-Rent) agency
  place: '4772540'
  geo:
    lat: 35.59692
    lng: -84.49983
  phone: 423-337-6224
  sources:
  - hud/resource-locator
  verified:
    'on': '2026-07-19'
    method: api
