- id: tn/union-city/carey-counseling-center-inc-union-city-site
  name: Carey Counseling Center Inc Union City Site
  categories:
  - su-treatment
  - mh-treatment
  address:
    street: 1409 North Morgan Street
    city: Union City
    state: tn
    zip: '38281'
  place: '4775940'
  geo:
    lat: 36.43296
    lng: -89.05073
  phone: 731-885-8810
  website: https://www.careycounselingcenter.org
  sources:
  - samhsa/findtreatment
  verified:
    'on': '2026-07-19'
    method: api
- id: tn/union-city/miles-head-start
  name: Miles Head Start
  categories:
  - child-care
  address:
    street: 1015 E College St
    city: Union City
    state: tn
    zip: '38261'
  place: '4775940'
  geo:
    lat: 36.42846
    lng: -89.04545
  phone: 731-885-1533
  sources:
  - acf/head-start-locations
  verified:
    'on': '2026-07-19'
    method: api
- id: tn/union-city/pathways-of-tennessee-inc-pathways-union-city-of
  name: Pathways of Tennessee Inc Pathways Union City Office
  categories:
  - su-treatment
  - mh-treatment
  address:
    street: 930 Mount Zion Road
    city: Union City
    state: tn
    zip: '38261'
  place: '4775940'
  geo:
    lat: 36.44222
    lng: -89.06377
  phone: 731-885-9333
  website: https://www.wth.org/pathways
  sources:
  - samhsa/findtreatment
  verified:
    'on': '2026-07-19'
    method: api
- id: tn/union-city/priority-health-and-addiction-medicine
  name: Priority Health and Addiction Medicine
  categories:
  - su-treatment
  address:
    street: 1117 South Miles Avenue
    city: Union City
    state: tn
    zip: '38261'
  place: '4775940'
  geo:
    lat: 36.41511
    lng: -89.0419
  phone: 731-507-0707
  website: https://www.phamuc.com
  sources:
  - samhsa/findtreatment
  verified:
    'on': '2026-07-19'
    method: api
- id: tn/union-city/v-star-behavioral-health
  name: V Star Behavioral Health
  categories:
  - su-treatment
  - mh-treatment
  address:
    street: 126 East Main Street
    city: Union City
    state: tn
    zip: '38261'
  place: '4775940'
  geo:
    lat: 36.42677
    lng: -89.05566
  phone: 731-599-9929
  website: https://www.vstarbhs.org
  sources:
  - samhsa/findtreatment
  verified:
    'on': '2026-07-19'
    method: api
