- id: tn/vonore/chota-community-health-services
  name: Chota Community Health Services
  categories:
  - community-health-center
  cost: sliding-scale
  address:
    street: 1206 Highway 411
    city: Vonore
    state: tn
    zip: '37885'
  place: '4777480'
  geo:
    lat: 35.58828
    lng: -84.24168
  phone: 423-884-7271
  website: http://www.chotahealth.org
  external_ids:
    bphc: BPS-H80-002001
  sources:
  - hrsa/health-center-sites
  verified:
    'on': '2026-07-19'
    method: api
- id: tn/vonore/god-s-mountain-retreat
  name: God'S Mountain Retreat
  categories:
  - meal-program
  address:
    street: 458 Buck Hwy
    city: Vonore
    state: tn
    zip: '37885'
  description: Free summer meals for kids and teens (2026 season) — sponsored by EAST TENNESSEE HUMAN
    RESOURCE AGENCY.
  place: '4777480'
  geo:
    lat: 35.46589
    lng: -84.14051
  phone: (865) 705-8437
  external_ids:
    usda_master: Cycle 05_TN_SFSP_0157
  sources:
  - usda/summer-meal-sites
  verified:
    'on': '2026-07-19'
    method: api
- id: tn/vonore/vonore-elementary-school
  name: Vonore Elementary School
  categories:
  - community-health-center
  cost: sliding-scale
  address:
    street: 1135 Highway 411
    city: Vonore
    state: tn
    zip: '37885'
  place: '4777480'
  geo:
    lat: 35.58795
    lng: -84.23881
  phone: 423-884-6392
  external_ids:
    bphc: BPS-H80-006712
  sources:
  - hrsa/health-center-sites
  verified:
    'on': '2026-07-19'
    method: api
- id: tn/vonore/vonore-elementary-school-2
  name: Vonore Elementary School
  categories:
  - meal-program
  address:
    street: 1135 Hwy 411
    city: Vonore
    state: tn
    zip: '37885'
  description: Free summer meals for kids and teens (2026 season) — sponsored by EAST TENNESSEE HUMAN
    RESOURCE AGENCY.
  place: '4777480'
  geo:
    lat: 35.589
    lng: -84.23934
  phone: (865) 705-8437
  external_ids:
    usda_master: Cycle 05_TN_SFSP_0218
  sources:
  - usda/summer-meal-sites
  verified:
    'on': '2026-07-19'
    method: api
- id: tn/vonore/vonore-middle-school
  name: Vonore Middle School
  categories:
  - community-health-center
  cost: sliding-scale
  address:
    street: 414 Hall St
    city: Vonore
    state: tn
    zip: '37885'
  place: '4777480'
  geo:
    lat: 35.59578
    lng: -84.23685
  phone: 423-884-2730
  external_ids:
    bphc: BPS-H80-006380
  sources:
  - hrsa/health-center-sites
  verified:
    'on': '2026-07-19'
    method: api
