- id: nc/burlington/alamance-regional-psychiatric-assoc
  name: Alamance Regional Psychiatric Assoc
  categories:
  - su-treatment
  - mh-treatment
  address:
    street: 1236 Huffman Mill Road
    city: Burlington
    state: nc
    zip: '27215'
  place: '3709060'
  geo:
    lat: 36.06089
    lng: -79.50123
  phone: 336-586-3795
  website: https://www.conehealth.com
  sources:
  - samhsa/findtreatment
  verified:
    'on': '2026-07-19'
    method: api
- id: nc/burlington/charles-drew-community-health-center
  name: Charles Drew Community Health Center
  categories:
  - community-health-center
  address:
    street: 221 N Graham Hopedale Rd
    city: Burlington
    state: nc
    zip: '27217'
  place: '3709060'
  geo:
    lat: 36.09871
    lng: -79.40544
  phone: 336-570-3739
  website: https://www.piedmonthealth.org
  external_ids:
    bphc: BPS-H80-005241
  sources:
  - hrsa/health-center-sites
  verified:
    'on': '2026-07-19'
    method: api
- id: nc/burlington/head-start-junction
  name: Head Start Junction
  categories:
  - child-care
  address:
    street: 421 Alamance Rd
    city: Burlington
    state: nc
    zip: '27215'
  place: '3709060'
  geo:
    lat: 36.07524
    lng: -79.4648
  phone: 336-436-0202
  sources:
  - acf/head-start-locations
  verified:
    'on': '2026-07-19'
    method: api
- id: nc/burlington/janice-s-scarborough-head-start
  name: Janice S. Scarborough Head Start
  categories:
  - child-care
  address:
    street: 615 Gunn St
    city: Burlington
    state: nc
    zip: '27217'
  place: '3709060'
  geo:
    lat: 36.10645
    lng: -79.43166
  phone: 336-226-5558
  sources:
  - acf/head-start-locations
  verified:
    'on': '2026-07-19'
    method: api
- id: nc/burlington/kintegra-at-clover-garden-school
  name: Kintegra at Clover Garden School
  categories:
  - community-health-center
  address:
    street: 5806 Pagetown Rd
    city: Burlington
    state: nc
    zip: '27217'
  place: '3709060'
  geo:
    lat: 36.21522
    lng: -79.45468
  phone: 336-586-9440
  website: https://www.kintegra.org
  external_ids:
    bphc: BPS-H80-038516
  sources:
  - hrsa/health-center-sites
  verified:
    'on': '2026-07-19'
    method: api
- id: nc/burlington/piedmont-health-mobile-unit-2
  name: 'Piedmont Health Mobile Unit # 2'
  categories:
  - community-health-center
  address:
    street: 1214 Vaughn Rd
    city: Burlington
    state: nc
    zip: '27217'
  place: '3709060'
  geo:
    lat: 36.10073
    lng: -79.41744
  phone: 336-506-0631
  external_ids:
    bphc: BPS-H80-039703
  sources:
  - hrsa/health-center-sites
  verified:
    'on': '2026-07-19'
    method: api
- id: nc/burlington/piedmont-health-seniorcare-burlington-community
  name: Piedmont Health SeniorCare Burlington Community Health Center
  categories:
  - community-health-center
  address:
    street: 1214 Vaughn Rd
    city: Burlington
    state: nc
    zip: '27217'
  place: '3709060'
  geo:
    lat: 36.10073
    lng: -79.41744
  phone: 336-506-5840
  website: https://www.piedmonthealth.org
  external_ids:
    bphc: BPS-H80-007710
  sources:
  - hrsa/health-center-sites
  verified:
    'on': '2026-07-19'
    method: api
- id: nc/burlington/psychotherapeutic-services-inc
  name: Psychotherapeutic Services Inc
  categories:
  - mh-treatment
  address:
    street: 2260 South Church Street
    city: Burlington
    state: nc
    zip: '27215'
  place: '3709060'
  geo:
    lat: 36.08136
    lng: -79.47204
  phone: 336-513-4229
  website: https://www.psychotherapeuticservices.com
  sources:
  - samhsa/findtreatment
  verified:
    'on': '2026-07-19'
    method: api
- id: nc/burlington/residential-trt-servs-of-alamance-inc
  name: Residential Trt Servs of Alamance Inc
  categories:
  - su-treatment
  address:
    street: 136 Hall Avenue
    city: Burlington
    state: nc
    zip: '27217'
  place: '3709060'
  geo:
    lat: 36.09923
    lng: -79.43843
  phone: 226-227-7417
  website: https://www.rtsalamance.org
  sources:
  - samhsa/findtreatment
  verified:
    'on': '2026-07-19'
    method: api
- id: nc/burlington/scott-community-health-center
  name: Scott Community Health Center
  categories:
  - community-health-center
  address:
    street: 5270 Union Ridge Rd
    city: Burlington
    state: nc
    zip: '27217'
  place: '3709060'
  geo:
    lat: 36.21299
    lng: -79.39698
  phone: 336-421-3247
  website: https://www.piedmonthealth.org
  external_ids:
    bphc: BPS-H80-001819
  sources:
  - hrsa/health-center-sites
  verified:
    'on': '2026-07-19'
    method: api
