- id: nc/denver/east-lincoln-high
  name: East Lincoln High
  categories:
  - meal-program
  address:
    street: 6471 Hwy 73
    city: Denver
    state: nc
    zip: '28037'
  description: Free summer meals for kids and teens (2026 season) — sponsored by Lincoln County Schools.
  place: '3717000'
  geo:
    lat: 35.45325
    lng: -81.02604
  phone: (704) 736-1017
  external_ids:
    usda_master: Cycle 06_NC_SFSP_1496
  sources:
  - usda/summer-meal-sites
  verified:
    'on': '2026-07-19'
    method: api
- id: nc/denver/kintegra-at-catawba-springs-elementary
  name: Kintegra at Catawba Springs Elementary
  categories:
  - community-health-center
  address:
    street: 206 N Little Egypt Rd
    city: Denver
    state: nc
    zip: '28037'
  place: '3717000'
  geo:
    lat: 35.45576
    lng: -81.02137
  phone: 704-736-1895
  website: https://www.kintegra.org
  external_ids:
    bphc: BPS-H80-035449
  sources:
  - hrsa/health-center-sites
  verified:
    'on': '2026-07-19'
    method: api
- id: nc/denver/kintegra-at-rock-springs-elementary
  name: Kintegra at Rock Springs Elementary
  categories:
  - community-health-center
  address:
    street: 3633 N NC 16 Business Hwy
    city: Denver
    state: nc
    zip: '28037'
  place: '3717000'
  geo:
    lat: 35.52951
    lng: -81.02573
  phone: 704-483-2281
  website: https://www.kintegra.org
  external_ids:
    bphc: BPS-H80-037192
  sources:
  - hrsa/health-center-sites
  verified:
    'on': '2026-07-19'
    method: api
- id: nc/denver/kintegra-at-st-james-elementary
  name: Kintegra at St James Elementary
  categories:
  - community-health-center
  address:
    street: 1774 Saint James Church Rd
    city: Denver
    state: nc
    zip: '28037'
  place: '3717000'
  geo:
    lat: 35.48534
    lng: -81.01632
  phone: 704-736-1958
  website: https://www.kintegra.org
  external_ids:
    bphc: BPS-H80-035443
  sources:
  - hrsa/health-center-sites
  verified:
    'on': '2026-07-19'
    method: api
- id: nc/denver/the-corner-cupboard
  name: The Corner Cupboard
  categories:
  - food-pantry
  place: '3717000'
  geo:
    lat: 35.5078
    lng: -81.05832
  external_ids:
    lfp: '662'
  sources:
  - littlefreepantry/map
  verified:
    'on': '2026-07-19'
    method: scrape
- id: nc/denver/west-lake-preparatory-academy
  name: West Lake Preparatory Academy
  categories:
  - meal-program
  address:
    street: 1691 Forney Creek Parkway
    city: Denver
    state: nc
    zip: '28037'
  description: Free summer meals for kids and teens (2026 season) — sponsored by West Lake Preparatory
    Academy.
  place: '3717000'
  geo:
    lat: 35.49014
    lng: -81.01345
  phone: (704) 858-2701
  external_ids:
    usda_master: Cycle 06_NC_SSO_0795
  sources:
  - usda/summer-meal-sites
  verified:
    'on': '2026-07-19'
    method: api
