- id: nc/dobson/dobson-elementary
  name: Dobson Elementary
  categories:
  - meal-program
  address:
    street: 400 W Atkins Street
    city: Dobson
    state: nc
    zip: '27017'
  description: Free summer meals for kids and teens (2026 season) — sponsored by Surry County Schools.
  place: '3717340'
  geo:
    lat: 36.39444
    lng: -80.72605
  phone: (336) 386-8866
  external_ids:
    usda_master: Cycle 06_NC_SFSP_0447
  sources:
  - usda/summer-meal-sites
  verified:
    'on': '2026-07-19'
    method: api
- id: nc/dobson/integrated-care-of-greater-hickory-icgh-dobson
  name: Integrated Care of Greater Hickory ICGH Dobson
  categories:
  - su-treatment
  - mh-treatment
  address:
    street: 113 North Crutchfield Street
    city: Dobson
    state: nc
    zip: '27017'
  place: '3717340'
  geo:
    lat: 36.39575
    lng: -80.72416
  phone: 828-322-5915 x130
  website: https://www.integratedcarehickory.com/
  sources:
  - samhsa/findtreatment
  verified:
    'on': '2026-07-19'
    method: api
- id: nc/dobson/little-free-pantry-of-surry-community-college
  name: Little Free Pantry of Surry Community College
  categories:
  - food-pantry
  place: '3717340'
  geo:
    lat: 36.38537
    lng: -80.71616
  external_ids:
    lfp: '240'
  sources:
  - littlefreepantry/map
  verified:
    'on': '2026-07-19'
    method: scrape
- id: nc/dobson/salem-fork-baptist-church
  name: Salem Fork Baptist Church
  categories:
  - food-pantry
  place: '3717340'
  geo:
    lat: 36.3839
    lng: -80.776
  external_ids:
    lfp: '2567'
  sources:
  - littlefreepantry/map
  verified:
    'on': '2026-07-19'
    method: scrape
- id: nc/dobson/surry-head-start
  name: Surry Head Start
  categories:
  - child-care
  address:
    street: 389 Jenkinstown Rd
    city: Dobson
    state: nc
    zip: '27017'
  place: '3717340'
  geo:
    lat: 36.30098
    lng: -80.70019
  phone: 336-367-7202
  sources:
  - acf/head-start-locations
  verified:
    'on': '2026-07-19'
    method: api
