- id: nc/durham/a-new-beginning-2
  name: A New Beginning 2
  categories:
  - child-care
  address:
    street: 1821 Chapel Hill Rd
    city: Durham
    state: nc
    zip: '27707'
  place: '3719000'
  geo:
    lat: 35.98923
    lng: -78.92444
  phone: 919-371-4705
  sources:
  - acf/head-start-locations
  verified:
    'on': '2026-07-19'
    method: api
- id: nc/durham/a-new-beginning-3
  name: A New Beginning 3
  categories:
  - child-care
  address:
    street: 3809 University Dr
    city: Durham
    state: nc
    zip: '27707'
  place: '3719000'
  geo:
    lat: 35.96619
    lng: -78.95222
  phone: 919-371-4705
  sources:
  - acf/head-start-locations
  verified:
    'on': '2026-07-19'
    method: api
- id: nc/durham/all-my-children
  name: All My Children
  categories:
  - child-care
  address:
    street: 2101 Angier Ave
    city: Durham
    state: nc
    zip: '27703'
  place: '3719000'
  geo:
    lat: 35.98235
    lng: -78.87737
  phone: 919-371-4705
  sources:
  - acf/head-start-locations
  verified:
    'on': '2026-07-19'
    method: api
- id: nc/durham/b-and-d-integrated-health-services
  name: B and D Integrated Health Services
  categories:
  - su-treatment
  address:
    street: 249 East NC Highway 54
    city: Durham
    state: nc
    zip: '27713'
  place: '3719000'
  geo:
    lat: 35.91077
    lng: -78.92946
  phone: 919-907-3334
  website: https://www.bdintegratedhealth.com/
  sources:
  - samhsa/findtreatment
  verified:
    'on': '2026-07-19'
    method: api
- id: nc/durham/b-and-d-integrated-health-services-corporate-off
  name: B and D Integrated Health Services Corporate Office
  categories:
  - su-treatment
  - mh-treatment
  address:
    street: 249 East NC Highway 54
    city: Durham
    state: nc
    zip: '27713'
  place: '3719000'
  geo:
    lat: 35.91077
    lng: -78.92946
  phone: 919-907-3334
  website: https://www.bdintegratedhealth.com/
  sources:
  - samhsa/findtreatment
  verified:
    'on': '2026-07-19'
    method: api
- id: nc/durham/baart-programs-durham
  name: BAART Programs Durham
  categories:
  - su-treatment
  address:
    street: 800 North Mangum Street
    city: Durham
    state: nc
    zip: '27701'
  place: '3719000'
  geo:
    lat: 36.00151
    lng: -78.89491
  phone: 919-683-1607 x4013
  website: https://baartprograms.com/locations/north-carolina/durham
  sources:
  - samhsa/findtreatment
  verified:
    'on': '2026-07-19'
    method: api
- id: nc/durham/bdihs-admin
  name: BDIHS Admin
  categories:
  - community-health-center
  address:
    street: 249 E NC Highway 54, Suite 320
    city: Durham
    state: nc
    zip: '27713'
  place: '3719000'
  geo:
    lat: 35.91081
    lng: -78.92942
  phone: 909-907-3334
  website: https://www.bdintegratedhealth.com
  external_ids:
    bphc: BPS-LAL-041490
  sources:
  - hrsa/health-center-sites
  verified:
    'on': '2026-07-19'
    method: api
- id: nc/durham/bdihs-durham
  name: BDIHS Durham
  categories:
  - community-health-center
  address:
    street: 249 E NC Highway 54, Unit 310
    city: Durham
    state: nc
    zip: '27713'
  place: '3719000'
  geo:
    lat: 35.9109
    lng: -78.92951
  phone: 919-907-3334
  external_ids:
    bphc: BPS-LAL-041973
  sources:
  - hrsa/health-center-sites
  verified:
    'on': '2026-07-19'
    method: api
- id: nc/durham/bdihs-durham-address-typo
  name: BDIHS Durham- Address Typo
  categories:
  - community-health-center
  address:
    street: 294 E NC Highway 54
    city: Durham
    state: nc
    zip: '27713'
  place: '3719000'
  geo:
    lat: 35.90921
    lng: -78.92965
  phone: 919-907-3334
  website: https://www.bdintegratedhealth.com
  external_ids:
    bphc: BPS-LAL-041485
  sources:
  - hrsa/health-center-sites
  verified:
    'on': '2026-07-19'
    method: api
- id: nc/durham/bicycle-health-telehealth
  name: Bicycle Health Telehealth
  categories:
  - su-treatment
  address:
    city: Durham
    state: nc
    zip: '27703'
  place: '3719000'
  phone: 844-943-2514
  website: https://bicyclehealth.com
  sources:
  - samhsa/findtreatment
  verified:
    'on': '2026-07-19'
    method: api
- id: nc/durham/bluestone-little-free-pantry
  name: Bluestone Little Free Pantry
  categories:
  - food-pantry
  place: '3719000'
  geo:
    lat: 35.91692
    lng: -78.90569
  external_ids:
    lfp: '4998'
  sources:
  - littlefreepantry/map
  verified:
    'on': '2026-07-19'
    method: scrape
- id: nc/durham/center-for-child-and-family-health
  name: Center for Child and Family Health
  categories:
  - child-care
  address:
    street: 1121 W Chapel Hill St
    city: Durham
    state: nc
    zip: '27701'
  place: '3719000'
  geo:
    lat: 35.99641
    lng: -78.91737
  phone: 919-439-7107
  sources:
  - acf/head-start-locations
  verified:
    'on': '2026-07-19'
    method: api
- id: nc/durham/christian-prep-academy
  name: Christian Prep Academy
  categories:
  - child-care
  address:
    street: 1405 NC 54 Durham
    city: Durham
    state: nc
    zip: '27713'
  place: '3719000'
  geo:
    lat: 35.90503
    lng: -78.9134
  phone: 919-416-1728
  sources:
  - acf/head-start-locations
  verified:
    'on': '2026-07-19'
    method: api
- id: nc/durham/christus-victor-lutheran-church-mini-food-pantry
  name: Christus Victor Lutheran Church Mini Food Pantry
  categories:
  - food-pantry
  place: '3719000'
  geo:
    lat: 35.90318
    lng: -78.90452
  external_ids:
    lfp: '4771'
  sources:
  - littlefreepantry/map
  verified:
    'on': '2026-07-19'
    method: scrape
- id: nc/durham/ctr-for-adol-and-young-adult-subst-use-duke-medi
  name: Ctr for Adol and Young Adult Subst Use Duke Medical Center (Psychiatry)
  categories:
  - su-treatment
  - mh-treatment
  address:
    street: 2608 Erwin Road
    city: Durham
    state: nc
    zip: '27705'
  place: '3719000'
  geo:
    lat: 36.00931
    lng: -78.94486
  phone: 919-681-2091
  website: https://duke.is/cast
  sources:
  - samhsa/findtreatment
  verified:
    'on': '2026-07-19'
    method: api
- id: nc/durham/dharma-counseling-services
  name: Dharma Counseling Services
  categories:
  - su-treatment
  - mh-treatment
  address:
    street: 3325 Chapel Hill Boulevard
    city: Durham
    state: nc
    zip: '27707'
  place: '3719000'
  geo:
    lat: 35.96704
    lng: -78.94423
  phone: 919-737-8996
  website: https://www.dharmacounselingservice.com
  sources:
  - samhsa/findtreatment
  verified:
    'on': '2026-07-19'
    method: api
- id: nc/durham/durham-county-justice-services-department
  name: Durham County Justice Services Department
  categories:
  - su-treatment
  address:
    street: 326 East Main Street
    city: Durham
    state: nc
    zip: '27701'
  place: '3719000'
  geo:
    lat: 35.99281
    lng: -78.89774
  phone: 919-560-0500
  website: https://www.dconc.gov/county-departments/departmen
  sources:
  - samhsa/findtreatment
  verified:
    'on': '2026-07-19'
    method: api
- id: nc/durham/durham-treatment-center-metro-treatment-of-north
  name: Durham Treatment Center Metro Treatment of North Carolina LP
  categories:
  - su-treatment
  address:
    street: 1913 Lamar Street
    city: Durham
    state: nc
    zip: '27705'
  place: '3719000'
  geo:
    lat: 36.02776
    lng: -78.92262
  phone: 919-286-1509 x28905
  website: https://www.newseason.com
  sources:
  - samhsa/findtreatment
  verified:
    'on': '2026-07-19'
    method: api
- id: nc/durham/eleanor-health
  name: Eleanor Health
  categories:
  - su-treatment
  - mh-treatment
  address:
    street: 2402 South Miami Bouelvard
    city: Durham
    state: nc
    zip: '27703'
  place: '3719000'
  geo:
    lat: 35.93592
    lng: -78.84354
  phone: 919-670-5545
  website: https://www.eleanorhealth.com
  sources:
  - samhsa/findtreatment
  verified:
    'on': '2026-07-19'
    method: api
- id: nc/durham/freedom-house-recovery-center-durham-outpatient
  name: Freedom House Recovery Center Durham Outpatient Clinic
  categories:
  - su-treatment
  - mh-treatment
  address:
    street: 400 Crutchfield Street
    city: Durham
    state: nc
    zip: '27704'
  place: '3719000'
  geo:
    lat: 36.03927
    lng: -78.90437
  phone: 919-251-8806
  website: https://www.freedomhouserecovery.org
  sources:
  - samhsa/findtreatment
  verified:
    'on': '2026-07-19'
    method: api
- id: nc/durham/freedom-house-recovery-center-mens-halfway-house
  name: Freedom House Recovery Center Mens Halfway House
  categories:
  - su-treatment
  address:
    city: Durham
    state: nc
    zip: '27707'
  place: '3719000'
  phone: 919-428-0695
  website: https://www.freedomhouserecovery.org
  sources:
  - samhsa/findtreatment
  verified:
    'on': '2026-07-19'
    method: api
- id: nc/durham/freedom-house-recovery-center-womens-halfway-hou
  name: Freedom House Recovery Center Womens Halfway House
  categories:
  - su-treatment
  address:
    city: Durham
    state: nc
    zip: '27703'
  place: '3719000'
  phone: 919-957-7386
  website: https://www.freedomhouserecovery.org
  sources:
  - samhsa/findtreatment
  verified:
    'on': '2026-07-19'
    method: api
- id: nc/durham/genesis-sa-dwi-mh-services
  name: Genesis SA/DWI/MH Services
  categories:
  - su-treatment
  address:
    street: 118 East Main Street
    city: Durham
    state: nc
    zip: '27701'
  place: '3719000'
  geo:
    lat: 35.99452
    lng: -78.9001
  phone: 919-321-6643
  website: https://genesisdwiservices.com
  sources:
  - samhsa/findtreatment
  verified:
    'on': '2026-07-19'
    method: api
- id: nc/durham/growing-legacy
  name: Growing Legacy
  categories:
  - child-care
  address:
    street: 2811 University Dr
    city: Durham
    state: nc
    zip: '27707'
  place: '3719000'
  geo:
    lat: 35.96945
    lng: -78.93393
  phone: 919-371-4705
  sources:
  - acf/head-start-locations
  verified:
    'on': '2026-07-19'
    method: api
- id: nc/durham/health-care-for-the-homeless
  name: HEALTH CARE FOR THE HOMELESS
  categories:
  - community-health-center
  address:
    street: 412 Liberty St
    city: Durham
    state: nc
    zip: '27701'
  place: '3719000'
  geo:
    lat: 35.99311
    lng: -78.89534
  phone: 919-808-5640
  website: https://www.lincolnchc.org
  external_ids:
    bphc: BPS-H80-001637
  sources:
  - hrsa/health-center-sites
  verified:
    'on': '2026-07-19'
    method: api
- id: nc/durham/holton-wellness-center
  name: Holton Wellness Center
  categories:
  - community-health-center
  address:
    street: 401 N Driver St
    city: Durham
    state: nc
    zip: '27703'
  place: '3719000'
  geo:
    lat: 35.98956
    lng: -78.8788
  phone: 919-530-8210
  website: https://www.lincolnchc.org
  external_ids:
    bphc: BPS-H80-008439
  sources:
  - hrsa/health-center-sites
  verified:
    'on': '2026-07-19'
    method: api
- id: nc/durham/john-h-lucas-sr-wellness-center
  name: John H. Lucas Sr Wellness Center
  categories:
  - community-health-center
  address:
    street: 3727 Fayetteville St
    city: Durham
    state: nc
    zip: '27707'
  place: '3719000'
  geo:
    lat: 35.95257
    lng: -78.90421
  phone: 919-956-4519
  website: https://lincolnchc.org
  external_ids:
    bphc: BPS-H80-001405
  sources:
  - hrsa/health-center-sites
  verified:
    'on': '2026-07-19'
    method: api
- id: nc/durham/lakewood
  name: Lakewood
  categories:
  - community-health-center
  address:
    street: 2020 Chapel Hill Rd STE 28
    city: Durham
    state: nc
    zip: '27707'
  place: '3719000'
  geo:
    lat: 35.98921
    lng: -78.92789
  phone: 919-813-4471
  website: https://www.lincolnchc.org
  external_ids:
    bphc: BPS-H80-034814
  sources:
  - hrsa/health-center-sites
  verified:
    'on': '2026-07-19'
    method: api
- id: nc/durham/leathers-meachem-head-start
  name: Leathers Meachem Head Start
  categories:
  - child-care
  address:
    street: 908 Liberty St
    city: Durham
    state: nc
    zip: '27701'
  place: '3719000'
  geo:
    lat: 35.99272
    lng: -78.88566
  phone: 919-536-5560
  sources:
  - acf/head-start-locations
  verified:
    'on': '2026-07-19'
    method: api
- id: nc/durham/lincoln-chc-durham-county-human-services
  name: Lincoln CHC -Durham County Human Services
  categories:
  - community-health-center
  address:
    street: 414 E Main St
    city: Durham
    state: nc
    zip: '27701'
  place: '3719000'
  geo:
    lat: 35.99204
    lng: -78.89647
  phone: 919-560-7726
  website: https://www.lincolnchc.org
  external_ids:
    bphc: BPS-H80-001501
  sources:
  - hrsa/health-center-sites
  verified:
    'on': '2026-07-19'
    method: api
- id: nc/durham/lincoln-community-health-center-inc
  name: Lincoln Community Health Center, Inc.
  categories:
  - community-health-center
  address:
    street: 1301 Fayetteville St
    city: Durham
    state: nc
    zip: '27707'
  place: '3719000'
  geo:
    lat: 35.98057
    lng: -78.8977
  phone: 919-956-4000
  website: https://www.lincolnchc.org
  external_ids:
    bphc: BPS-H80-001845
  sources:
  - hrsa/health-center-sites
  verified:
    'on': '2026-07-19'
    method: api
- id: nc/durham/little-free-paper-pantry
  name: Little Free Paper Pantry
  categories:
  - food-pantry
  place: '3719000'
  geo:
    lat: 35.93294
    lng: -78.77371
  external_ids:
    lfp: '3448'
  sources:
  - littlefreepantry/map
  verified:
    'on': '2026-07-19'
    method: scrape
- id: nc/durham/lyon-park-clinic
  name: LYON PARK CLINIC
  categories:
  - community-health-center
  address:
    street: 1313 Halley St
    city: Durham
    state: nc
    zip: '27707'
  place: '3719000'
  geo:
    lat: 35.98926
    lng: -78.91989
  phone: 919-536-4205
  website: https://www.lincolnchc.org
  external_ids:
    bphc: BPS-H80-000437
  sources:
  - hrsa/health-center-sites
  verified:
    'on': '2026-07-19'
    method: api
- id: nc/durham/lyon-park-head-start
  name: Lyon Park Head Start
  categories:
  - child-care
  address:
    street: 1309 Halley St
    city: Durham
    state: nc
    zip: '27707'
  place: '3719000'
  geo:
    lat: 35.98909
    lng: -78.9197
  phone: 984-888-0022
  sources:
  - acf/head-start-locations
  verified:
    'on': '2026-07-19'
    method: api
- id: nc/durham/mcdougald-terrace-head-start
  name: McDougald Terrace Head Start
  categories:
  - child-care
  address:
    street: 1101 E Lawson St
    city: Durham
    state: nc
    zip: '27701'
  place: '3719000'
  geo:
    lat: 35.97467
    lng: -78.89042
  phone: 919-598-1919
  sources:
  - acf/head-start-locations
  verified:
    'on': '2026-07-19'
    method: api
- id: nc/durham/morse-clinic-of-durham-pc
  name: Morse Clinic Of Durham PC
  categories:
  - su-treatment
  - mh-treatment
  address:
    street: 4119 Capitol Street
    city: Durham
    state: nc
    zip: '27704'
  place: '3719000'
  geo:
    lat: 36.04832
    lng: -78.89834
  phone: 919-294-8621
  website: https://www.morseclinics.com/locations/morse-clinic-durham
  sources:
  - samhsa/findtreatment
  verified:
    'on': '2026-07-19'
    method: api
- id: nc/durham/mt-olive-ame-zion-church
  name: Mt Olive AME Zion Church
  categories:
  - food-pantry
  place: '3719000'
  geo:
    lat: 36.01679
    lng: -78.91638
  external_ids:
    lfp: '3568'
  sources:
  - littlefreepantry/map
  verified:
    'on': '2026-07-19'
    method: scrape
- id: nc/durham/oxford-manor-head-start
  name: Oxford Manor Head Start
  categories:
  - child-care
  address:
    street: 3633 Keystone Pl
    city: Durham
    state: nc
    zip: '27704'
  place: '3719000'
  geo:
    lat: 36.04039
    lng: -78.88577
  phone: 919-220-5605
  sources:
  - acf/head-start-locations
  verified:
    'on': '2026-07-19'
    method: api
- id: nc/durham/pathways-to-life-inc
  name: Pathways to Life Inc
  categories:
  - su-treatment
  - mh-treatment
  address:
    street: 2310 South Miami Boulevard
    city: Durham
    state: nc
    zip: '27703'
  place: '3719000'
  geo:
    lat: 35.93701
    lng: -78.84266
  phone: 252-695-0269
  website: https://www.pwstolife.com
  sources:
  - samhsa/findtreatment
  verified:
    'on': '2026-07-19'
    method: api
- id: nc/durham/pride-of-alma-library-pantry
  name: Pride of Alma Library & Pantry
  categories:
  - food-pantry
  place: '3719000'
  geo:
    lat: 35.99659
    lng: -78.87588
  external_ids:
    lfp: '2649'
  sources:
  - littlefreepantry/map
  verified:
    'on': '2026-07-19'
    method: scrape
- id: nc/durham/randy-s-5-star-academy
  name: Randy?s 5 Star Academy
  categories:
  - child-care
  address:
    street: 1020 S Miami Blvd
    city: Durham
    state: nc
    zip: '27703'
  place: '3719000'
  geo:
    lat: 35.9637
    lng: -78.84774
  phone: 919-371-4705
  sources:
  - acf/head-start-locations
  verified:
    'on': '2026-07-19'
    method: api
- id: nc/durham/rapha-healthcare-services
  name: RAPHA Healthcare Services
  categories:
  - su-treatment
  - mh-treatment
  address:
    street: 4411 Ben Franklin Boulevard
    city: Durham
    state: nc
    zip: '27704'
  place: '3719000'
  geo:
    lat: 36.04806
    lng: -78.89147
  phone: 919-471-5474
  website: https://raphahealthcare.us/
  sources:
  - samhsa/findtreatment
  verified:
    'on': '2026-07-19'
    method: api
- id: nc/durham/reliable-health-services
  name: Reliable Health Services
  categories:
  - su-treatment
  - mh-treatment
  address:
    street: 4819 Emperor Boulevard
    city: Durham
    state: nc
    zip: '27703'
  place: '3719000'
  geo:
    lat: 35.88046
    lng: -78.84198
  phone: 919-596-9479 x1
  website: https://reliablehealthservices.com
  sources:
  - samhsa/findtreatment
  verified:
    'on': '2026-07-19'
    method: api
- id: nc/durham/richard-kuehn-and-associates
  name: Richard Kuehn and Associates
  categories:
  - su-treatment
  address:
    street: 3215 Guess Road
    city: Durham
    state: nc
    zip: '27705'
  place: '3719000'
  geo:
    lat: 36.03684
    lng: -78.92986
  phone: 919-477-8291
  website: https://
  sources:
  - samhsa/findtreatment
  verified:
    'on': '2026-07-19'
    method: api
- id: nc/durham/seminary-main-site
  name: Seminary /Main Site
  categories:
  - child-care
  address:
    street: 215 W Seminary St
    city: Durham
    state: nc
    zip: '27701'
  place: '3719000'
  geo:
    lat: 35.99885
    lng: -78.9003
  phone: 919-688-5541
  sources:
  - acf/head-start-locations
  verified:
    'on': '2026-07-19'
    method: api
- id: nc/durham/the-housing-authority-of-the-city-of-durham
  name: The Housing Authority Of The City Of Durham
  categories:
  - housing-assistance
  address: {street: 423 Morris St, city: Durham, state: nc, zip: '27701'}
  description: Public housing and Housing Choice Voucher agency
  place: '3719000'
  geo: {lat: 36.00148, lng: -78.9037}
  phone: 919-683-1551
  sources:
  - hud/resource-locator
  verified: {'on': '2026-07-19', method: api}
- id: nc/durham/toddlers-academy
  name: Toddlers Academy
  categories:
  - child-care
  address:
    street: 2811 Beechwood Dr
    city: Durham
    state: nc
    zip: '27707'
  place: '3719000'
  geo:
    lat: 35.95995
    lng: -78.91538
  phone: 919-371-4705
  sources:
  - acf/head-start-locations
  verified:
    'on': '2026-07-19'
    method: api
- id: nc/durham/triangle-residential-options-for-substance-abuse
  name: Triangle Residential Options for Substance Abusers Inc (TROSA)
  categories:
  - su-treatment
  address:
    street: 1820 James Street
    city: Durham
    state: nc
    zip: '27707'
  place: '3719000'
  geo:
    lat: 35.97863
    lng: -78.92733
  phone: 919-419-1059
  website: https://www.trosainc.org
  sources:
  - samhsa/findtreatment
  verified:
    'on': '2026-07-19'
    method: api
- id: nc/durham/walltown-clinic
  name: WALLTOWN CLINIC
  categories:
  - community-health-center
  address:
    street: 815 Broad St
    city: Durham
    state: nc
    zip: '27705'
  place: '3719000'
  geo:
    lat: 36.01106
    lng: -78.91989
  phone: 919-416-1254
  website: https://lincolnchc.org
  external_ids:
    bphc: BPS-H80-002600
  sources:
  - hrsa/health-center-sites
  verified:
    'on': '2026-07-19'
    method: api
- id: nc/durham/youth-extensions-inc
  name: Youth Extensions Inc
  categories:
  - su-treatment
  - mh-treatment
  address:
    street: 1915 Chapel Hill Road
    city: Durham
    state: nc
    zip: '27707'
  place: '3719000'
  geo:
    lat: 35.98821
    lng: -78.92507
  phone: 919-246-5664
  website: https://www.youthextensionsinc.com
  sources:
  - samhsa/findtreatment
  verified:
    'on': '2026-07-19'
    method: api
