- id: nc/eden/douglass-head-start
  name: Douglass Head Start
  categories:
  - child-care
  address:
    street: 408 Price St
    city: Eden
    state: nc
    zip: '27288'
  place: '3720080'
  geo:
    lat: 36.49339
    lng: -79.78003
  phone: 336-548-4780
  sources:
  - acf/head-start-locations
  verified:
    'on': '2026-07-19'
    method: api
- id: nc/eden/draper-head-start
  name: Draper Head Start
  categories:
  - child-care
  address:
    street: 1719 E Stadium Dr
    city: Eden
    state: nc
    zip: '27288'
  place: '3720080'
  geo:
    lat: 36.51696
    lng: -79.6897
  phone: 336-548-4780
  sources:
  - acf/head-start-locations
  verified:
    'on': '2026-07-19'
    method: api
- id: nc/eden/james-austin-health-center
  name: James Austin Health Center
  categories:
  - community-health-center
  address:
    street: 250 West Kings Highway
    city: Eden
    state: nc
    zip: '27288'
  place: '3720080'
  geo:
    lat: 36.49211
    lng: -79.74644
  phone: 336-864-2795
  website: https://compassionhealthcare.org/james-austin-health-center/
  external_ids:
    bphc: BPS-H80-036736
  sources:
  - hrsa/health-center-sites
  verified:
    'on': '2026-07-19'
    method: api
- id: nc/eden/life-changes-counseling-life-changes-dwi-center
  name: Life Changes Counseling Life Changes DWI Center
  categories:
  - su-treatment
  address:
    street: 370 West Meadow Road
    city: Eden
    state: nc
    zip: '27288'
  place: '3720080'
  geo:
    lat: 36.50348
    lng: -79.7567
  phone: 336-623-8584
  website: https://www.lifechangeseap.com
  sources:
  - samhsa/findtreatment
  verified:
    'on': '2026-07-19'
    method: api
- id: nc/eden/rhode-island-mill-early-head-start
  name: Rhode Island Mill Early Head Start
  categories:
  - child-care
  address:
    street: 540 Riverside Dr
    street2: Ste A
    city: Eden
    state: nc
    zip: '27288'
  place: '3720080'
  geo:
    lat: 36.5143
    lng: -79.75304
  sources:
  - acf/head-start-locations
  verified:
    'on': '2026-07-19'
    method: api
