- id: nc/edenton/chowan-early-head-start
  name: Chowan Early Head Start
  categories:
  - child-care
  address:
    street: 423 Sandy Ridge Rd
    city: Edenton
    state: nc
    zip: '27932'
  place: '3720120'
  geo:
    lat: 36.1813
    lng: -76.63735
  phone: 252-482-8230
  sources:
  - acf/head-start-locations
  verified:
    'on': '2026-07-19'
    method: api
- id: nc/edenton/chowan-head-start-center
  name: Chowan Head Start Center
  categories:
  - child-care
  address:
    street: 760 Virginia Rd
    city: Edenton
    state: nc
    zip: '27932'
  place: '3720120'
  geo:
    lat: 36.09223
    lng: -76.62833
  phone: 252-482-8230
  sources:
  - acf/head-start-locations
  verified:
    'on': '2026-07-19'
    method: api
- id: nc/edenton/economic-improvement-council-inc
  name: Economic Improvement Council, Inc.
  categories:
  - housing-assistance
  address:
    street: 712 Virginia Rd
    city: Edenton
    state: nc
    zip: '27932'
  description: Housing Choice Voucher (Section 8) agency
  place: '3720120'
  geo:
    lat: 36.0861
    lng: -76.62964
  phone: 252-482-4458
  sources:
  - hud/resource-locator
  verified:
    'on': '2026-07-19'
    method: api
- id: nc/edenton/john-a-holmes-high
  name: John A Holmes High
  categories:
  - meal-program
  address:
    street: 701 N. Oakum Street
    city: Edenton
    state: nc
    zip: '27932'
  description: Free summer meals for kids and teens (2026 season) — sponsored by Edenton/Chowan Schools.
  place: '3720120'
  geo:
    lat: 36.06634
    lng: -76.60241
  phone: (252) 482-8426
  external_ids:
    usda_master: Cycle 06_NC_SSO_0021
  sources:
  - usda/summer-meal-sites
  verified:
    'on': '2026-07-19'
    method: api
- id: nc/edenton/the-new-edenton-housing-authority
  name: The New Edenton Housing Authority
  categories:
  - housing-assistance
  address:
    street: 115 Blades St
    city: Edenton
    state: nc
    zip: '27932'
  description: Public housing (Low-Rent) agency
  place: '3720120'
  geo:
    lat: 36.06949
    lng: -76.60094
  phone: 252-482-8164
  sources:
  - hud/resource-locator
  verified:
    'on': '2026-07-19'
    method: api
