- id: nc/franklin/blue-ridge-health-meridian-macon
  name: Blue Ridge Health-Meridian Macon
  categories:
  - community-health-center
  address:
    street: 674 Highlands Road
    city: Franklin
    state: nc
    zip: '28734'
  place: '3724640'
  geo:
    lat: 35.17764
    lng: -83.36742
  phone: 828-349-0001
  external_ids:
    bphc: BPS-H80-033394
  sources:
  - hrsa/health-center-sites
  verified:
    'on': '2026-07-19'
    method: api
- id: nc/franklin/hazelwood-healthcare-pllc
  name: Hazelwood Healthcare PLLC
  categories:
  - su-treatment
  address:
    street: 3271 Georgia Road
    city: Franklin
    state: nc
    zip: '28734'
  place: '3724640'
  geo:
    lat: 35.12976
    lng: -83.3964
  phone: 828-595-9000
  website: https://hazelwoodhealthcare.org/
  sources:
  - samhsa/findtreatment
  verified:
    'on': '2026-07-19'
    method: api
- id: nc/franklin/mahec-ob-gyn-specialists-franklin
  name: MAHEC OB/GYN Specialists Franklin
  categories:
  - community-health-center
  address:
    street: 56 Medical Park Dr STE 300
    city: Franklin
    state: nc
    zip: '28734'
  place: '3724640'
  geo:
    lat: 35.18326
    lng: -83.37798
  phone: 828-634-4565
  external_ids:
    bphc: BPS-LAL-038107
  sources:
  - hrsa/health-center-sites
  verified:
    'on': '2026-07-19'
    method: api
- id: nc/franklin/new-horizon-ii
  name: New Horizon II
  categories:
  - child-care
  address:
    street: 82 E Orchard View Ln
    city: Franklin
    state: nc
    zip: '28734'
  place: '3724640'
  geo:
    lat: 35.16571
    lng: -83.40184
  phone: 828-524-4471
  sources:
  - acf/head-start-locations
  verified:
    'on': '2026-07-19'
    method: api
- id: nc/franklin/new-horizons-i
  name: NEW HORIZONS I
  categories:
  - child-care
  address:
    street: 26 East Orchard View Lane
    city: Franklin
    state: nc
    zip: '28734'
  place: '3724640'
  geo:
    lat: 35.16571
    lng: -83.40229
  phone: 828-524-4471
  sources:
  - acf/head-start-locations
  verified:
    'on': '2026-07-19'
    method: api
- id: nc/franklin/new-horizons-iii
  name: New Horizons III
  categories:
  - child-care
  address:
    street: 110 East Orchard View Lane
    city: Franklin
    state: nc
    zip: '28734'
  place: '3724640'
  geo:
    lat: 35.16576
    lng: -83.40118
  phone: 828-524-4471
  sources:
  - acf/head-start-locations
  verified:
    'on': '2026-07-19'
    method: api
- id: nc/franklin/vecinos-health-hub
  name: Vecinos Health Hub
  categories:
  - community-health-center
  address:
    street: 19 Smoky Mountain Dr
    city: Franklin
    state: nc
    zip: '28734'
  place: '3724640'
  geo:
    lat: 35.19831
    lng: -83.36059
  phone: 828-293-2274
  external_ids:
    bphc: BPS-H80-040998
  sources:
  - hrsa/health-center-sites
  verified:
    'on': '2026-07-19'
    method: api
