- id: nc/goldsboro/antioch-child-care-academy
  name: Antioch Child Care Academy
  categories:
  - child-care
  address:
    street: 601 W Elm St
    city: Goldsboro
    state: nc
    zip: '27530'
  place: '3726880'
  geo:
    lat: 35.3793
    lng: -78.00832
  phone: 919-734-0156
  sources:
  - acf/head-start-locations
  verified:
    'on': '2026-07-19'
    method: api
- id: nc/goldsboro/b-and-d-integrated-health-services-dba-one-to-on
  name: B and D Integrated Health Services DBA One to One
  categories:
  - su-treatment
  - mh-treatment
  address:
    street: 2815 Carolina Commerce Drive
    city: Goldsboro
    state: nc
    zip: '27530'
  place: '3726880'
  geo:
    lat: 35.42256
    lng: -77.98285
  phone: 919-731-2119
  website: https://
  sources:
  - samhsa/findtreatment
  verified:
    'on': '2026-07-19'
    method: api
- id: nc/goldsboro/b-and-d-integrated-health-servs-east-dba-one-to
  name: B and D Integrated Health Servs East DBA One to One
  categories:
  - su-treatment
  - mh-treatment
  address:
    street: 307 Beech Street
    city: Goldsboro
    state: nc
    zip: '27530'
  place: '3726880'
  geo:
    lat: 35.38867
    lng: -77.9899
  phone: 919-731-2119
  website: https://bdintegratedhealth.com
  sources:
  - samhsa/findtreatment
  verified:
    'on': '2026-07-19'
    method: api
- id: nc/goldsboro/belfast-head-start-early-head-start
  name: Belfast Head Start/Early Head Start
  categories:
  - child-care
  address:
    street: 3100 US Highway 117 N
    city: Goldsboro
    state: nc
    zip: '27530'
  place: '3726880'
  geo:
    lat: 35.4315
    lng: -77.98019
  phone: 919-288-1072
  sources:
  - acf/head-start-locations
  verified:
    'on': '2026-07-19'
    method: api
- id: nc/goldsboro/bryan-sutton-child-development-center-head-start
  name: Bryan Sutton Child Development Center Head Start/Early Head Start
  categories:
  - child-care
  address:
    street: 507 Royall Ave
    city: Goldsboro
    state: nc
    zip: '27534'
  place: '3726880'
  geo:
    lat: 35.39141
    lng: -77.98506
  phone: 919-734-6411
  sources:
  - acf/head-start-locations
  verified:
    'on': '2026-07-19'
    method: api
- id: nc/goldsboro/chestnut-street-head-start-early-head-start
  name: Chestnut Street Head Start/Early Head Start
  categories:
  - child-care
  address:
    street: 505 E Chestnut St
    city: Goldsboro
    state: nc
    zip: '27530'
  place: '3726880'
  geo:
    lat: 35.37975
    lng: -77.99063
  phone: 919-736-4102
  sources:
  - acf/head-start-locations
  verified:
    'on': '2026-07-19'
    method: api
- id: nc/goldsboro/eastern-carolina-regional-housing-authority
  name: Eastern Carolina Regional Housing Authority
  categories:
  - housing-assistance
  address:
    street: 2120 S Slocumb St
    city: Goldsboro
    state: nc
    zip: '27530'
  description: Public housing (Low-Rent) agency
  place: '3726880'
  geo:
    lat: 35.35131
    lng: -77.98396
  phone: 919-735-0435
  sources:
  - hud/resource-locator
  verified:
    'on': '2026-07-19'
    method: api
- id: nc/goldsboro/eastern-wayne-elementary
  name: Eastern Wayne Elementary
  categories:
  - child-care
  address:
    street: 1271 E New Hope Rd
    city: Goldsboro
    state: nc
    zip: '27534'
  place: '3726880'
  geo:
    lat: 35.37288
    lng: -77.87495
  phone: 919-751-7130
  sources:
  - acf/head-start-locations
  verified:
    'on': '2026-07-19'
    method: api
- id: nc/goldsboro/fairview-community-center
  name: Fairview Community Center
  categories:
  - child-care
  address:
    street: 1906 Edgerton St
    city: Goldsboro
    state: nc
    zip: '27530'
  place: '3726880'
  geo:
    lat: 35.38446
    lng: -77.96393
  phone: 919-947-0410
  sources:
  - acf/head-start-locations
  verified:
    'on': '2026-07-19'
    method: api
- id: nc/goldsboro/goldsboro-comprehensive-treatment-ctr-ats-of-nor
  name: Goldsboro Comprehensive Treatment Ctr ATS of North Carolina LLC
  categories:
  - su-treatment
  address:
    street: 2611 North Hospital Road
    city: Goldsboro
    state: nc
    zip: '27534'
  place: '3726880'
  geo:
    lat: 35.40383
    lng: -77.95473
  phone: 919-583-9329
  website: https://www.ctcprograms.com/location/goldsboro-comprehensi
  sources:
  - samhsa/findtreatment
  verified:
    'on': '2026-07-19'
    method: api
- id: nc/goldsboro/goldsboro-va-clinic
  name: Goldsboro VA Clinic
  categories: &id001
  - va-facility
  - health
  description: Primary Care CBOC
  address: {street: 2610 Hospital Road, city: Goldsboro, state: nc, zip: '27534'}
  place: '3726880'
  geo: {lat: 35.40376, lng: -77.95395}
  phone: 919-731-4809
  website: https://www.va.gov/fayetteville-coastal-health-care/locations/goldsboro-va-clinic/
  hours:
  - {days: [mon, tue, wed, thu, fri], open: '08:00', close: '16:30'}
  services:
  - Audiology and speech
  - COVID-19 vaccines
  - Dermatology
  - Laboratory and pathology
  - Mental health care
  - Ophthalmology
  - Optometry
  - Primary care
  - Smoking and tobacco cessation
  - Telehealth
  - Women Veteran care
  external_ids: {va: vha_565GF}
  sources:
  - va/facilities-api
  verified: {'on': '2026-07-19', method: api}
- id: nc/goldsboro/goshen-medical-center-goldsboro
  name: GOSHEN MEDICAL CENTER - GOLDSBORO
  categories:
  - community-health-center
  address:
    street: 2701 Medical Office Pl
    city: Goldsboro
    state: nc
    zip: '27534'
  place: '3726880'
  geo:
    lat: 35.40198
    lng: -77.95343
  phone: 919-739-8680
  website: https://www.goshenmedical.org
  external_ids:
    bphc: BPS-H80-002088
  sources:
  - hrsa/health-center-sites
  verified:
    'on': '2026-07-19'
    method: api
- id: nc/goldsboro/goshen-medical-center-rosewood
  name: GOSHEN MEDICAL CENTER - ROSEWOOD
  categories:
  - community-health-center
  address:
    street: 104 Adair Dr APT A
    city: Goldsboro
    state: nc
    zip: '27530'
  place: '3726880'
  geo:
    lat: 35.42495
    lng: -78.06165
  phone: 919-648-4435
  website: https://www.goshenmedical.org
  external_ids:
    bphc: BPS-H80-011361
  sources:
  - hrsa/health-center-sites
  verified:
    'on': '2026-07-19'
    method: api
- id: nc/goldsboro/goshen-medical-center-rosewood-dental-services
  name: GOSHEN MEDICAL CENTER - ROSEWOOD DENTAL SERVICES
  categories:
  - community-health-center
  address:
    street: 104C Adair Dr
    city: Goldsboro
    state: nc
    zip: '27530'
  place: '3726880'
  geo:
    lat: 35.42446
    lng: -78.06206
  phone: 919-648-4437
  external_ids:
    bphc: BPS-H80-028297
  sources:
  - hrsa/health-center-sites
  verified:
    'on': '2026-07-19'
    method: api
- id: nc/goldsboro/goshen-medical-center-rosewood-wellness
  name: GOSHEN MEDICAL CENTER - ROSEWOOD WELLNESS
  categories:
  - community-health-center
  address:
    street: 104B Adair Dr
    city: Goldsboro
    state: nc
    zip: '27530'
  place: '3726880'
  geo:
    lat: 35.42446
    lng: -78.06206
  phone: 919-648-4436
  website: https://www.goshenmedical.org
  external_ids:
    bphc: BPS-H80-028298
  sources:
  - hrsa/health-center-sites
  verified:
    'on': '2026-07-19'
    method: api
- id: nc/goldsboro/herman-street-early-head-start
  name: Herman Street Early Head Start
  categories:
  - child-care
  address:
    street: 801 N Herman St
    city: Goldsboro
    state: nc
    zip: '27530'
  place: '3726880'
  geo:
    lat: 35.3872
    lng: -77.98078
  phone: 919-736-4577
  sources:
  - acf/head-start-locations
  verified:
    'on': '2026-07-19'
    method: api
- id: nc/goldsboro/housing-authority-of-the-city-of-goldsboro
  name: Housing Authority Of The City Of Goldsboro
  categories:
  - housing-assistance
  address:
    street: 700 N Jefferson Ave
    city: Goldsboro
    state: nc
    zip: '27530'
  description: Public housing and Housing Choice Voucher agency
  place: '3726880'
  geo:
    lat: 35.38303
    lng: -77.97105
  phone: 919-735-4226
  sources:
  - hud/resource-locator
  verified:
    'on': '2026-07-19'
    method: api
- id: nc/goldsboro/integrated-care-of-greater-hickory-icgh-goldsbor
  name: Integrated Care of Greater Hickory ICGH Goldsboro
  categories:
  - su-treatment
  - mh-treatment
  address:
    street: 214 South William Street
    city: Goldsboro
    state: nc
    zip: '27530'
  place: '3726880'
  geo:
    lat: 35.37957
    lng: -77.99443
  phone: 828-322-5915 x130
  website: https://www.integratedcarehickory.com/
  sources:
  - samhsa/findtreatment
  verified:
    'on': '2026-07-19'
    method: api
- id: nc/goldsboro/johnson-air-force-base-va-clinic
  name: Johnson Air Force Base VA Clinic
  categories: *id001
  description: Other Outpatient Services (OOS)
  address: {street: '1055 Jabara Avenue, Building 2803', city: Goldsboro, state: nc, zip: '27531'}
  place: '3726880'
  geo: {lat: 35.3607, lng: -77.96116}
  phone: 919-722-1933
  website: https://www.va.gov/fayetteville-coastal-health-care/locations/johnson-air-force-base-va-clinic/
  hours:
  - {days: [mon, tue, wed, thu, fri], open: '08:00', close: '16:30'}
  services:
  - Dental/oral surgery
  external_ids: {va: vha_565GO}
  sources:
  - va/facilities-api
  verified: {'on': '2026-07-19', method: api}
- id: nc/goldsboro/joyful-play-two
  name: Joyful Play Two
  categories:
  - child-care
  address:
    street: 2806 E Ash St
    city: Goldsboro
    state: nc
    zip: '27534'
  place: '3726880'
  geo:
    lat: 35.36877
    lng: -77.95015
  phone: 919-778-0019
  sources:
  - acf/head-start-locations
  verified:
    'on': '2026-07-19'
    method: api
- id: nc/goldsboro/royall-avenue-head-start-early-head-start
  name: Royall Avenue Head Start/Early Head Start
  categories:
  - child-care
  address:
    street: 601 Royall Ave
    city: Goldsboro
    state: nc
    zip: '27534'
  place: '3726880'
  geo:
    lat: 35.39201
    lng: -77.98322
  phone: 919-731-9999
  sources:
  - acf/head-start-locations
  verified:
    'on': '2026-07-19'
    method: api
- id: nc/goldsboro/simmons-early-intervention-therapy
  name: Simmons Early Intervention Therapy
  categories:
  - su-treatment
  - mh-treatment
  address:
    street: 611 South George Street
    city: Goldsboro
    state: nc
    zip: '27530'
  place: '3726880'
  geo:
    lat: 35.37781
    lng: -78.00362
  phone: 919-330-4802
  website: https://www.simmonseitherapy.com
  sources:
  - samhsa/findtreatment
  verified:
    'on': '2026-07-19'
    method: api
- id: nc/goldsboro/trinity-child-care-center
  name: Trinity Child Care Center
  categories:
  - child-care
  address:
    street: 111 Lee Dr
    city: Goldsboro
    state: nc
    zip: '27534'
  place: '3726880'
  geo:
    lat: 35.37136
    lng: -77.95593
  phone: 919-735-1265
  sources:
  - acf/head-start-locations
  verified:
    'on': '2026-07-19'
    method: api
- id: nc/goldsboro/wages-buck-swamp-center
  name: WAGES Buck Swamp Center
  categories:
  - child-care
  address:
    street: 445 Buck Swamp Rd
    city: Goldsboro
    state: nc
    zip: '27530'
  place: '3726880'
  geo:
    lat: 35.44343
    lng: -78.00782
  phone: 919-735-2387
  sources:
  - acf/head-start-locations
  verified:
    'on': '2026-07-19'
    method: api
- id: nc/goldsboro/waynesboro-family-clinic
  name: Waynesboro Family Clinic
  categories:
  - su-treatment
  - mh-treatment
  address:
    street: 1706 Wayne Memorial Drive
    city: Goldsboro
    state: nc
    zip: '27534'
  place: '3726880'
  geo:
    lat: 35.39388
    lng: -77.97202
  phone: 919-734-6676
  website: https://waynesborofamilyclinic.com
  sources:
  - samhsa/findtreatment
  verified:
    'on': '2026-07-19'
    method: api
