- id: nc/greenville/carolina-assessment-and-treatment-services-llc
  name: Carolina Assessment and Treatment Services LLC
  categories:
  - su-treatment
  address:
    street: 222 Cotanche Street
    city: Greenville
    state: nc
    zip: '27858'
  place: '3728080'
  geo:
    lat: 35.61327
    lng: -77.37176
  phone: 252-814-5441
  website: https://
  sources:
  - samhsa/findtreatment
  verified:
    'on': '2026-07-19'
    method: api
- id: nc/greenville/choices-sa-mh-inc
  name: Choices SA/MH Inc
  categories:
  - su-treatment
  - mh-treatment
  address:
    street: 601 Country Club Drive
    city: Greenville
    state: nc
    zip: '27834'
  place: '3728080'
  geo:
    lat: 35.57885
    lng: -77.39476
  phone: 252-439-1886
  website: https://bhchoicesss-mhinc.org
  sources:
  - samhsa/findtreatment
  verified:
    'on': '2026-07-19'
    method: api
- id: nc/greenville/contentnea-health-bernstein
  name: Contentnea Health Bernstein
  categories:
  - community-health-center
  address:
    street: 261 Belvoir Rd
    city: Greenville
    state: nc
    zip: '27834'
  place: '3728080'
  geo:
    lat: 35.63709
    lng: -77.36612
  phone: 252-695-6352
  website: https://www.greenecountyhealthcare.com
  external_ids:
    bphc: BPS-H80-002082
  sources:
  - hrsa/health-center-sites
  verified:
    'on': '2026-07-19'
    method: api
- id: nc/greenville/contentnea-health-diabetology
  name: Contentnea Health Diabetology
  categories:
  - community-health-center
  address:
    street: '2609 West Arlington Blvd, #106'
    city: Greenville
    state: nc
    zip: '27834'
  place: '3728080'
  geo:
    lat: 35.61716
    lng: -77.40823
  phone: 252-747-8162
  external_ids:
    bphc: BPS-H80-039467
  sources:
  - hrsa/health-center-sites
  verified:
    'on': '2026-07-19'
    method: api
- id: nc/greenville/contentnea-health-jh-rose
  name: Contentnea Health JH Rose
  categories:
  - community-health-center
  address:
    street: 600 West Arlington Blvd
    city: Greenville
    state: nc
    zip: '27834'
  place: '3728080'
  geo:
    lat: 35.59198
    lng: -77.3857
  phone: 252-747-8162
  website: https://contentnea.org
  external_ids:
    bphc: BPS-H80-039222
  sources:
  - hrsa/health-center-sites
  verified:
    'on': '2026-07-19'
    method: api
- id: nc/greenville/durham-va-healthcare-system-greenville-healthcar
  name: Durham VA Healthcare System Greenville Healthcare Center
  categories:
  - su-treatment
  - mh-treatment
  address:
    street: 401 Moye Boulevard
    city: Greenville
    state: nc
    zip: '27834'
  place: '3728080'
  geo:
    lat: 35.61706
    lng: -77.39973
  phone: 252-916-2090 x17693
  website: https://www.va.gov
  sources:
  - samhsa/findtreatment
  verified:
    'on': '2026-07-19'
    method: api
- id: nc/greenville/eastern-physical-medicine-and-rehabilitation-pll
  name: Eastern Physical Medicine and Rehabilitation PLLC
  categories:
  - su-treatment
  address:
    street: 2245 Stantonsburg Road
    city: Greenville
    state: nc
    zip: '27834'
  place: '3728080'
  geo:
    lat: 35.60494
    lng: -77.40446
  phone: 252-215-9294
  website: https://
  sources:
  - samhsa/findtreatment
  verified:
    'on': '2026-07-19'
    method: api
- id: nc/greenville/easterseals-greenville-otp
  name: Easterseals Greenville OTP
  categories:
  - su-treatment
  - mh-treatment
  address:
    street: 2602 Courtier Drive
    city: Greenville
    state: nc
    zip: '27834'
  place: '3728080'
  geo:
    lat: 35.61887
    lng: -77.41011
  phone: 252-353-5346
  website: https://eastersealsport.com
  sources:
  - samhsa/findtreatment
  verified:
    'on': '2026-07-19'
    method: api
- id: nc/greenville/easterseals-port-health-port-program
  name: Easterseals PORT Health PORT Program
  categories:
  - su-treatment
  address:
    street: 116 Health Drive
    city: Greenville
    state: nc
    zip: '27834'
  place: '3728080'
  geo:
    lat: 35.63981
    lng: -77.36464
  phone: 252-413-1950
  website: https://eastersealsport.com/teen-residential/
  sources:
  - samhsa/findtreatment
  verified:
    'on': '2026-07-19'
    method: api
- id: nc/greenville/easterseals-port-health-services-greenville-clin
  name: Easterseals PORT Health Services Greenville Clinic
  categories:
  - su-treatment
  - mh-treatment
  address:
    street: 2602 Courtier Drive
    city: Greenville
    state: nc
    zip: '27834'
  place: '3728080'
  geo:
    lat: 35.61887
    lng: -77.41011
  phone: 252-752-0483
  website: https://www.eastersealsport.com
  sources:
  - samhsa/findtreatment
  verified:
    'on': '2026-07-19'
    method: api
- id: nc/greenville/ecu-health-medical-center-behavioral-health
  name: ECU Health Medical Center Behavioral Health
  categories:
  - su-treatment
  - mh-treatment
  address:
    street: 2100 Stantonsburg Road
    city: Greenville
    state: nc
    zip: '27834'
  place: '3728080'
  geo:
    lat: 35.6082
    lng: -77.40153
  phone: 252-847-6895
  website: https://www.ecuhealth.org/behavioralhealth
  sources:
  - samhsa/findtreatment
  verified:
    'on': '2026-07-19'
    method: api
- id: nc/greenville/eic-pitt-county-head-start
  name: EIC Pitt County Head Start
  categories:
  - child-care
  address:
    street: 901 Staton Rd
    city: Greenville
    state: nc
    zip: '27834'
  place: '3728080'
  geo:
    lat: 35.65297
    lng: -77.35196
  sources:
  - acf/head-start-locations
  verified:
    'on': '2026-07-19'
    method: api
- id: nc/greenville/greenville-treatment-center-llc
  name: Greenville Treatment Center LLC
  categories:
  - su-treatment
  address:
    street: 2070 West Arlington Boulevard
    city: Greenville
    state: nc
    zip: '27834'
  place: '3728080'
  geo:
    lat: 35.60116
    lng: -77.40957
  phone: 252-565-8021
  website: https://
  sources:
  - samhsa/findtreatment
  verified:
    'on': '2026-07-19'
    method: api
- id: nc/greenville/happy-teeth-mobile
  name: Happy Teeth Mobile
  categories:
  - community-health-center
  address:
    street: 261 Belvoir Hwy
    city: Greenville
    state: nc
    zip: '27834'
  place: '3728080'
  geo:
    lat: 35.65276
    lng: -77.37011
  phone: 252-695-6355
  website: https://www.greenecountyheathcare.com
  external_ids:
    bphc: BPS-H80-018162
  sources:
  - hrsa/health-center-sites
  verified:
    'on': '2026-07-19'
    method: api
- id: nc/greenville/housing-authority-of-the-city-of-greenville
  name: Housing Authority Of The City Of Greenville
  categories:
  - housing-assistance
  address: {street: 1103 Broad St, city: Greenville, state: nc, zip: '27834'}
  description: Public housing and Housing Choice Voucher agency
  place: '3728080'
  geo: {lat: 35.60535, lng: -77.38098}
  phone: 252-329-4004
  sources:
  - hud/resource-locator
  verified: {'on': '2026-07-19', method: api}
- id: nc/greenville/mid-east-regional-housing-authority
  name: Mid-East Regional Housing Authority
  categories:
  - housing-assistance
  address: {street: 2995 Radio Station Rd, city: Greenville, state: nc, zip: '27834'}
  description: Public housing and Housing Choice Voucher agency
  place: '3728080'
  geo: {lat: 35.60648, lng: -77.42851}
  phone: 252-752-9548
  sources:
  - hud/resource-locator
  verified: {'on': '2026-07-19', method: api}
- id: nc/greenville/pathways-to-life-inc
  name: Pathways to Life Inc
  categories:
  - su-treatment
  - mh-treatment
  address:
    street: 1015 Conference Drive
    city: Greenville
    state: nc
    zip: '27858'
  place: '3728080'
  geo:
    lat: 35.57941
    lng: -77.35523
  phone: 252-695-0269
  website: https://www.pwstolife.com
  sources:
  - samhsa/findtreatment
  verified:
    'on': '2026-07-19'
    method: api
- id: nc/greenville/pitt-county-early-head-start
  name: Pitt County Early Head Start
  categories:
  - child-care
  address:
    street: 901 Staton Rd
    city: Greenville
    state: nc
    zip: '27834'
  place: '3728080'
  geo:
    lat: 35.65362
    lng: -77.35169
  phone: 252-753-0522
  sources:
  - acf/head-start-locations
  verified:
    'on': '2026-07-19'
    method: api
- id: nc/greenville/village-casa-work-perinatal-maternal-program
  name: Village CASA Work Perinatal/Maternal Program
  categories:
  - su-treatment
  address:
    street: 3362 Frontgate Drive
    city: Greenville
    state: nc
    zip: '27834'
  place: '3728080'
  geo:
    lat: 35.56975
    lng: -77.4117
  phone: 252-752-5555
  website: https://www.rhcchealth.org/
  sources:
  - samhsa/findtreatment
  verified:
    'on': '2026-07-19'
    method: api
