- id: nc/greenville/belvoir-elementary
  name: Belvoir Elementary
  categories:
  - meal-program
  address:
    street: 2568 Nc 33 West
    city: Greenville
    state: nc
    zip: '27834'
  description: Free summer meals for kids and teens (2026 season) — sponsored by Pitt County Schools.
  place: '3728080'
  geo:
    lat: 35.66735
    lng: -77.41795
  phone: (252) 830-4218
  external_ids:
    usda_master: Cycle 06_NC_SFSP_2119
  sources:
  - usda/summer-meal-sites
  verified:
    'on': '2026-07-19'
    method: api
- id: nc/greenville/carolina-assessment-and-treatment-services-llc
  name: Carolina Assessment and Treatment Services LLC
  categories:
  - su-treatment
  address:
    street: 222 Cotanche Street
    city: Greenville
    state: nc
    zip: '27858'
  place: '3728080'
  geo:
    lat: 35.61327
    lng: -77.37176
  phone: 252-814-5441
  website: https://
  sources:
  - samhsa/findtreatment
  verified:
    'on': '2026-07-19'
    method: api
- id: nc/greenville/choices-sa-mh-inc
  name: Choices SA/MH Inc
  categories:
  - su-treatment
  - mh-treatment
  address:
    street: 601 Country Club Drive
    city: Greenville
    state: nc
    zip: '27834'
  place: '3728080'
  geo:
    lat: 35.57885
    lng: -77.39476
  phone: 252-439-1886
  website: https://bhchoicesss-mhinc.org
  sources:
  - samhsa/findtreatment
  verified:
    'on': '2026-07-19'
    method: api
- id: nc/greenville/contentnea-health-bernstein
  name: Contentnea Health Bernstein
  categories:
  - community-health-center
  address:
    street: 261 Belvoir Rd
    city: Greenville
    state: nc
    zip: '27834'
  place: '3728080'
  geo:
    lat: 35.63709
    lng: -77.36612
  phone: 252-695-6352
  website: https://www.greenecountyhealthcare.com
  external_ids:
    bphc: BPS-H80-002082
  sources:
  - hrsa/health-center-sites
  verified:
    'on': '2026-07-19'
    method: api
- id: nc/greenville/contentnea-health-diabetology
  name: Contentnea Health Diabetology
  categories:
  - community-health-center
  address:
    street: '2609 West Arlington Blvd, #106'
    city: Greenville
    state: nc
    zip: '27834'
  place: '3728080'
  geo:
    lat: 35.61716
    lng: -77.40823
  phone: 252-747-8162
  external_ids:
    bphc: BPS-H80-039467
  sources:
  - hrsa/health-center-sites
  verified:
    'on': '2026-07-19'
    method: api
- id: nc/greenville/contentnea-health-jh-rose
  name: Contentnea Health JH Rose
  categories:
  - community-health-center
  address:
    street: 600 West Arlington Blvd
    city: Greenville
    state: nc
    zip: '27834'
  place: '3728080'
  geo:
    lat: 35.59198
    lng: -77.3857
  phone: 252-747-8162
  website: https://contentnea.org
  external_ids:
    bphc: BPS-H80-039222
  sources:
  - hrsa/health-center-sites
  verified:
    'on': '2026-07-19'
    method: api
- id: nc/greenville/durham-va-healthcare-system-greenville-healthcar
  name: Durham VA Healthcare System Greenville Healthcare Center
  categories:
  - su-treatment
  - mh-treatment
  address:
    street: 401 Moye Boulevard
    city: Greenville
    state: nc
    zip: '27834'
  place: '3728080'
  geo:
    lat: 35.61706
    lng: -77.39973
  phone: 252-916-2090 x17693
  website: https://www.va.gov
  sources:
  - samhsa/findtreatment
  verified:
    'on': '2026-07-19'
    method: api
- id: nc/greenville/eastern-elementary
  name: Eastern Elementary
  categories:
  - meal-program
  address:
    street: 1700 Cedar Ln.
    city: Greenville
    state: nc
    zip: '27858'
  description: Free summer meals for kids and teens (2026 season) — sponsored by Pitt County Schools.
  place: '3728080'
  geo:
    lat: 35.59585
    lng: -77.34238
  phone: (252) 814-3977
  external_ids:
    usda_master: Cycle 06_NC_SFSP_2121
  sources:
  - usda/summer-meal-sites
  verified:
    'on': '2026-07-19'
    method: api
- id: nc/greenville/eastern-physical-medicine-and-rehabilitation-pll
  name: Eastern Physical Medicine and Rehabilitation PLLC
  categories:
  - su-treatment
  address:
    street: 2245 Stantonsburg Road
    city: Greenville
    state: nc
    zip: '27834'
  place: '3728080'
  geo:
    lat: 35.60494
    lng: -77.40446
  phone: 252-215-9294
  website: https://
  sources:
  - samhsa/findtreatment
  verified:
    'on': '2026-07-19'
    method: api
- id: nc/greenville/easterseals-greenville-otp
  name: Easterseals Greenville OTP
  categories:
  - su-treatment
  - mh-treatment
  address:
    street: 2602 Courtier Drive
    city: Greenville
    state: nc
    zip: '27834'
  place: '3728080'
  geo:
    lat: 35.61887
    lng: -77.41011
  phone: 252-353-5346
  website: https://eastersealsport.com
  sources:
  - samhsa/findtreatment
  verified:
    'on': '2026-07-19'
    method: api
- id: nc/greenville/easterseals-port-health-port-program
  name: Easterseals PORT Health PORT Program
  categories:
  - su-treatment
  address:
    street: 116 Health Drive
    city: Greenville
    state: nc
    zip: '27834'
  place: '3728080'
  geo:
    lat: 35.63981
    lng: -77.36464
  phone: 252-413-1950
  website: https://eastersealsport.com/teen-residential/
  sources:
  - samhsa/findtreatment
  verified:
    'on': '2026-07-19'
    method: api
- id: nc/greenville/easterseals-port-health-services-greenville-clin
  name: Easterseals PORT Health Services Greenville Clinic
  categories:
  - su-treatment
  - mh-treatment
  address:
    street: 2602 Courtier Drive
    city: Greenville
    state: nc
    zip: '27834'
  place: '3728080'
  geo:
    lat: 35.61887
    lng: -77.41011
  phone: 252-752-0483
  website: https://www.eastersealsport.com
  sources:
  - samhsa/findtreatment
  verified:
    'on': '2026-07-19'
    method: api
- id: nc/greenville/ecu-health-medical-center-behavioral-health
  name: ECU Health Medical Center Behavioral Health
  categories:
  - su-treatment
  - mh-treatment
  address:
    street: 2100 Stantonsburg Road
    city: Greenville
    state: nc
    zip: '27834'
  place: '3728080'
  geo:
    lat: 35.6082
    lng: -77.40153
  phone: 252-847-6895
  website: https://www.ecuhealth.org/behavioralhealth
  sources:
  - samhsa/findtreatment
  verified:
    'on': '2026-07-19'
    method: api
- id: nc/greenville/eic-pitt-county-head-start
  name: EIC Pitt County Head Start
  categories:
  - child-care
  address:
    street: 901 Staton Rd
    city: Greenville
    state: nc
    zip: '27834'
  place: '3728080'
  geo:
    lat: 35.65297
    lng: -77.35196
  sources:
  - acf/head-start-locations
  verified:
    'on': '2026-07-19'
    method: api
- id: nc/greenville/greenville-mobile-vet-center
  name: Greenville Mobile Vet Center
  categories: &id001
  - vet-center
  address: {street: '1021 W.H. Smith Boulevard, Suite 100', city: Greenville, state: nc, zip: '27834'}
  place: '3728080'
  geo: {lat: 35.60139, lng: -77.38745}
  phone: 252-355-7920
  website: https://www.va.gov/greenville-nc-vet-center/locations/#greenville-mobile-vet-center
  external_ids: {va: vc_0814MVC}
  sources:
  - va/facilities-api
  verified: {'on': '2026-07-19', method: api}
- id: nc/greenville/greenville-nc-vet-center
  name: Greenville, NC Vet Center
  categories: *id001
  address: {street: '2315 Dickinson Avenue, Suite 300', city: Greenville, state: nc, zip: '27834'}
  place: '3728080'
  geo: {lat: 35.59746, lng: -77.39855}
  phone: 252-355-7920
  website: https://www.va.gov/greenville-nc-vet-center/
  hours:
  - {days: [mon, tue, wed, fri], open: '08:00', close: '16:30'}
  - {days: [thu], open: '08:00', close: '04:30'}
  external_ids: {va: vc_0319V}
  sources:
  - va/facilities-api
  verified: {'on': '2026-07-19', method: api}
- id: nc/greenville/greenville-treatment-center-llc
  name: Greenville Treatment Center LLC
  categories:
  - su-treatment
  address:
    street: 2070 West Arlington Boulevard
    city: Greenville
    state: nc
    zip: '27834'
  place: '3728080'
  geo:
    lat: 35.60116
    lng: -77.40957
  phone: 252-565-8021
  website: https://
  sources:
  - samhsa/findtreatment
  verified:
    'on': '2026-07-19'
    method: api
- id: nc/greenville/greenville-va-clinic
  name: Greenville VA Clinic
  categories:
  - va-facility
  - health
  description: Multi-Specialty CBOC
  address: {street: 401 Moye Boulevard, city: Greenville, state: nc, zip: '27834'}
  place: '3728080'
  geo: {lat: 35.6168, lng: -77.39925}
  phone: 252-830-2149
  website: https://www.va.gov/durham-health-care/locations/greenville-va-clinic/
  hours:
  - {days: [mon, tue, wed, thu, fri], open: '08:00', close: '16:30'}
  external_ids: {va: vha_558GA}
  sources:
  - va/facilities-api
  verified: {'on': '2026-07-19', method: api}
- id: nc/greenville/happy-teeth-mobile
  name: Happy Teeth Mobile
  categories:
  - community-health-center
  address:
    street: 261 Belvoir Hwy
    city: Greenville
    state: nc
    zip: '27834'
  place: '3728080'
  geo:
    lat: 35.65276
    lng: -77.37011
  phone: 252-695-6355
  website: https://www.greenecountyheathcare.com
  external_ids:
    bphc: BPS-H80-018162
  sources:
  - hrsa/health-center-sites
  verified:
    'on': '2026-07-19'
    method: api
- id: nc/greenville/housing-authority-of-the-city-of-greenville
  name: Housing Authority Of The City Of Greenville
  categories:
  - housing-assistance
  address:
    street: 1103 Broad St
    city: Greenville
    state: nc
    zip: '27834'
  description: Public housing and Housing Choice Voucher agency
  place: '3728080'
  geo:
    lat: 35.60535
    lng: -77.38098
  phone: 252-329-4004
  sources:
  - hud/resource-locator
  verified:
    'on': '2026-07-19'
    method: api
- id: nc/greenville/lakeforest-elementary
  name: Lakeforest Elementary
  categories:
  - meal-program
  address:
    street: 3300 Briarcliff Drive
    city: Greenville
    state: nc
    zip: '27834'
  description: Free summer meals for kids and teens (2026 season) — sponsored by Pitt County Schools.
  place: '3728080'
  geo:
    lat: 35.59121
    lng: -77.42185
  phone: (252) 830-4269
  external_ids:
    usda_master: Cycle 06_NC_SFSP_2130
  sources:
  - usda/summer-meal-sites
  verified:
    'on': '2026-07-19'
    method: api
- id: nc/greenville/mid-east-regional-housing-authority
  name: Mid-East Regional Housing Authority
  categories:
  - housing-assistance
  address:
    street: 2995 Radio Station Rd
    city: Greenville
    state: nc
    zip: '27834'
  description: Public housing and Housing Choice Voucher agency
  place: '3728080'
  geo:
    lat: 35.60648
    lng: -77.42851
  phone: 252-752-9548
  sources:
  - hud/resource-locator
  verified:
    'on': '2026-07-19'
    method: api
- id: nc/greenville/ncm-of-freewill-baptist-church
  name: Ncm Of Freewill Baptist Church
  categories:
  - meal-program
  address:
    street: 775 Porter Rd
    city: Greenville
    state: nc
    zip: '27834'
  description: Free summer meals for kids and teens (2026 season) — sponsored by Pitt County Schools.
  place: '3728080'
  geo:
    lat: 35.71078
    lng: -77.46388
  phone: (252) 830-4200
  external_ids:
    usda_master: Cycle 06_NC_SFSP_2138
  sources:
  - usda/summer-meal-sites
  verified:
    'on': '2026-07-19'
    method: api
- id: nc/greenville/pathways-to-life-inc
  name: Pathways to Life Inc
  categories:
  - su-treatment
  - mh-treatment
  address:
    street: 1015 Conference Drive
    city: Greenville
    state: nc
    zip: '27858'
  place: '3728080'
  geo:
    lat: 35.57941
    lng: -77.35523
  phone: 252-695-0269
  website: https://www.pwstolife.com
  sources:
  - samhsa/findtreatment
  verified:
    'on': '2026-07-19'
    method: api
- id: nc/greenville/pitt-county-early-head-start
  name: Pitt County Early Head Start
  categories:
  - child-care
  address:
    street: 901 Staton Rd
    city: Greenville
    state: nc
    zip: '27834'
  place: '3728080'
  geo:
    lat: 35.65362
    lng: -77.35169
  phone: 252-753-0522
  sources:
  - acf/head-start-locations
  verified:
    'on': '2026-07-19'
    method: api
- id: nc/greenville/sadie-saulter-elementary-sfsp
  name: Sadie Saulter Elementary (Sfsp)
  categories:
  - meal-program
  address:
    street: 400 Spruce Street
    city: Greenville
    state: nc
    zip: '27834'
  description: Free summer meals for kids and teens (2026 season) — sponsored by Pitt County Schools.
  place: '3728080'
  geo:
    lat: 35.60848
    lng: -77.38468
  phone: (252) 830-4226
  external_ids:
    usda_master: Cycle 06_NC_SFSP_2126
  sources:
  - usda/summer-meal-sites
  verified:
    'on': '2026-07-19'
    method: api
- id: nc/greenville/south-greenville-elementary
  name: South Greenville Elementary
  categories:
  - meal-program
  address:
    street: 811 Howell Street
    city: Greenville
    state: nc
    zip: '27834'
  description: Free summer meals for kids and teens (2026 season) — sponsored by Pitt County Schools.
  place: '3728080'
  geo:
    lat: 35.59911
    lng: -77.38495
  phone: (252) 830-4269
  external_ids:
    usda_master: Cycle 06_NC_SFSP_2128
  sources:
  - usda/summer-meal-sites
  verified:
    'on': '2026-07-19'
    method: api
- id: nc/greenville/veteran-readiness-and-employment-office-at-east
  name: Veteran Readiness and Employment Office at East Carolina University
  categories:
  - va-facility
  description: Veteran Readiness and Employment Office
  address: {street: 'East Carolina University, Brewster D-107', city: Greenville, state: nc, zip: '27858'}
  place: '3728080'
  geo: {lat: 35.60688, lng: -77.36654}
  phone: 910-451-0018
  website: https://www.va.gov/find-locations/facility/vba_318h
  external_ids: {va: vba_318h}
  sources:
  - va/facilities-api
  verified: {'on': '2026-07-19', method: api}
- id: nc/greenville/village-casa-work-perinatal-maternal-program
  name: Village CASA Work Perinatal/Maternal Program
  categories:
  - su-treatment
  address:
    street: 3362 Frontgate Drive
    city: Greenville
    state: nc
    zip: '27834'
  place: '3728080'
  geo:
    lat: 35.56975
    lng: -77.4117
  phone: 252-752-5555
  website: https://www.rhcchealth.org/
  sources:
  - samhsa/findtreatment
  verified:
    'on': '2026-07-19'
    method: api
- id: nc/greenville/wintergreen-primary-sfsp
  name: Wintergreen Primary (Sfsp)
  categories:
  - meal-program
  address:
    street: 4710 County Home Rd
    city: Greenville
    state: nc
    zip: '27858'
  description: Free summer meals for kids and teens (2026 season) — sponsored by Pitt County Schools.
  place: '3728080'
  geo:
    lat: 35.54562
    lng: -77.35181
  phone: (252) 830-4269
  external_ids:
    usda_master: Cycle 06_NC_SFSP_2131
  sources:
  - usda/summer-meal-sites
  verified:
    'on': '2026-07-19'
    method: api
