- id: nc/lenoir/bethel-colony-of-mercy-inc
  name: Bethel Colony of Mercy Inc
  categories:
  - su-treatment
  address:
    street: 1675 Bethel Colony Road
    city: Lenoir
    state: nc
    zip: '28645'
  place: '3737760'
  geo:
    lat: 35.93415
    lng: -81.49541
  phone: 828-754-3781 x5
  website: https://www.bethelcolony.org
  sources:
  - samhsa/findtreatment
  verified:
    'on': '2026-07-19'
    method: api
- id: nc/lenoir/bethel-colony-of-mercy-womens-campus
  name: Bethel Colony of Mercy Womens Campus
  categories:
  - su-treatment
  address:
    city: Lenoir
    state: nc
    zip: '28645'
  place: '3737760'
  phone: 828-754-3781 x6
  website: https://bethelcolony.org
  sources:
  - samhsa/findtreatment
  verified:
    'on': '2026-07-19'
    method: api
- id: nc/lenoir/caldwell-unc-healthcare
  name: Caldwell UNC Healthcare
  categories:
  - su-treatment
  - mh-treatment
  address:
    street: 321 Mulberry Street SW
    city: Lenoir
    state: nc
    zip: '28645'
  place: '3737760'
  geo:
    lat: 35.91069
    lng: -81.53506
  phone: 828-757-5100
  website: https://www.caldwellmemorial.org/
  sources:
  - samhsa/findtreatment
  verified:
    'on': '2026-07-19'
    method: api
- id: nc/lenoir/focus-behavioral-health-services-llc-burkwell
  name: Focus Behavioral Health Services LLC Burkwell
  categories:
  - su-treatment
  - mh-treatment
  address:
    city: Lenoir
    state: nc
    zip: '28645'
  place: '3737760'
  phone: 828-439-8191
  website: https://www.focusbhsllc.com
  sources:
  - samhsa/findtreatment
  verified:
    'on': '2026-07-19'
    method: api
- id: nc/lenoir/focus-behavioral-health-services-llc-outpatient
  name: Focus Behavioral Health Services LLC Outpatient Clinic
  categories:
  - su-treatment
  - mh-treatment
  address:
    street: 144 Tremont Park Drive
    city: Lenoir
    state: nc
    zip: '28645'
  place: '3737760'
  geo:
    lat: 35.92173
    lng: -81.51009
  phone: 828-439-8191
  website: https://www.focusbhsllc.com
  sources:
  - samhsa/findtreatment
  verified:
    'on': '2026-07-19'
    method: api
- id: nc/lenoir/kintegra-at-davenport-elementary
  name: Kintegra at Davenport Elementary
  categories:
  - community-health-center
  address:
    street: 901 College Ave SW
    city: Lenoir
    state: nc
    zip: '28645'
  place: '3737760'
  geo:
    lat: 35.91171
    lng: -81.53964
  phone: 828-754-6941
  website: https://www.kintegra.org
  external_ids:
    bphc: BPS-H80-041503
  sources:
  - hrsa/health-center-sites
  verified:
    'on': '2026-07-19'
    method: api
- id: nc/lenoir/kintegra-at-gamewell-elementary
  name: Kintegra at Gamewell Elementary
  categories:
  - community-health-center
  address:
    street: 2904 Morganton Blvd SW
    city: Lenoir
    state: nc
    zip: '28645'
  place: '3737760'
  geo:
    lat: 35.86874
    lng: -81.59726
  phone: 828-758-1193
  website: https://www.kintegra.org
  external_ids:
    bphc: BPS-H80-039106
  sources:
  - hrsa/health-center-sites
  verified:
    'on': '2026-07-19'
    method: api
- id: nc/lenoir/kintegra-at-gamewell-middle
  name: Kintegra at Gamewell Middle
  categories:
  - community-health-center
  address:
    street: 3210 Gamewell School Rd
    city: Lenoir
    state: nc
    zip: '28645'
  place: '3737760'
  geo:
    lat: 35.87123
    lng: -81.59869
  phone: 828-754-6204
  website: https://www.kintegra.org
  external_ids:
    bphc: BPS-H80-041496
  sources:
  - hrsa/health-center-sites
  verified:
    'on': '2026-07-19'
    method: api
- id: nc/lenoir/kintegra-at-happy-valley-elementary
  name: Kintegra at Happy Valley Elementary
  categories:
  - community-health-center
  address:
    street: 1350 Yadkin River Rd
    city: Lenoir
    state: nc
    zip: '28645'
  place: '3737760'
  geo:
    lat: 35.99534
    lng: -81.56037
  phone: 828-754-3496
  website: https://kintegra.org
  external_ids:
    bphc: BPS-H80-041500
  sources:
  - hrsa/health-center-sites
  verified:
    'on': '2026-07-19'
    method: api
- id: nc/lenoir/kintegra-at-hibriten-high
  name: Kintegra at Hibriten High
  categories:
  - community-health-center
  address:
    street: 1350 Panther Trl SE
    city: Lenoir
    state: nc
    zip: '28645'
  place: '3737760'
  geo:
    lat: 35.92595
    lng: -81.49477
  phone: 828-758-7376
  website: https://www.kintegra.org
  external_ids:
    bphc: BPS-H80-041497
  sources:
  - hrsa/health-center-sites
  verified:
    'on': '2026-07-19'
    method: api
- id: nc/lenoir/kintegra-at-kings-creek-elementary
  name: Kintegra at Kings Creek Elementary
  categories:
  - community-health-center
  address:
    street: 3680 Wilkesboro Blvd
    city: Lenoir
    state: nc
    zip: '28645'
  place: '3737760'
  geo:
    lat: 35.99202
    lng: -81.40072
  phone: 828-754-6039
  website: https://www.kintegra.org
  external_ids:
    bphc: BPS-H80-041387
  sources:
  - hrsa/health-center-sites
  verified:
    'on': '2026-07-19'
    method: api
- id: nc/lenoir/kintegra-at-lower-creek-elementary
  name: Kintegra at Lower Creek Elementary
  categories:
  - community-health-center
  address:
    street: 630 Lower Creek Dr NE
    city: Lenoir
    state: nc
    zip: '28645'
  place: '3737760'
  geo:
    lat: 35.92252
    lng: -81.51163
  phone: 828-754-4022
  external_ids:
    bphc: BPS-H80-041502
  sources:
  - hrsa/health-center-sites
  verified:
    'on': '2026-07-19'
    method: api
- id: nc/lenoir/kintegra-at-valmead-elementary
  name: Kintegra at Valmead Elementary
  categories:
  - community-health-center
  address:
    street: 111 Elizabeth St NW
    city: Lenoir
    state: nc
    zip: '28645'
  place: '3737760'
  geo:
    lat: 35.93713
    lng: -81.54057
  phone: 828-754-9612
  website: https://kintegra.org
  external_ids:
    bphc: BPS-H80-041498
  sources:
  - hrsa/health-center-sites
  verified:
    'on': '2026-07-19'
    method: api
- id: nc/lenoir/kintegra-at-west-caldwell-high
  name: Kintegra at West Caldwell High
  categories:
  - community-health-center
  address:
    street: 300 W Caldwell Dr
    city: Lenoir
    state: nc
    zip: '28645'
  place: '3737760'
  geo:
    lat: 35.88679
    lng: -81.59178
  phone: 828-758-5583
  website: https://www.kintegra.org
  external_ids:
    bphc: BPS-H80-039112
  sources:
  - hrsa/health-center-sites
  verified:
    'on': '2026-07-19'
    method: api
- id: nc/lenoir/kintegra-at-whitnel-elementary
  name: Kintegra at Whitnel Elementary
  categories:
  - community-health-center
  address:
    street: 1425 Berkley St SW
    city: Lenoir
    state: nc
    zip: '28645'
  place: '3737760'
  geo:
    lat: 35.88997
    lng: -81.52143
  phone: 828-728-6423
  website: https://www.kintegra.org
  external_ids:
    bphc: BPS-H80-039107
  sources:
  - hrsa/health-center-sites
  verified:
    'on': '2026-07-19'
    method: api
- id: nc/lenoir/kintegra-at-william-lenoir-middle
  name: Kintegra at William Lenoir Middle
  categories:
  - community-health-center
  address:
    street: 1366 Wildcat Trl SE
    city: Lenoir
    state: nc
    zip: '28645'
  place: '3737760'
  geo:
    lat: 35.92431
    lng: -81.49651
  phone: 828-726-3910
  website: https://www.kintegra.org
  external_ids:
    bphc: BPS-H80-040085
  sources:
  - hrsa/health-center-sites
  verified:
    'on': '2026-07-19'
    method: api
- id: nc/lenoir/kintegra-family-medicine-happy-valley
  name: Kintegra Family Medicine-Happy Valley
  categories:
  - community-health-center
  address:
    street: 1345 NC Highway 268
    city: Lenoir
    state: nc
    zip: '28645'
  place: '3737760'
  geo:
    lat: 35.98917
    lng: -81.55325
  phone: 828-754-6850
  external_ids:
    bphc: BPS-H80-041361
  sources:
  - hrsa/health-center-sites
  verified:
    'on': '2026-07-19'
    method: api
- id: nc/lenoir/lenoir-housing-authority
  name: Lenoir Housing Authority
  categories:
  - housing-assistance
  address:
    street: 431 Vance St NW
    city: Lenoir
    state: nc
    zip: '28645'
  description: Public housing (Low-Rent) agency
  place: '3737760'
  geo:
    lat: 35.91805
    lng: -81.54342
  phone: 828-758-5536
  sources:
  - hud/resource-locator
  verified:
    'on': '2026-07-19'
    method: api
- id: nc/lenoir/mcleod-centers-for-wellbeing-lenoir
  name: McLeod Centers for Wellbeing Lenoir
  categories:
  - su-treatment
  address:
    street: 222 Morganton Boulevard SW
    city: Lenoir
    state: nc
    zip: '28645'
  place: '3737760'
  geo:
    lat: 35.91355
    lng: -81.52943
  phone: 704-332-9001
  website: https://www.mcleodcenters.org
  sources:
  - samhsa/findtreatment
  verified:
    'on': '2026-07-19'
    method: api
- id: nc/lenoir/ncm-gamewell-middle-school
  name: Ncm Gamewell Middle School
  categories:
  - meal-program
  address: {street: 3210 Gamewell School Road, city: Lenoir, state: nc, zip: '28645'}
  description: Free summer meals for kids and teens (2026 season) — sponsored by Caldwell County Schools.
  place: '3737760'
  geo: {lat: 35.87065, lng: -81.59895}
  phone: (828) 754-6201
  external_ids: {usda_master: Cycle 06_NC_SFSP_0227}
  sources:
  - usda/summer-meal-sites
  verified: {'on': '2026-07-19', method: api}
- id: nc/lenoir/northside-learning-center
  name: Northside Learning Center
  categories:
  - child-care
  address:
    street: 1440 Blowing Rock Blvd
    city: Lenoir
    state: nc
    zip: '28645'
  place: '3737760'
  geo:
    lat: 35.93713
    lng: -81.53598
  phone: 828-758-4290
  sources:
  - acf/head-start-locations
  verified:
    'on': '2026-07-19'
    method: api
- id: nc/lenoir/rha-health-services
  name: RHA Health Services
  categories:
  - su-treatment
  - mh-treatment
  address:
    street: 2415 Morganton Boulevard SW
    city: Lenoir
    state: nc
    zip: '28645'
  place: '3737760'
  geo:
    lat: 35.891
    lng: -81.57505
  phone: 828-394-5563
  website: https://www.rhahealthservices.org/
  sources:
  - samhsa/findtreatment
  verified:
    'on': '2026-07-19'
    method: api
- id: nc/lenoir/the-enola-group-caldwell-early-head-start
  name: The Enola Group Caldwell Early Head Start
  categories:
  - child-care
  address:
    street: 609 Harper Ave SW
    city: Lenoir
    state: nc
    zip: '28645'
  place: '3737760'
  geo:
    lat: 35.9147
    lng: -81.53711
  phone: 828-757-8632
  sources:
  - acf/head-start-locations
  verified:
    'on': '2026-07-19'
    method: api
