- id: nc/monroe/arms-union
  name: ARMS Union
  categories:
  - community-health-center
  address:
    street: 1328 Patterson St
    city: Monroe
    state: nc
    zip: '28112'
  place: '3743920'
  geo:
    lat: 34.96883
    lng: -80.52562
  phone: 704-694-6700
  external_ids:
    bphc: BPS-H80-037201
  sources:
  - hrsa/health-center-sites
  verified:
    'on': '2026-07-19'
    method: api
- id: nc/monroe/daymark-recovery-services-facility-based-crisis
  name: Daymark Recovery Services Facility Based Crisis/Union County
  categories:
  - su-treatment
  - mh-treatment
  address:
    street: 1408 East Franklin Street
    city: Monroe
    state: nc
    zip: '28112'
  place: '3743920'
  geo:
    lat: 34.97323
    lng: -80.52289
  phone: 704-635-2080
  website: https://www.daymarkrecovery.org
  sources:
  - samhsa/findtreatment
  verified:
    'on': '2026-07-19'
    method: api
- id: nc/monroe/daymark-recovery-services-union-center
  name: Daymark Recovery Services Union Center
  categories:
  - su-treatment
  - mh-treatment
  address:
    street: 701 East Roosevelt Boulevard
    city: Monroe
    state: nc
    zip: '28112'
  place: '3743920'
  geo:
    lat: 34.97541
    lng: -80.51825
  phone: 704-296-6200
  website: https://www.daymarkrecovery.org
  sources:
  - samhsa/findtreatment
  verified:
    'on': '2026-07-19'
    method: api
- id: nc/monroe/kintegra-at-atrium-women-s-center-monroe
  name: Kintegra at Atrium Women's Center - Monroe
  categories:
  - community-health-center
  address:
    street: 1550 Faulk St, Suite 2100
    city: Monroe
    state: nc
    zip: '28112'
  place: '3743920'
  geo:
    lat: 34.97481
    lng: -80.52136
  phone: 704-289-2553
  website: https://www.kintegra.org
  external_ids:
    bphc: BPS-H80-038736
  sources:
  - hrsa/health-center-sites
  verified:
    'on': '2026-07-19'
    method: api
- id: nc/monroe/little-gerald-services
  name: Little Gerald Services
  categories:
  - su-treatment
  - mh-treatment
  address:
    street: 1112 Skyway Drive
    city: Monroe
    state: nc
    zip: '28110'
  place: '3743920'
  geo:
    lat: 34.99244
    lng: -80.54848
  phone: 704-283-9055
  website: https://www.lgservicesnc.org
  sources:
  - samhsa/findtreatment
  verified:
    'on': '2026-07-19'
    method: api
- id: nc/monroe/mcleod-centers-for-wellbeing-monroe
  name: McLeod Centers for Wellbeing Monroe
  categories:
  - su-treatment
  address:
    street: 2208 West Roosevelt Boulevard
    city: Monroe
    state: nc
    zip: '28110'
  place: '3743920'
  geo:
    lat: 35.00853
    lng: -80.56044
  phone: 704-332-9001
  website: https://www.mcleodcenters.org
  sources:
  - samhsa/findtreatment
  verified:
    'on': '2026-07-19'
    method: api
- id: nc/monroe/monroe-housing-authority
  name: Monroe Housing Authority
  categories:
  - housing-assistance
  address: {street: 504 Hough St, city: Monroe, state: nc, zip: '28112'}
  description: Public housing and Housing Choice Voucher agency
  place: '3743920'
  geo: {lat: 34.97667, lng: -80.54008}
  phone: 704-289-2514
  sources:
  - hud/resource-locator
  verified: {'on': '2026-07-19', method: api}
- id: nc/monroe/winchester-center
  name: Winchester Center
  categories:
  - child-care
  address:
    street: 1112 Fairley Ave
    city: Monroe
    state: nc
    zip: '28110'
  place: '3743920'
  geo:
    lat: 34.98607
    lng: -80.53675
  phone: 704-283-1069
  sources:
  - acf/head-start-locations
  verified:
    'on': '2026-07-19'
    method: api
