- id: nc/shelby/alexander-youth-network-shelby-day-treatment
  name: Alexander Youth Network Shelby Day Treatment
  categories:
  - su-treatment
  - mh-treatment
  address:
    street: 400 West Marion Street
    city: Shelby
    state: nc
    zip: '28150'
  place: '3761200'
  geo:
    lat: 35.29304
    lng: -81.54567
  phone: 704-366-8712
  website: https://www.alexanderyouthnetwork.org
  services:
  - Partial hospitalization/day treatment
  - Clients with co-occurring mental and substance use disorders
  - Clients who have experienced trauma
  - Persons with traumatic brain injury (TBI)
  - Persons with eating disorders
  - Persons with post-traumatic stress disorder (PTSD)
  - Children/adolescents with serious emotional disturbance (SED)
  cost: sliding-scale
  sources:
  - samhsa/findtreatment
  verified:
    'on': '2026-07-19'
    method: api
- id: nc/shelby/ascension-lutheran-church
  name: Ascension Lutheran Church
  categories:
  - food-pantry
  place: '3761200'
  geo:
    lat: 35.29473
    lng: -81.53958
  external_ids:
    lfp: '218'
  sources:
  - littlefreepantry/map
  verified:
    'on': '2026-07-19'
    method: scrape
- id: nc/shelby/berryland-clubhouse-ii
  name: BerryLand Clubhouse II
  categories:
  - child-care
  address:
    street: 512 S Dekalb St
    city: Shelby
    state: nc
    zip: '28150'
  place: '3761200'
  geo:
    lat: 35.28585
    lng: -81.53788
  phone: 704-482-5108
  sources:
  - acf/head-start-locations
  verified:
    'on': '2026-07-19'
    method: api
- id: nc/shelby/bloom-at-blc
  name: Bloom at BLC
  categories:
  - child-care
  address:
    street: 1415 College Ave
    city: Shelby
    state: nc
    zip: '28152'
  place: '3761200'
  geo:
    lat: 35.24885
    lng: -81.64668
  phone: 704-313-7019
  sources:
  - acf/head-start-locations
  verified:
    'on': '2026-07-19'
    method: api
- id: nc/shelby/boiling-springs
  name: Boiling Springs
  categories:
  - child-care
  address:
    street: 1522 Patrick Ave
    city: Shelby
    state: nc
    zip: '28152'
  place: '3761200'
  geo:
    lat: 35.23985
    lng: -81.65471
  phone: 704-476-8361
  sources:
  - acf/head-start-locations
  verified:
    'on': '2026-07-19'
    method: api
- id: nc/shelby/carolina-services
  name: Carolina Services
  categories:
  - su-treatment
  address:
    street: 222 North Lafayette Street
    city: Shelby
    state: nc
    zip: '28150'
  place: '3761200'
  geo:
    lat: 35.2941
    lng: -81.53968
  phone: 704-419-2186
  website: https://CarolinaServices.net
  services:
  - Outpatient
  - Regular outpatient treatment
  cost: varies
  sources:
  - samhsa/findtreatment
  verified:
    'on': '2026-07-19'
    method: api
- id: nc/shelby/city-of-shelby-department-of-housing
  name: City Of Shelby, Department Of Housing
  categories:
  - housing-assistance
  address:
    street: 801 Logan St
    city: Shelby
    state: nc
    zip: '28150'
  description: Public housing (Low-Rent) agency
  place: '3761200'
  geo:
    lat: 35.30211
    lng: -81.53174
  phone: 704-484-6830
  sources:
  - hud/resource-locator
  verified:
    'on': '2026-07-19'
    method: api
- id: nc/shelby/cleveland-county-department-of-social-services
  name: Cleveland County Department of Social Services
  categories:
  - utility-assistance
  description: LIHEAP intake office serving Cleveland County
  address:
    street: 130 South Post Road (P. O. Drawer 9006)
    city: Shelby
    state: nc
    zip: '28150'
  place: '3761200'
  phone: 704-487-0661
  website: https://www.clevelandcounty.com/main/departments/dss_contact_us.php
  sources:
  - acf/liheap-clearinghouse
  verified:
    'on': '2026-07-19'
    method: scrape
- id: nc/shelby/connected-kids-child-development-center
  name: Connected Kids Child Development Center
  categories:
  - child-care
  address:
    street: 600 N Morgan St
    city: Shelby
    state: nc
    zip: '28150'
  place: '3761200'
  geo:
    lat: 35.29831
    lng: -81.54134
  phone: 704-487-5792
  sources:
  - acf/head-start-locations
  verified:
    'on': '2026-07-19'
    method: api
- id: nc/shelby/elizabeth
  name: Elizabeth
  categories:
  - child-care
  address:
    street: 220 S Post Rd
    city: Shelby
    state: nc
    zip: '28152'
  place: '3761200'
  geo:
    lat: 35.27984
    lng: -81.49483
  phone: 704-476-8371
  sources:
  - acf/head-start-locations
  verified:
    'on': '2026-07-19'
    method: api
- id: nc/shelby/helping-hands-cleveland-county-county-administra
  name: Helping Hands Cleveland County - County Administration Building
  categories:
  - food-pantry
  place: '3761200'
  geo:
    lat: 35.29219
    lng: -81.53607
  external_ids:
    lfp: '1415'
  sources:
  - littlefreepantry/map
  verified:
    'on': '2026-07-19'
    method: scrape
- id: nc/shelby/helping-hands-cleveland-county-hope-community-ch
  name: Helping Hands Cleveland County - Hope Community Church
  categories:
  - food-pantry
  place: '3761200'
  geo:
    lat: 35.27515
    lng: -81.54623
  external_ids:
    lfp: '1413'
  sources:
  - littlefreepantry/map
  verified:
    'on': '2026-07-19'
    method: scrape
- id: nc/shelby/helping-hands-cleveland-county-lafayette-street
  name: Helping Hands Cleveland County - Lafayette Street Car Wash
  categories:
  - food-pantry
  place: '3761200'
  geo:
    lat: 35.27666
    lng: -81.54501
  external_ids:
    lfp: '1412'
  sources:
  - littlefreepantry/map
  verified:
    'on': '2026-07-19'
    method: scrape
- id: nc/shelby/helping-hands-cleveland-county-parkside-villa-ap
  name: Helping Hands Cleveland County - Parkside Villa Apartments
  categories:
  - food-pantry
  place: '3761200'
  geo:
    lat: 35.27357
    lng: -81.54989
  external_ids:
    lfp: '1414'
  sources:
  - littlefreepantry/map
  verified:
    'on': '2026-07-19'
    method: scrape
- id: nc/shelby/integrated-care-of-greater-hickory-icgh-shelby
  name: Integrated Care of Greater Hickory ICGH Shelby
  categories:
  - su-treatment
  - mh-treatment
  address:
    street: 117 West Marion Street
    city: Shelby
    state: nc
    zip: '28152'
  place: '3761200'
  geo:
    lat: 35.29165
    lng: -81.54127
  phone: 828-322-5915
  website: https://www.integratedcarehickory.com
  services:
  - Outpatient
  - Outpatient methadone/buprenorphine or naltrexone treatment
  - Adolescents
  - Young adults
  - Adult women
  - Pregnant/postpartum women
  - Adult men
  - Seniors or older adults
  - Veterans
  - Active duty military
  - Members of military families
  - Criminal justice (other than DUI/DWI)/Forensic clients
  - Clients with co-occurring mental and substance use disorders
  - Clients with co-occurring pain and substance use disorders
  cost: varies
  sources:
  - samhsa/findtreatment
  verified:
    'on': '2026-07-19'
    method: api
- id: nc/shelby/kintegra-at-cleveland-community-college
  name: Kintegra at Cleveland Community College
  categories:
  - community-health-center
  cost: sliding-scale
  address: {street: 137 S Post Rd, city: Shelby, state: nc, zip: '28152'}
  place: '3761200'
  geo: {lat: 35.2804, lng: -81.49224}
  phone: 704-669-6000
  website: https://www.kintegra.org
  external_ids: {bphc: BPS-H80-033599}
  sources:
  - hrsa/health-center-sites
  verified: {'on': '2026-07-19', method: api}
- id: nc/shelby/kintegra-at-cleveland-county-public-health
  name: Kintegra at Cleveland County Public Health
  categories:
  - community-health-center
  cost: sliding-scale
  address: {street: 200 S Post Rd, city: Shelby, state: nc, zip: '28152'}
  place: '3761200'
  geo: {lat: 35.28245, lng: -81.49591}
  phone: 980-484-5153
  website: https://www.kintegra.org
  external_ids: {bphc: BPS-H80-033404}
  sources:
  - hrsa/health-center-sites
  verified: {'on': '2026-07-19', method: api}
- id: nc/shelby/kintegra-at-james-love-elementary
  name: Kintegra at James Love Elementary
  categories:
  - community-health-center
  cost: sliding-scale
  address: {street: 309 James Love School Rd, city: Shelby, state: nc, zip: '28152'}
  place: '3761200'
  geo: {lat: 35.26593, lng: -81.56706}
  phone: 704-476-8385
  website: https://www.kintegra.org
  external_ids: {bphc: BPS-H80-038627}
  sources:
  - hrsa/health-center-sites
  verified: {'on': '2026-07-19', method: api}
- id: nc/shelby/kintegra-at-township-three-elementary
  name: Kintegra at Township Three Elementary
  categories:
  - community-health-center
  cost: sliding-scale
  address: {street: 526 Davis Rd, city: Shelby, state: nc, zip: '28152'}
  place: '3761200'
  geo: {lat: 35.21756, lng: -81.5315}
  phone: 704-476-8245
  website: https://www.kintegra.org
  external_ids: {bphc: BPS-H80-039103}
  sources:
  - hrsa/health-center-sites
  verified: {'on': '2026-07-19', method: api}
- id: nc/shelby/kintegra-at-turning-point-academy
  name: Kintegra at Turning Point Academy
  categories:
  - community-health-center
  cost: sliding-scale
  address: {street: 409 W Sumter St, city: Shelby, state: nc, zip: '28150'}
  place: '3761200'
  geo: {lat: 35.29309, lng: -81.54551}
  phone: 704-476-8399
  website: https://www.kintegra.org
  external_ids: {bphc: BPS-H80-037145}
  sources:
  - hrsa/health-center-sites
  verified: {'on': '2026-07-19', method: api}
- id: nc/shelby/kintegra-at-washington-elementary
  name: Kintegra at Washington Elementary
  categories:
  - community-health-center
  cost: sliding-scale
  address: {street: 1907 Stony Point Rd, city: Shelby, state: nc, zip: '28150'}
  place: '3761200'
  geo: {lat: 35.33538, lng: -81.42161}
  phone: 704-476-8260
  external_ids: {bphc: BPS-H80-036178}
  sources:
  - hrsa/health-center-sites
  verified: {'on': '2026-07-19', method: api}
- id: nc/shelby/kintegra-family-medicine-boiling-springs
  name: Kintegra Family Medicine - Boiling Springs
  categories:
  - community-health-center
  cost: sliding-scale
  address: {street: 305 W College Ave, city: Shelby, state: nc, zip: '28152'}
  place: '3761200'
  geo: {lat: 35.25, lng: -81.67515}
  phone: 704-818-9200
  website: https://www.kintegra.org
  external_ids: {bphc: BPS-H80-031022}
  sources:
  - hrsa/health-center-sites
  verified: {'on': '2026-07-19', method: api}
- id: nc/shelby/kintegra-family-medicine-shelby-dixon-blvd
  name: Kintegra Family Medicine - Shelby - Dixon Blvd
  categories:
  - community-health-center
  cost: sliding-scale
  address: {street: 1758 E Dixon Blvd, city: Shelby, state: nc, zip: '28152'}
  place: '3761200'
  geo: {lat: 35.2702, lng: -81.49937}
  phone: 704-408-0685
  website: https://www.kintegra.org
  external_ids: {bphc: BPS-H80-036599}
  sources:
  - hrsa/health-center-sites
  verified: {'on': '2026-07-19', method: api}
- id: nc/shelby/kintegra-family-medicine-shelby-marketplace
  name: Kintegra Family Medicine - Shelby Marketplace
  categories:
  - community-health-center
  cost: sliding-scale
  address: {street: 1760 E Dixon Blvd, city: Shelby, state: nc, zip: '28152'}
  place: '3761200'
  geo: {lat: 35.27015, lng: -81.49918}
  phone: 704-480-9344
  website: https://www.kintegra.org
  external_ids: {bphc: BPS-H80-036598}
  sources:
  - hrsa/health-center-sites
  verified: {'on': '2026-07-19', method: api}
- id: nc/shelby/kintegra-pediatrics-behavioral-health-family-den
  name: Kintegra Pediatrics Behavioral Health Family Dentistry
  categories:
  - community-health-center
  cost: sliding-scale
  address: {street: 445 Earl Rd, city: Shelby, state: nc, zip: '28150'}
  place: '3761200'
  geo: {lat: 35.27796, lng: -81.53265}
  phone: 704-482-8282
  website: https://www.kintegra.org
  external_ids: {bphc: BPS-H80-040176}
  sources:
  - hrsa/health-center-sites
  verified: {'on': '2026-07-19', method: api}
- id: nc/shelby/mama-lissa-s-tiny-tot-university
  name: Mama Lissa's Tiny Tot University
  categories:
  - child-care
  address:
    street: 107 Valentine Dr
    city: Shelby
    state: nc
    zip: '28152'
  place: '3761200'
  geo:
    lat: 35.25914
    lng: -81.46461
  phone: 704-476-0089
  sources:
  - acf/head-start-locations
  verified:
    'on': '2026-07-19'
    method: api
- id: nc/shelby/monarch-cleveland
  name: Monarch Cleveland
  categories:
  - su-treatment
  - mh-treatment
  address:
    street: 201 West Marion Street
    city: Shelby
    state: nc
    zip: '28150'
  place: '3761200'
  geo:
    lat: 35.2918
    lng: -81.54259
  phone: 866-272-7826
  website: https://www.monarchnc.org
  services:
  - Outpatient
  - Regular outpatient treatment
  - Clients with co-occurring mental and substance use disorders
  cost: varies
  sources:
  - samhsa/findtreatment
  verified:
    'on': '2026-07-19'
    method: api
- id: nc/shelby/ncm-shelby-middle
  name: Ncm Shelby Middle
  categories:
  - meal-program
  address:
    street: 1480 South Dekalb Street
    city: Shelby
    state: nc
    zip: '28152'
  description: Free summer meals for kids and teens (2026 season) — sponsored by Cleveland County Schools.
  place: '3761200'
  geo:
    lat: 35.26343
    lng: -81.54955
  phone: (704) 476-8000
  external_ids:
    usda_master: Cycle 06_NC_SFSP_1355
  sources:
  - usda/summer-meal-sites
  verified:
    'on': '2026-07-19'
    method: api
- id: nc/shelby/play-palace
  name: Play Palace
  categories:
  - child-care
  address:
    street: 827 Earl Rd
    city: Shelby
    state: nc
    zip: '28152'
  place: '3761200'
  geo:
    lat: 35.2716
    lng: -81.52488
  phone: 704-482-3066
  sources:
  - acf/head-start-locations
  verified:
    'on': '2026-07-19'
    method: api
- id: nc/shelby/preferred-choice-healthcare
  name: Preferred Choice Healthcare
  categories:
  - su-treatment
  - mh-treatment
  address:
    street: 116 Lee Street
    city: Shelby
    state: nc
    zip: '28150'
  place: '3761200'
  geo:
    lat: 35.30063
    lng: -81.54126
  phone: 704-487-4000
  website: https://www.pchnc.com
  services:
  - Outpatient
  - Young adults
  - Seniors or older adults
  - Veterans
  - Active duty military
  - Members of military families
  - Criminal justice (other than DUI/DWI)/Forensic clients
  - Clients with co-occurring mental and substance use disorders
  - Clients with HIV or AIDS
  - Clients who have experienced intimate partner violence, domestic violence
  - Clients who have experienced trauma
  - Persons with traumatic brain injury (TBI)
  - Persons with Alzheimer's or dementia
  - Persons with eating disorders
  cost: varies
  sources:
  - samhsa/findtreatment
  verified:
    'on': '2026-07-19'
    method: api
- id: nc/shelby/restoration-learning-academy
  name: Restoration Learning Academy
  categories:
  - child-care
  address:
    street: 414 Millsap Rd
    city: Shelby
    state: nc
    zip: '28150'
  place: '3761200'
  geo:
    lat: 35.29539
    lng: -81.47836
  phone: 704-471-2495
  sources:
  - acf/head-start-locations
  verified:
    'on': '2026-07-19'
    method: api
- id: nc/shelby/royal-priesthood-biker-church-pantry
  name: Royal Priesthood Biker Church Pantry
  categories:
  - food-pantry
  place: '3761200'
  geo:
    lat: 35.28987
    lng: -81.54064
  external_ids:
    lfp: '2894'
  sources:
  - littlefreepantry/map
  verified:
    'on': '2026-07-19'
    method: scrape
- id: nc/shelby/senior-tlc-shelby
  name: Senior TLC - Shelby
  categories:
  - community-health-center
  cost: sliding-scale
  address: {street: 103 T R Harris Dr, city: Shelby, state: nc, zip: '28150'}
  place: '3761200'
  geo: {lat: 35.31705, lng: -81.51973}
  phone: 704-874-0600
  website: https://www.kintegra.org
  external_ids: {bphc: BPS-H80-038483}
  sources:
  - hrsa/health-center-sites
  verified: {'on': '2026-07-19', method: api}
- id: nc/shelby/shelby-comprehensive-treatment-center
  name: Shelby Comprehensive Treatment Center
  categories:
  - su-treatment
  address:
    street: 1895 East Dixon Boulevard
    city: Shelby
    state: nc
    zip: '28152'
  place: '3761200'
  geo:
    lat: 35.26869
    lng: -81.48639
  phone: 980-306-4201
  website: https://www.ctcprograms.com/location/shelby-comprehensive-treatment-center/
  services:
  - Outpatient
  - Outpatient methadone/buprenorphine or naltrexone treatment
  - Adult women
  - Pregnant/postpartum women
  - Adult men
  - Seniors or older adults
  - Veterans
  - Active duty military
  - Members of military families
  - Clients with co-occurring mental and substance use disorders
  - Clients who have experienced sexual abuse
  - Clients who have experienced intimate partner violence, domestic violence
  - Clients who have experienced trauma
  cost: varies
  sources:
  - samhsa/findtreatment
  verified:
    'on': '2026-07-19'
    method: api
- id: nc/shelby/township-three
  name: Township Three
  categories:
  - child-care
  address:
    street: 526 Davis Rd
    city: Shelby
    state: nc
    zip: '28152'
  place: '3761200'
  geo:
    lat: 35.2181
    lng: -81.53216
  phone: 704-476-8245
  sources:
  - acf/head-start-locations
  verified:
    'on': '2026-07-19'
    method: api
- id: nc/shelby/turning-point-academy
  name: Turning Point Academy
  categories:
  - meal-program
  address:
    street: 409 West Sumter Street
    city: Shelby
    state: nc
    zip: '28150'
  description: Free summer meals for kids and teens (2026 season) — sponsored by Cleveland County Schools.
  place: '3761200'
  geo:
    lat: 35.2935
    lng: -81.5455
  phone: (704) 476-8000
  external_ids:
    usda_master: Cycle 06_NC_SFSP_1337
  sources:
  - usda/summer-meal-sites
  verified:
    'on': '2026-07-19'
    method: api
- id: nc/shelby/washington-elementary-school
  name: Washington Elementary School
  categories:
  - child-care
  address:
    street: 1907 Stony Point Rd
    city: Shelby
    state: nc
    zip: '28150'
  place: '3761200'
  geo:
    lat: 35.33582
    lng: -81.42239
  phone: 704-476-8260
  sources:
  - acf/head-start-locations
  verified:
    'on': '2026-07-19'
    method: api
