- id: nc/sylva/appalachian-mountain-health-at-sylva
  name: Appalachian Mountain Health at Sylva
  categories:
  - community-health-center
  address:
    street: 154 Medical Park Loop
    city: Sylva
    state: nc
    zip: '28779'
  place: '3766500'
  geo:
    lat: 35.38778
    lng: -83.20172
  phone: 828-307-0900
  website: https://www.amchc.org
  external_ids:
    bphc: BPS-H80-034772
  sources:
  - hrsa/health-center-sites
  verified:
    'on': '2026-07-19'
    method: api
- id: nc/sylva/blue-ridge-health-fairview-school
  name: Blue Ridge Health-Fairview School
  categories:
  - community-health-center
  address:
    street: 251 Big Orange Way
    city: Sylva
    state: nc
    zip: '28779'
  place: '3766500'
  geo:
    lat: 35.35587
    lng: -83.1947
  phone: 828-586-2819
  external_ids:
    bphc: BPS-H80-027771
  sources:
  - hrsa/health-center-sites
  verified:
    'on': '2026-07-19'
    method: api
- id: nc/sylva/blue-ridge-health-meridian-bonnie-lane
  name: Blue Ridge Health - Meridian Bonnie Lane
  categories:
  - community-health-center
  address:
    street: 44 Bonnie Ln
    city: Sylva
    state: nc
    zip: '28779'
  place: '3766500'
  geo:
    lat: 35.35061
    lng: -83.20753
  phone: 828-631-3973
  external_ids:
    bphc: BPS-H80-034901
  sources:
  - hrsa/health-center-sites
  verified:
    'on': '2026-07-19'
    method: api
- id: nc/sylva/blue-ridge-health-scott-s-creek-elementary-schoo
  name: Blue Ridge Health - Scott's Creek Elementary School
  categories:
  - community-health-center
  address:
    street: 516 Parris Branch Rd
    city: Sylva
    state: nc
    zip: '28779'
  place: '3766500'
  geo:
    lat: 35.40909
    lng: -83.17784
  phone: 828-631-2740
  external_ids:
    bphc: BPS-H80-041034
  sources:
  - hrsa/health-center-sites
  verified:
    'on': '2026-07-19'
    method: api
- id: nc/sylva/blue-ridge-health-smoky-mountain-high-school
  name: Blue Ridge Health-Smoky Mountain High School
  categories:
  - community-health-center
  address:
    street: 100 Smoky Mountain Dr
    city: Sylva
    state: nc
    zip: '28779'
  place: '3766500'
  geo:
    lat: 35.35356
    lng: -83.19958
  phone: 828-586-2177
  external_ids:
    bphc: BPS-H80-027770
  sources:
  - hrsa/health-center-sites
  verified:
    'on': '2026-07-19'
    method: api
- id: nc/sylva/fairview
  name: Fairview
  categories:
  - child-care
  address:
    street: 453 Fairview Rd
    city: Sylva
    state: nc
    zip: '28779'
  place: '3766500'
  geo:
    lat: 35.3552
    lng: -83.19506
  phone: 828-586-4245
  sources:
  - acf/head-start-locations
  verified:
    'on': '2026-07-19'
    method: api
- id: nc/sylva/jackson-county-department-of-social-services
  name: Jackson County Department of Social Services
  categories:
  - utility-assistance
  description: LIHEAP intake office serving Jackson County
  address: {street: 15 Griffin Street, city: Sylva, state: nc, zip: '28779'}
  place: '3766500'
  phone: 828-586-5546
  website: http://www.jcdss.org
  sources:
  - acf/liheap-clearinghouse
  verified: {'on': '2026-07-19', method: scrape}
- id: nc/sylva/sylva-health-center
  name: Sylva Health Center
  categories:
  - community-health-center
  address:
    street: 293 Hospital Rd
    city: Sylva
    state: nc
    zip: '28779'
  place: '3766500'
  geo:
    lat: 35.38572
    lng: -83.2051
  phone: 828-692-4280
  website: https://www.brchs.com
  external_ids:
    bphc: BPS-H80-019436
  sources:
  - hrsa/health-center-sites
  verified:
    'on': '2026-07-19'
    method: api
- id: nc/sylva/sylva-s-free-little-pantry
  name: Sylva's Free Little Pantry
  categories:
  - food-pantry
  place: '3766500'
  geo:
    lat: 35.37445
    lng: -83.2232
  external_ids:
    lfp: '325'
  sources:
  - littlefreepantry/map
  verified:
    'on': '2026-07-19'
    method: scrape
- id: nc/sylva/sylva-support-stop
  name: Sylva Support Stop
  categories:
  - food-pantry
  place: '3766500'
  geo:
    lat: 35.37433
    lng: -83.22511
  external_ids:
    lfp: '2818'
  sources:
  - littlefreepantry/map
  verified:
    'on': '2026-07-19'
    method: scrape
- id: nc/sylva/sylvas-free-little-pantry
  name: Sylva’s Free Little Pantry
  categories:
  - food-pantry
  place: '3766500'
  geo:
    lat: 35.37445
    lng: -83.2232
  external_ids:
    lfp: '3764'
  sources:
  - littlefreepantry/map
  verified:
    'on': '2026-07-19'
    method: scrape
