- id: nc/weldon/cada-head-start-at-halifax-community-college
  name: CADA Head Start at Halifax Community College
  categories:
  - child-care
  address: {street: 100 College Dr, city: Weldon, state: nc, zip: '27890'}
  description: Head Start early childhood program — 45 funded slots; operated by CHOANOKE AREA DEVELOPMENT
    ASSOCIATION, INC.
  place: '3771780'
  geo: {lat: 36.42843, lng: -77.61791}
  phone: 252-536-6385
  sources:
  - acf/head-start-locations
  verified: {'on': '2026-07-19', method: api}
- id: nc/weldon/ncm-beech-court
  name: Ncm Beech Court
  categories:
  - meal-program
  address: {street: 102 Beech Court, city: Weldon, state: nc, zip: '27890'}
  description: Free summer meals for kids and teens (2026 season) — sponsored by Weldon City Schools.
  place: '3771780'
  geo: {lat: 36.41563, lng: -77.59979}
  phone: (252) 536-4821
  external_ids: {usda_master: Cycle 06_NC_SFSP_0345}
  sources:
  - usda/summer-meal-sites
  verified: {'on': '2026-07-19', method: api}
- id: nc/weldon/ncm-cypress-court
  name: Ncm Cypress Court
  categories:
  - meal-program
  address: {street: 119 Cypress Court, city: Weldon, state: nc, zip: '27890'}
  description: Free summer meals for kids and teens (2026 season) — sponsored by Weldon City Schools.
  place: '3771780'
  geo: {lat: 36.41485, lng: -77.59851}
  phone: (252) 536-4821
  external_ids: {usda_master: Cycle 06_NC_SFSP_0346}
  sources:
  - usda/summer-meal-sites
  verified: {'on': '2026-07-19', method: api}
- id: nc/weldon/ncm-holly-court
  name: Ncm Holly Court
  categories:
  - meal-program
  address: {street: 101 Holly Court, city: Weldon, state: nc, zip: '27890'}
  description: Free summer meals for kids and teens (2026 season) — sponsored by Weldon City Schools.
  place: '3771780'
  geo: {lat: 36.41532, lng: -77.59797}
  phone: (252) 536-4821
  external_ids: {usda_master: Cycle 06_NC_SFSP_0347}
  sources:
  - usda/summer-meal-sites
  verified: {'on': '2026-07-19', method: api}
- id: nc/weldon/ncm-spruce-court
  name: Ncm Spruce Court
  categories:
  - meal-program
  address: {street: 101 Spruce Court, city: Weldon, state: nc, zip: '27890'}
  description: Free summer meals for kids and teens (2026 season) — sponsored by Weldon City Schools.
  place: '3771780'
  geo: {lat: 36.41594, lng: -77.59923}
  phone: (252) 536-4821
  external_ids: {usda_master: Cycle 06_NC_SFSP_0348}
  sources:
  - usda/summer-meal-sites
  verified: {'on': '2026-07-19', method: api}
- id: nc/weldon/roanoke-valley-early-college
  name: Roanoke Valley Early College
  categories:
  - meal-program
  address: {street: 100 College Dr., city: Weldon, state: nc, zip: '27890'}
  description: Free summer meals for kids and teens (2026 season) — sponsored by Weldon City Schools.
  place: '3771780'
  geo: {lat: 36.42925, lng: -77.61893}
  phone: (252) 536-4821
  external_ids: {usda_master: Cycle 06_NC_SFSP_0343}
  sources:
  - usda/summer-meal-sites
  verified: {'on': '2026-07-19', method: api}
- id: nc/weldon/rural-health-group-at-halifax-community-college
  name: Rural Health Group at Halifax Community College
  categories:
  - community-health-center
  cost: sliding-scale
  address: {street: 100 College Dr, city: Weldon, state: nc, zip: '27890'}
  place: '3771780'
  geo: {lat: 36.42894, lng: -77.61884}
  phone: 252-578-8685
  website: https://www.rhgnc.org
  external_ids: {bphc: BPS-H80-021767}
  sources:
  - hrsa/health-center-sites
  verified: {'on': '2026-07-19', method: api}
- id: nc/weldon/weldon
  name: Weldon
  categories:
  - child-care
  address: {street: 805 Washington Ave, city: Weldon, state: nc, zip: '27890'}
  description: Head Start early childhood program — 31 funded slots; operated by CHOANOKE AREA DEVELOPMENT
    ASSOCIATION, INC.
  place: '3771780'
  geo: {lat: 36.42103, lng: -77.60053}
  phone: 252-536-4815
  sources:
  - acf/head-start-locations
  verified: {'on': '2026-07-19', method: api}
- id: nc/weldon/weldon-day-care-center
  name: Weldon Day Care Center
  categories:
  - child-care
  address: {street: 1505 Washington Ave, city: Weldon, state: nc, zip: '27890'}
  description: Head Start early childhood program — 16 funded slots; operated by CHOANOKE AREA DEVELOPMENT
    ASSOCIATION, INC.
  place: '3771780'
  geo: {lat: 36.40846, lng: -77.60342}
  phone: 252-536-2409
  sources:
  - acf/head-start-locations
  verified: {'on': '2026-07-19', method: api}
- id: nc/weldon/weldon-elementary-open-site
  name: Weldon Elementary-Open Site
  categories:
  - meal-program
  address: {street: 805 Washington Ave, city: Weldon, state: nc, zip: '27890'}
  description: Free summer meals for kids and teens (2026 season) — sponsored by Weldon City Schools.
  place: '3771780'
  geo: {lat: 36.42088, lng: -77.60043}
  phone: (252) 536-4821
  external_ids: {usda_master: Cycle 06_NC_SFSP_0344}
  sources:
  - usda/summer-meal-sites
  verified: {'on': '2026-07-19', method: api}
