- id: ak/bethel/aniak-sub-regional-clinic
  name: ANIAK SUB-REGIONAL CLINIC
  categories:
  - community-health-center
  address:
    street: Morgan Rd
    city: Bethel
    state: ak
    zip: '99559'
  place: '0206520'
  geo:
    lat: 61.56977
    lng: -159.53955
  phone: 907-675-4556
  website: https://WWW.YKHC.ORG
  external_ids:
    bphc: BPS-H80-001421
  sources:
  - hrsa/health-center-sites
  verified:
    'on': '2026-07-19'
    method: api
- id: ak/bethel/bethel-evangelical-covenant-church
  name: Bethel Evangelical Covenant Church
  categories:
  - meal-program
  address: {street: 519 Mission Drive, city: Bethel, state: ak, zip: '99559'}
  description: Free summer meals for kids and teens (2026 season) — sponsored by Food Bank of Alaska.
  place: '0206520'
  geo: {lat: 60.7963, lng: -161.77833}
  phone: (907) 589-6365
  external_ids: {usda_master: Cycle 06_AK_SFSP_0008}
  sources:
  - usda/summer-meal-sites
  verified: {'on': '2026-07-19', method: api}
- id: ak/bethel/bethel-family-clinic
  name: Bethel Family Clinic
  categories:
  - su-treatment
  - mh-treatment
  address:
    street: 430 Main Street
    city: Bethel
    state: ak
    zip: '99559'
  place: '0206520'
  geo:
    lat: 60.79615
    lng: -161.7625
  phone: 907-543-3773
  website: https://Bethelfamilyclinic.org
  sources:
  - samhsa/findtreatment
  verified:
    'on': '2026-07-19'
    method: api
- id: ak/bethel/bethel-family-clinic-dental-clinic-administratio
  name: Bethel Family Clinic - Dental Clinic / Administration
  categories:
  - community-health-center
  address:
    street: 4th Ave
    city: Bethel
    state: ak
    zip: '99559'
  place: '0206520'
  geo:
    lat: 60.79598
    lng: -161.76306
  phone: 907-543-3773
  website: https://www.bethelfamilyclinic.org
  external_ids:
    bphc: BPS-H80-004286
  sources:
  - hrsa/health-center-sites
  verified:
    'on': '2026-07-19'
    method: api
- id: ak/bethel/bethel-family-clinic-medical-behavioral-health-c
  name: Bethel Family Clinic - Medical / Behavioral Health Clinic
  categories:
  - community-health-center
  address:
    street: 430 Main St
    city: Bethel
    state: ak
    zip: '99559'
  place: '0206520'
  geo:
    lat: 60.79583
    lng: -161.762
  phone: 907-543-3773
  external_ids:
    bphc: BPS-H80-027175
  sources:
  - hrsa/health-center-sites
  verified:
    'on': '2026-07-19'
    method: api
- id: ak/bethel/bethel-head-start-class
  name: Bethel Head Start Class
  categories:
  - child-care
  address:
    street: 161 Atsaq
    street2: 161 Atsaq
    city: Bethel
    state: ak
    zip: '99559'
  place: '0206520'
  geo:
    lat: 60.80386
    lng: -161.78221
  phone: 907-543-8590
  sources:
  - acf/head-start-locations
  verified:
    'on': '2026-07-19'
    method: api
- id: ak/bethel/newtok-clinic
  name: Newtok Clinic
  categories:
  - community-health-center
  address:
    street: '#1 Clinic Road'
    city: Bethel
    state: ak
    zip: '99559'
  place: '0206520'
  geo:
    lat: 60.9394
    lng: -164.632
  phone: 907-237-2314
  website: https://www.ykhc.org
  external_ids:
    bphc: BPS-H80-002593
  sources:
  - hrsa/health-center-sites
  verified:
    'on': '2026-07-19'
    method: api
- id: ak/bethel/yukon-kuskokwim-health-corporation
  name: YUKON-KUSKOKWIM HEALTH CORPORATION
  categories:
  - community-health-center
  address:
    street: 829 Chief Eddie Hoffman Way
    city: Bethel
    state: ak
    zip: '99559'
  place: '0206520'
  geo:
    lat: 60.78985
    lng: -161.77482
  phone: 907-478-8905
  website: https://www.ykhc.org
  external_ids:
    bphc: BPS-H80-000908
  sources:
  - hrsa/health-center-sites
  verified:
    'on': '2026-07-19'
    method: api
