- id: ak/kenai/cook-inlet-counseling-outpatient
  name: Cook Inlet Counseling Outpatient
  categories:
  - su-treatment
  - mh-treatment
  address:
    street: 10200 Kenai Spur Highway
    city: Kenai
    state: ak
    zip: '99611'
  place: 0238420
  geo:
    lat: 60.56184
    lng: -151.22902
  phone: 907-283-3658
  website: https://www.cookinletcounseling.org
  sources:
  - samhsa/findtreatment
  verified:
    'on': '2026-07-19'
    method: api
- id: ak/kenai/kenai-clubhouse-kenai-alt-h-school
  name: Kenai Clubhouse - Kenai Alt. H.School
  categories:
  - meal-program
  address: {street: 320 S. Spruce St, city: Kenai, state: ak, zip: '99611'}
  description: Free summer meals for kids and teens (2026 season) — sponsored by Boys and Girls Clubs
    of the Kenai Peninsula.
  place: 0238420
  geo: {lat: 60.55576, lng: -151.27079}
  phone: (907) 513-7686
  external_ids: {usda_master: Cycle 01A_SFSP_AK_0005}
  sources:
  - usda/summer-meal-sites
  verified: {'on': '2026-07-19', method: api}
- id: ak/kenai/kenai-community-library
  name: Kenai Community Library
  categories:
  - meal-program
  address: {street: 163 Main Street Loop, city: Kenai, state: ak, zip: '99611'}
  description: Free summer meals for kids and teens (2026 season) — sponsored by Food Bank of Alaska.
  place: 0238420
  geo: {lat: 60.55947, lng: -151.24753}
  phone: (907) 283-8210
  external_ids: {usda_master: Cycle 03_AK_SFSP_0006}
  sources:
  - usda/summer-meal-sites
  verified: {'on': '2026-07-19', method: api}
- id: ak/kenai/kenai-pantry
  name: Kenai Pantry
  categories:
  - food-pantry
  place: 0238420
  geo:
    lat: 60.55418
    lng: -151.25222
  external_ids:
    lfp: '5006'
  sources:
  - littlefreepantry/map
  verified:
    'on': '2026-07-19'
    method: scrape
- id: ak/kenai/kenai-teen-center
  name: Kenai Teen Center
  categories:
  - meal-program
  address: {street: 227 Caviar Street, city: Kenai, state: ak, zip: '99611'}
  description: Free summer meals for kids and teens (2026 season) — sponsored by Boys and Girls Clubs
    of the Kenai Peninsula.
  place: 0238420
  geo: {lat: 60.55623, lng: -151.24908}
  phone: (907) 513-7213
  external_ids: {usda_master: Cycle 01_AK_SFSP_0006}
  sources:
  - usda/summer-meal-sites
  verified: {'on': '2026-07-19', method: api}
- id: ak/kenai/kenaitze-kahtnuht-ana-duhdeldiht-campus
  name: Kenaitze Kahtnuht'ana Duhdeldiht Campus
  categories:
  - child-care
  address:
    street: 12271 Kenai Spur Hwy
    city: Kenai
    state: ak
    zip: '99611'
  place: 0238420
  geo:
    lat: 60.55975
    lng: -151.27858
  phone: 907-335-7260
  sources:
  - acf/head-start-locations
  verified:
    'on': '2026-07-19'
    method: api
- id: ak/kenai/pchs-kenai-medical-and-behavioral-health-center
  name: PCHS - KENAI MEDICAL AND BEHAVIORAL HEALTH CENTER
  categories:
  - community-health-center
  address:
    street: 805 Frontage Rd
    city: Kenai
    state: ak
    zip: '99611'
  place: 0238420
  geo:
    lat: 60.55394
    lng: -151.25805
  phone: 907-260-7300
  website: https://WWW.PCHSAK.ORG
  external_ids:
    bphc: BPS-H80-015445
  sources:
  - hrsa/health-center-sites
  verified:
    'on': '2026-07-19'
    method: api
- id: ak/kenai/peninsula-community-health-services-kenai
  name: Peninsula Community Health Services Kenai
  categories:
  - su-treatment
  - mh-treatment
  address:
    street: 805 Frontage Road
    city: Kenai
    state: ak
    zip: '99611'
  place: 0238420
  geo:
    lat: 60.55402
    lng: -151.2577
  phone: 907-260-7300
  website: https://www.pchsak.org
  sources:
  - samhsa/findtreatment
  verified:
    'on': '2026-07-19'
    method: api
- id: ak/kenai/peninsula-community-health-services-of-alaska-de
  name: Peninsula Community Health Services of Alaska - Dental
  categories:
  - community-health-center
  address:
    street: 395 Main Street Loop
    city: Kenai
    state: ak
    zip: '99611'
  place: 0238420
  geo:
    lat: 60.55763
    lng: -151.25614
  phone: 907-283-7759
  website: https://www.pchsak.org
  external_ids:
    bphc: BPS-H80-005568
  sources:
  - hrsa/health-center-sites
  verified:
    'on': '2026-07-19'
    method: api
- id: ak/kenai/peninsula-community-health-services-of-kenai
  name: Peninsula Community Health Services of Kenai
  categories:
  - su-treatment
  address:
    street: 805 Frontage Road
    city: Kenai
    state: ak
    zip: '99611'
  place: 0238420
  geo:
    lat: 60.55402
    lng: -151.2577
  phone: 907-260-7300
  website: https://www.pchsak.org
  sources:
  - samhsa/findtreatment
  verified:
    'on': '2026-07-19'
    method: api
