- id: md/bethesda/bethesda-little-free-pantry
  name: Bethesda Little Free Pantry
  categories:
  - food-pantry
  place: '2407125'
  geo:
    lat: 38.99288
    lng: -77.10813
  external_ids:
    lfp: '2137'
  sources:
  - littlefreepantry/map
  verified:
    'on': '2026-07-19'
    method: scrape
- id: md/bethesda/bloom-health-center
  name: Bloom Health Center
  categories:
  - su-treatment
  - mh-treatment
  address:
    street: 4520 East West Highway
    city: Bethesda
    state: md
    zip: '20814'
  place: '2407125'
  geo:
    lat: 38.98467
    lng: -77.09197
  phone: 703-594-7879
  website: https://www.bloomhealthcenters.com
  sources:
  - samhsa/findtreatment
  verified:
    'on': '2026-07-19'
    method: api
- id: md/bethesda/care-clinic
  name: Care Clinic
  categories:
  - su-treatment
  - mh-treatment
  address:
    street: 4701 Sangamore Road
    city: Bethesda
    state: md
    zip: '20816'
  place: '2407125'
  geo:
    lat: 38.94997
    lng: -77.11939
  phone: 844-782-6963
  website: https://www.careclinicmd.com
  sources:
  - samhsa/findtreatment
  verified:
    'on': '2026-07-19'
    method: api
- id: md/bethesda/cornerstone-montgomery
  name: Cornerstone Montgomery
  categories:
  - su-treatment
  - mh-treatment
  address:
    street: 6040 Southport Drive
    city: Bethesda
    state: md
    zip: '20814'
  place: '2407125'
  geo:
    lat: 39.02149
    lng: -77.12216
  phone: 301-493-4200
  website: https://www.cornerstonemontgomery.org
  sources:
  - samhsa/findtreatment
  verified:
    'on': '2026-07-19'
    method: api
- id: md/bethesda/counseling-center-of-maryland
  name: Counseling Center of Maryland
  categories:
  - su-treatment
  - mh-treatment
  address:
    street: 8030 Woodmont Avenue
    city: Bethesda
    state: md
    zip: '20814'
  place: '2407125'
  geo:
    lat: 38.9905
    lng: -77.09672
  phone: 301-742-2282
  website: https://www.counselingcenterofmaryland.com/
  sources:
  - samhsa/findtreatment
  verified:
    'on': '2026-07-19'
    method: api
- id: md/bethesda/jhh-suburban-hospital-addiction-treatment-center
  name: JHH Suburban Hospital Addiction Treatment Center
  categories:
  - su-treatment
  address:
    street: 6410 Rockledge Drive
    city: Bethesda
    state: md
    zip: '20817'
  place: '2407125'
  geo:
    lat: 39.02396
    lng: -77.13369
  phone: 301-896-2036
  website: https://www.hopkinsmedicine.org/suburban_hospital/
  sources:
  - samhsa/findtreatment
  verified:
    'on': '2026-07-19'
    method: api
- id: md/bethesda/national-institutes-of-health-hatfield-clinical
  name: National Institutes of Health Hatfield Clinical Research Center
  categories:
  - su-treatment
  address:
    street: 10 Center Drive
    city: Bethesda
    state: md
    zip: '20892'
  place: '2407125'
  geo:
    lat: 39.00121
    lng: -77.10479
  phone: 301-451-6964
  website: https://niaaa.nih.gov
  sources:
  - samhsa/findtreatment
  verified:
    'on': '2026-07-19'
    method: api
- id: md/bethesda/pre-discharge-site-at-walter-reed-national-milit
  name: Pre-Discharge Site at Walter Reed National Military Medical Center
  categories:
  - va-facility
  description: Pre-Discharge Site
  address:
    street: 8901 Wisconsin Ave, Bldg 11, Room 226
    city: Bethesda
    state: md
    zip: '20889'
  place: '2407125'
  geo:
    lat: 39.00206
    lng: -77.08985
  phone: 800-827-1000
  services:
  - PreDischargeClaimAssistance
  external_ids:
    va: vba_372l
  sources:
  - va/facilities-api
  verified:
    'on': '2026-07-19'
    method: api
- id: md/bethesda/suburban-hospital-behavioral-health-services
  name: Suburban Hospital Behavioral Health Services
  categories:
  - su-treatment
  - mh-treatment
  address:
    street: 8600 Old Georgetown Road
    city: Bethesda
    state: md
    zip: '20814'
  place: '2407125'
  geo:
    lat: 38.99781
    lng: -77.11041
  phone: 301-896-3282 x3629
  website: https://www.hopkinsmedicine.org/suburban_hospital/
  sources:
  - samhsa/findtreatment
  verified:
    'on': '2026-07-19'
    method: api
