- id: md/catonsville/empowering-mindz
  name: Empowering Mindz
  categories:
  - su-treatment
  address:
    street: 583 Frederick Road
    city: Catonsville
    state: md
    zip: '21228'
  place: '2414125'
  geo:
    lat: 39.27254
    lng: -76.72811
  phone: 443-341-6332
  website: https://www.empoweringmindz.com
  sources:
  - samhsa/findtreatment
  verified:
    'on': '2026-07-19'
    method: api
- id: md/catonsville/esno-health-group-llc
  name: Esno Health Group LLC
  categories:
  - su-treatment
  - mh-treatment
  address:
    street: 5740 Executive Drive
    city: Catonsville
    state: md
    zip: '21228'
  place: '2414125'
  geo:
    lat: 39.28339
    lng: -76.73227
  phone: 410-595-5980
  website: https://www.esnohealthgroup.com
  sources:
  - samhsa/findtreatment
  verified:
    'on': '2026-07-19'
    method: api
- id: md/catonsville/key-point-health-services-inc-outpatient-clinic
  name: Key Point Health Services Inc Outpatient Clinic
  categories:
  - su-treatment
  - mh-treatment
  address:
    street: 500 North Rolling Road
    city: Catonsville
    state: md
    zip: '21228'
  place: '2414125'
  geo:
    lat: 39.27984
    lng: -76.75482
  phone: 410-788-0300
  website: https://www.keypoint.org
  sources:
  - samhsa/findtreatment
  verified:
    'on': '2026-07-19'
    method: api
- id: md/catonsville/mellor-ave-pantry
  name: Mellor Ave Pantry
  categories:
  - food-pantry
  place: '2414125'
  geo:
    lat: 39.26763
    lng: -76.73273
  external_ids:
    lfp: '4699'
  sources:
  - littlefreepantry/map
  verified:
    'on': '2026-07-19'
    method: scrape
- id: md/catonsville/oasis-health-services-llc
  name: Oasis Health Services LLC
  categories:
  - su-treatment
  - mh-treatment
  address:
    street: 516 North Rolling Road
    city: Catonsville
    state: md
    zip: '21228'
  place: '2414125'
  geo:
    lat: 39.28059
    lng: -76.75489
  phone: 470-802-6838
  website: https://oasishealthservices.com
  sources:
  - samhsa/findtreatment
  verified:
    'on': '2026-07-19'
    method: api
- id: md/catonsville/outreach-recovery-ii
  name: Outreach Recovery II
  categories:
  - su-treatment
  - mh-treatment
  address:
    street: 716 Maiden Choice Lane
    city: Catonsville
    state: md
    zip: '21228'
  place: '2414125'
  geo:
    lat: 39.26761
    lng: -76.70587
  phone: 410-800-4466
  website: https://www.outreachrecovery.com/
  sources:
  - samhsa/findtreatment
  verified:
    'on': '2026-07-19'
    method: api
- id: md/catonsville/petro-health-llc
  name: Petro Health LLC
  categories:
  - su-treatment
  address:
    street: 724 Maiden Choice Lane
    city: Catonsville
    state: md
    zip: '21228'
  place: '2414125'
  geo:
    lat: 39.26763
    lng: -76.70523
  phone: 410-216-0206
  website: https://
  sources:
  - samhsa/findtreatment
  verified:
    'on': '2026-07-19'
    method: api
- id: md/catonsville/process-of-changes-inc
  name: Process of Changes Inc
  categories:
  - su-treatment
  - mh-treatment
  address:
    street: 1000 Ingleside Avenue
    city: Catonsville
    state: md
    zip: '21228'
  place: '2414125'
  geo:
    lat: 39.29146
    lng: -76.73147
  phone: 443-551-3784
  website: https://
  sources:
  - samhsa/findtreatment
  verified:
    'on': '2026-07-19'
    method: api
- id: md/catonsville/y-head-start-emily-harris-center
  name: Y Head Start, Emily Harris Center
  categories:
  - child-care
  address:
    street: 27 Main Ave
    city: Catonsville
    state: md
    zip: '21228'
  place: '2414125'
  geo:
    lat: 39.28049
    lng: -76.74037
  phone: 410-801-1650
  sources:
  - acf/head-start-locations
  verified:
    'on': '2026-07-19'
    method: api
