- id: md/federalsburg/col-richardson-high-school
  name: COL. RICHARDSON HIGH SCHOOL
  categories:
  - community-health-center
  address:
    street: 25320 Richardson Rd
    city: Federalsburg
    state: md
    zip: '21632'
  place: '2427900'
  geo:
    lat: 38.75478
    lng: -75.82826
  phone: 410-754-5575
  website: https://www.choptankhealth.org
  external_ids:
    bphc: BPS-H80-007254
  sources:
  - hrsa/health-center-sites
  verified:
    'on': '2026-07-19'
    method: api
- id: md/federalsburg/colonel-richardson-middle-school
  name: COLONEL RICHARDSON MIDDLE SCHOOL
  categories:
  - community-health-center
  address:
    street: 25390 Richardson Rd
    city: Federalsburg
    state: md
    zip: '21632'
  place: '2427900'
  geo:
    lat: 38.75482
    lng: -75.8256
  phone: 410-754-5854
  website: https://www.choptankhealth.org
  external_ids:
    bphc: BPS-H80-006196
  sources:
  - hrsa/health-center-sites
  verified:
    'on': '2026-07-19'
    method: api
- id: md/federalsburg/corsica-river-mental-health-services
  name: Corsica River Mental Health Services
  categories:
  - su-treatment
  address:
    street: 332 North Main Street
    city: Federalsburg
    state: md
    zip: '21632'
  place: '2427900'
  geo:
    lat: 38.69757
    lng: -75.77676
  phone: 410-758-2211
  website: https://www.crmhsinc.com
  sources:
  - samhsa/findtreatment
  verified:
    'on': '2026-07-19'
    method: api
- id: md/federalsburg/federalsburg-elementary-school
  name: FEDERALSBURG ELEMENTARY SCHOOL
  categories:
  - community-health-center
  address:
    street: 302 Academy Ave
    city: Federalsburg
    state: md
    zip: '21632'
  place: '2427900'
  geo:
    lat: 38.6913
    lng: -75.77617
  phone: 410-754-5722
  website: https://www.choptankhealth.org
  external_ids:
    bphc: BPS-H80-006434
  sources:
  - hrsa/health-center-sites
  verified:
    'on': '2026-07-19'
    method: api
- id: md/federalsburg/federalsburg-health-center
  name: Federalsburg Health Center
  categories:
  - community-health-center
  address:
    street: 320 Hargraves Dr
    city: Federalsburg
    state: md
    zip: '21632'
  place: '2427900'
  geo:
    lat: 38.69903
    lng: -75.78649
  phone: 410-754-9021
  website: https://choptankhealth.org
  external_ids:
    bphc: BPS-H80-033751
  sources:
  - hrsa/health-center-sites
  verified:
    'on': '2026-07-19'
    method: api
- id: md/federalsburg/mrdc-head-start-federalsburg-center
  name: MRDC Head Start - Federalsburg Center
  categories:
  - child-care
  address:
    street: 26245 Williamsburg Rd
    city: Federalsburg
    state: md
    zip: '21632'
  place: '2427900'
  geo:
    lat: 38.68668
    lng: -75.79626
  phone: 410-754-3453
  sources:
  - acf/head-start-locations
  verified:
    'on': '2026-07-19'
    method: api
- id: md/federalsburg/walking-with-faith-food-pantry
  name: Walking With Faith Food Pantry
  categories:
  - food-pantry
  place: '2427900'
  geo:
    lat: 38.69488
    lng: -75.77486
  external_ids:
    lfp: '1357'
  sources:
  - littlefreepantry/map
  verified:
    'on': '2026-07-19'
    method: scrape
