- id: md/lexington-park/greater-baden-medical-service-at-pax-river
  name: Greater Baden Medical Service at Pax River
  categories:
  - community-health-center
  address:
    street: 21729 Great Mills Rd, Ste C
    city: Lexington Park
    state: md
    zip: '20653'
  place: '2446725'
  geo:
    lat: 38.26471
    lng: -76.45549
  phone: 301-888-2233
  external_ids:
    bphc: BPS-H80-039899
  sources:
  - hrsa/health-center-sites
  verified:
    'on': '2026-07-19'
    method: api
- id: md/lexington-park/greater-baden-medical-services-dental-at-lexingt
  name: Greater Baden Medical Services Dental at Lexington Park
  categories:
  - community-health-center
  address:
    street: 21921 Three Notch Rd
    city: Lexington Park
    state: md
    zip: '20653'
  place: '2446725'
  geo:
    lat: 38.26936
    lng: -76.45966
  phone: 301-836-9645
  website: https://www.gbms.org
  external_ids:
    bphc: BPS-H80-040486
  sources:
  - hrsa/health-center-sites
  verified:
    'on': '2026-07-19'
    method: api
- id: md/lexington-park/housing-authority-of-st-mary-s-county-md
  name: Housing Authority Of St. Mary'S County, Md
  categories:
  - housing-assistance
  address:
    street: 21155 Lexwood Dr Ste C
    city: Lexington Park
    state: md
    zip: '20653'
  description: Public housing and Housing Choice Voucher agency
  place: '2446725'
  geo:
    lat: 38.24841
    lng: -76.48449
  phone: 301-880-7074
  sources:
  - hud/resource-locator
  verified:
    'on': '2026-07-19'
    method: api
- id: md/lexington-park/lexington-park-va-clinic
  name: Lexington Park VA Clinic
  categories:
  - va-facility
  - health
  description: Primary Care CBOC
  address: {street: '45870 East Run Drive, East Run Center', city: Lexington Park, state: md, zip: '20653'}
  place: '2446725'
  geo: {lat: 38.25932, lng: -76.40501}
  phone: 240-237-1625
  website: https://www.va.gov/washington-dc-health-care/locations/lexington-park-va-clinic/
  hours:
  - {days: [mon, tue, wed, thu, fri], open: '07:30', close: '16:00'}
  services:
  - Dermatology
  - Laboratory and pathology
  - Mental health care
  - Nutrition, food, and dietary care
  - Pharmacy
  - Primary care
  - Social work
  - Telehealth
  - Women Veteran care
  external_ids: {va: vha_688GG}
  sources:
  - va/facilities-api
  verified: {'on': '2026-07-19', method: api}
- id: md/lexington-park/little-free-pantry-at-lexington-park-library
  name: Little Free Pantry at Lexington Park Library
  categories:
  - food-pantry
  place: '2446725'
  geo:
    lat: 38.26142
    lng: -76.45712
  external_ids:
    lfp: '648'
  sources:
  - littlefreepantry/map
  verified:
    'on': '2026-07-19'
    method: scrape
- id: md/lexington-park/little-peoples
  name: Little Peoples
  categories:
  - child-care
  address:
    street: 21161 Lexwood Dr
    city: Lexington Park
    state: md
    zip: '20653'
  place: '2446725'
  geo:
    lat: 38.24872
    lng: -76.4855
  phone: 301-866-5997
  sources:
  - acf/head-start-locations
  verified:
    'on': '2026-07-19'
    method: api
- id: md/lexington-park/outreach-recovery-ii
  name: Outreach Recovery II
  categories:
  - su-treatment
  - mh-treatment
  address:
    street: 21552 Thames Avenue
    city: Lexington Park
    state: md
    zip: '20653'
  place: '2446725'
  geo:
    lat: 38.25911
    lng: -76.44146
  phone: 410-800-4466
  website: https://www.outreachrecovery.com/
  sources:
  - samhsa/findtreatment
  verified:
    'on': '2026-07-19'
    method: api
