- id: md/nottingham/advantage-psychiatric-services-llc
  name: Advantage Psychiatric Services LLC
  categories:
  - su-treatment
  - mh-treatment
  address:
    street: 5024 Campbell Boulevard
    city: Nottingham
    state: md
    zip: '21236'
  geo:
    lat: 39.37421
    lng: -76.45637
  phone: 410-686-3629
  website: https://www.advantagepsyc.com
  sources:
  - samhsa/findtreatment
  verified:
    'on': '2026-07-19'
    method: api
- id: md/nottingham/aspire-wellness-center
  name: Aspire Wellness Center
  categories:
  - su-treatment
  - mh-treatment
  address:
    street: 5022 Campbell Boulevard
    city: Nottingham
    state: md
    zip: '21236'
  geo:
    lat: 39.3733
    lng: -76.45761
  phone: 443-442-1568
  website: https://www.aspire-wellness.com
  sources:
  - samhsa/findtreatment
  verified:
    'on': '2026-07-19'
    method: api
- id: md/nottingham/bcpl-white-marsh-branch
  name: Bcpl White Marsh Branch
  categories:
  - meal-program
  address: {street: 8133 Sandpiper Circle, city: Nottingham, state: md, zip: '21236'}
  description: Free summer meals for kids and teens (2026 season) — sponsored by BALTIMORE CO PUB SCH.
  geo: {lat: 39.37209, lng: -76.47091}
  phone: (410) 887-5097
  external_ids: {usda_master: Cycle 06_MD_SFSP_0028}
  sources:
  - usda/summer-meal-sites
  verified: {'on': '2026-07-19', method: api}
- id: md/nottingham/hopes-horizon
  name: Hopes Horizon
  categories:
  - su-treatment
  address:
    street: '4111 East Joppa Road '
    city: Nottingham
    state: md
    zip: '21236'
  geo:
    lat: 39.39753
    lng: -76.48452
  phone: 443-725-4062
  website: https://www.hopeshorizon.com
  sources:
  - samhsa/findtreatment
  verified:
    'on': '2026-07-19'
    method: api
- id: md/nottingham/leading-by-example-llc
  name: Leading by Example LLC
  categories:
  - su-treatment
  - mh-treatment
  address:
    street: 5026 Campbell Boulevard
    city: Nottingham
    state: md
    zip: '21236'
  geo:
    lat: 39.37367
    lng: -76.45695
  phone: 410-780-2692
  website: https://www.leadingbyexamplellc.com
  sources:
  - samhsa/findtreatment
  verified:
    'on': '2026-07-19'
    method: api
- id: md/nottingham/oaks-dynamics
  name: Oaks Dynamics
  categories:
  - meal-program
  address: {street: 8363 Town Center Ct, city: Nottingham, state: md, zip: '21236'}
  description: Free summer meals for kids and teens (2026 season) — sponsored by BALTIMORE CO PUB SCH.
  geo: {lat: 39.37502, lng: -76.45802}
  phone: (667) 354-0400
  external_ids: {usda_master: Cycle 08_MD_SFSP_0303}
  sources:
  - usda/summer-meal-sites
  verified: {'on': '2026-07-19', method: api}
- id: md/nottingham/pinewood-house
  name: Pinewood House
  categories:
  - su-treatment
  address:
    city: Nottingham
    state: md
    zip: '21236'
  phone: 443-725-4062
  website: https://www.hopeshorizon.com
  sources:
  - samhsa/findtreatment
  verified:
    'on': '2026-07-19'
    method: api
- id: md/nottingham/reflections-behavioral-health
  name: Reflections Behavioral Health
  categories:
  - su-treatment
  - mh-treatment
  address:
    street: 8840 Belair Road
    city: Nottingham
    state: md
    zip: '21236'
  geo:
    lat: 39.39631
    lng: -76.48364
  phone: 667-262-9100
  website: https://www.reflectionsbh.com
  sources:
  - samhsa/findtreatment
  verified:
    'on': '2026-07-19'
    method: api
- id: md/nottingham/y-head-start-kenwood-center
  name: Y Head Start, Kenwood Center
  categories:
  - child-care
  address:
    street: 4601 Fullerton Ave
    city: Nottingham
    state: md
    zip: '21236'
  geo:
    lat: 39.35791
    lng: -76.5176
  phone: 410-801-8156
  sources:
  - acf/head-start-locations
  verified:
    'on': '2026-07-19'
    method: api
