- id: md/randallstown/bcpl-randallstown-branch
  name: Bcpl Randallstown Branch
  categories:
  - meal-program
  address: {street: 8604 Liberty Road, city: Randallstown, state: md, zip: '21133'}
  description: Free summer meals for kids and teens (2026 season) — sponsored by BALTIMORE CO PUB SCH.
  place: '2464950'
  geo: {lat: 39.36157, lng: -76.77919}
  phone: (410) 887-0770
  external_ids: {usda_master: Cycle 08_MD_SFSP_0185}
  sources:
  - usda/summer-meal-sites
  verified: {'on': '2026-07-19', method: api}
- id: md/randallstown/odd-little-pantry-independent-order-of-odd-fello
  name: 'Odd Little Pantry (Independent Order Of Odd Fellows Baltimore #57)'
  categories:
  - food-pantry
  place: '2464950'
  geo: {lat: 39.34174, lng: -76.85214}
  website: https://mapping.littlefreepantry.org/pantry/3605
  external_ids: {lfp: '3605'}
  sources:
  - littlefreepantry/map
  verified: {'on': '2026-07-19', method: scrape}
- id: md/randallstown/sweet-potato-kids
  name: Sweet Potato Kids
  categories:
  - meal-program
  address: {street: 9631 Liberty Rd, city: Randallstown, state: md, zip: '21133'}
  description: Free summer meals for kids and teens (2026 season) — sponsored by MARYLAND FOOD BANK INC.
  place: '2464950'
  geo: {lat: 39.37851, lng: -76.81756}
  phone: (443) 405-3408
  external_ids: {usda_master: Cycle 07_MD_SFSP_0179}
  sources:
  - usda/summer-meal-sites
  verified: {'on': '2026-07-19', method: api}
- id: md/randallstown/topchoice-caregivers-inc
  name: Topchoice Caregivers, Inc
  categories:
  - meal-program
  address: {street: 5309 Old Court Rd, city: Randallstown, state: md, zip: '21133'}
  description: Free summer meals for kids and teens (2026 season) — sponsored by BALTIMORE CO PUB SCH.
  place: '2464950'
  geo: {lat: 39.36058, lng: -76.77984}
  phone: (410) 622-1221
  external_ids: {usda_master: Cycle 08_MD_SFSP_0363}
  sources:
  - usda/summer-meal-sites
  verified: {'on': '2026-07-19', method: api}
- id: md/randallstown/y-head-start-randallstown-center
  name: Y Head Start, Randallstown Center
  categories:
  - child-care
  address: {street: 5115 Old Court Rd, street2: Mt. Olive United Methodist Church, city: Randallstown,
    state: md, zip: '21133'}
  description: Head Start early childhood program — 34 funded slots; operated by YMCA OF Central Maryland,
    INC.
  place: '2464950'
  geo: {lat: 39.36311, lng: -76.7765}
  phone: 410-801-1650
  sources:
  - acf/head-start-locations
  verified: {'on': '2026-07-19', method: api}
