- id: md/rosedale/baltimore-county-eastern-family-resource-center
  name: Baltimore County Eastern Family Resource Center
  categories:
  - community-health-center
  address:
    street: 9150 Franklin Square Dr
    city: Rosedale
    state: md
    zip: '21237'
  place: '2468400'
  geo:
    lat: 39.35445
    lng: -76.47458
  phone: 443-703-6764
  external_ids:
    bphc: BPS-H80-021339
  sources:
  - hrsa/health-center-sites
  verified:
    'on': '2026-07-19'
    method: api
- id: md/rosedale/baltimore-county-eastern-family-resource-center-2
  name: Baltimore County Eastern Family Resource Center, Dental Clinic
  categories:
  - community-health-center
  address:
    street: 9150 Franklin Square Dr
    city: Rosedale
    state: md
    zip: '21237'
  place: '2468400'
  geo:
    lat: 39.35445
    lng: -76.47458
  phone: 443-703-1468
  website: https://www.hchmd.org
  external_ids:
    bphc: BPS-H80-041451
  sources:
  - hrsa/health-center-sites
  verified:
    'on': '2026-07-19'
    method: api
- id: md/rosedale/bcpl-rosedale-branch
  name: Bcpl Rosedale Branch
  categories:
  - meal-program
  address: {street: 6105 Kenwood Avenue, city: Rosedale, state: md, zip: '21237'}
  description: Free summer meals for kids and teens (2026 season) — sponsored by BALTIMORE CO PUB SCH.
  place: '2468400'
  geo: {lat: 39.34332, lng: -76.50515}
  phone: (410) 887-0512
  external_ids: {usda_master: Cycle 06_MD_SFSP_0026}
  sources:
  - usda/summer-meal-sites
  verified: {'on': '2026-07-19', method: api}
- id: md/rosedale/bms-at-rosedale
  name: BMS at Rosedale
  categories:
  - community-health-center
  address:
    street: 9520 Philadelphia Rd
    city: Rosedale
    state: md
    zip: '21237'
  place: '2468400'
  geo:
    lat: 39.35581
    lng: -76.46266
  phone: 410-732-8800
  website: https://bmsi.org
  external_ids:
    bphc: BPS-H80-033898
  sources:
  - hrsa/health-center-sites
  verified:
    'on': '2026-07-19'
    method: api
- id: md/rosedale/eastern-baltimore-co-va-outpatient-clinic
  name: Eastern Baltimore CO VA Outpatient Clinic
  categories:
  - su-treatment
  - mh-treatment
  address:
    street: 5235 King Avenue
    city: Rosedale
    state: md
    zip: '21237'
  place: '2468400'
  geo:
    lat: 39.35691
    lng: -76.47099
  phone: 443-730-2020
  website: https://
  sources:
  - samhsa/findtreatment
  verified:
    'on': '2026-07-19'
    method: api
- id: md/rosedale/epec-clinic-llc
  name: EPEC Clinic LLC
  categories:
  - su-treatment
  - mh-treatment
  address:
    street: 9106 Philadelphia Road
    city: Rosedale
    state: md
    zip: '21237'
  place: '2468400'
  geo:
    lat: 39.34748
    lng: -76.47352
  phone: 443-559-8354
  website: https://www.epecclinic.com
  sources:
  - samhsa/findtreatment
  verified:
    'on': '2026-07-19'
    method: api
- id: md/rosedale/partners-in-recovery-sphs-mosaic-community-servi
  name: Partners in Recovery/SPHS Mosaic Community Services
  categories:
  - su-treatment
  address:
    street: 9201 Philadelphia Road
    city: Rosedale
    state: md
    zip: '21237'
  place: '2468400'
  geo:
    lat: 39.34895
    lng: -76.46858
  phone: 410-285-8157
  website: https://www.sheppardpratt.org
  sources:
  - samhsa/findtreatment
  verified:
    'on': '2026-07-19'
    method: api
- id: md/rosedale/riverside-treatment-services
  name: Riverside Treatment Services
  categories:
  - su-treatment
  address:
    street: '8359 Pulaski Highway '
    city: Rosedale
    state: md
    zip: '21237'
  place: '2468400'
  geo:
    lat: 39.32594
    lng: -76.49675
  phone: 443-730-6104
  website: https://rtsrosedale.com/
  sources:
  - samhsa/findtreatment
  verified:
    'on': '2026-07-19'
    method: api
- id: md/rosedale/sanbridge-early-learning-center-rosedale
  name: Sanbridge Early Learning Center Rosedale
  categories:
  - meal-program
  address: {street: 9004 Yellow Brick Road, city: Rosedale, state: md, zip: '21237'}
  description: Free summer meals for kids and teens (2026 season) — sponsored by ST VINCENT DE PAUL OF
    BALTIMORE INC.
  place: '2468400'
  geo: {lat: 39.34294, lng: -76.47464}
  phone: (240) 371-6127
  external_ids: {usda_master: Cycle 07_MD_SFSP_0163}
  sources:
  - usda/summer-meal-sites
  verified: {'on': '2026-07-19', method: api}
- id: md/rosedale/star-apple-daycare
  name: Star Apple Daycare
  categories:
  - meal-program
  address: {street: 7529 Gilley Terr, city: Rosedale, state: md, zip: '21237'}
  description: Free summer meals for kids and teens (2026 season) — sponsored by BALTIMORE CO PUB SCH.
  place: '2468400'
  geo: {lat: 39.35694, lng: -76.49202}
  phone: (443) 413-9969
  external_ids: {usda_master: Cycle 10_MD_SFSP_0215}
  sources:
  - usda/summer-meal-sites
  verified: {'on': '2026-07-19', method: api}
- id: md/rosedale/tots-headquarters
  name: Tots Headquarters
  categories:
  - meal-program
  address: {street: 8052 Philadelphia Rd, city: Rosedale, state: md, zip: '21237'}
  description: Free summer meals for kids and teens (2026 season) — sponsored by MARYLAND FOOD BANK INC.
  place: '2468400'
  geo: {lat: 39.32287, lng: -76.51153}
  phone: (443) 468-0345
  external_ids: {usda_master: Cycle 07_MD_SFSP_0196}
  sources:
  - usda/summer-meal-sites
  verified: {'on': '2026-07-19', method: api}
- id: md/rosedale/y-head-start-eastern-family-resource-center
  name: Y Head Start, Eastern Family Resource Center
  categories:
  - child-care
  address:
    street: 9150 Franklin Square Dr
    city: Rosedale
    state: md
    zip: '21237'
  place: '2468400'
  geo:
    lat: 39.35501
    lng: -76.47299
  phone: 410-801-1650
  sources:
  - acf/head-start-locations
  verified:
    'on': '2026-07-19'
    method: api
