- id: md/rosedale/baltimore-county-eastern-family-resource-center
  name: Baltimore County Eastern Family Resource Center
  categories:
  - community-health-center
  address:
    street: 9150 Franklin Square Dr
    city: Rosedale
    state: md
    zip: '21237'
  place: '2468400'
  geo:
    lat: 39.35445
    lng: -76.47458
  phone: 443-703-6764
  external_ids:
    bphc: BPS-H80-021339
  sources:
  - hrsa/health-center-sites
  verified:
    'on': '2026-07-19'
    method: api
- id: md/rosedale/baltimore-county-eastern-family-resource-center-2
  name: Baltimore County Eastern Family Resource Center, Dental Clinic
  categories:
  - community-health-center
  address:
    street: 9150 Franklin Square Dr
    city: Rosedale
    state: md
    zip: '21237'
  place: '2468400'
  geo:
    lat: 39.35445
    lng: -76.47458
  phone: 443-703-1468
  website: https://www.hchmd.org
  external_ids:
    bphc: BPS-H80-041451
  sources:
  - hrsa/health-center-sites
  verified:
    'on': '2026-07-19'
    method: api
- id: md/rosedale/bms-at-rosedale
  name: BMS at Rosedale
  categories:
  - community-health-center
  address:
    street: 9520 Philadelphia Rd
    city: Rosedale
    state: md
    zip: '21237'
  place: '2468400'
  geo:
    lat: 39.35581
    lng: -76.46266
  phone: 410-732-8800
  website: https://bmsi.org
  external_ids:
    bphc: BPS-H80-033898
  sources:
  - hrsa/health-center-sites
  verified:
    'on': '2026-07-19'
    method: api
- id: md/rosedale/eastern-baltimore-co-va-outpatient-clinic
  name: Eastern Baltimore CO VA Outpatient Clinic
  categories:
  - su-treatment
  - mh-treatment
  address:
    street: 5235 King Avenue
    city: Rosedale
    state: md
    zip: '21237'
  place: '2468400'
  geo:
    lat: 39.35691
    lng: -76.47099
  phone: 443-730-2020
  website: https://
  sources:
  - samhsa/findtreatment
  verified:
    'on': '2026-07-19'
    method: api
- id: md/rosedale/epec-clinic-llc
  name: EPEC Clinic LLC
  categories:
  - su-treatment
  - mh-treatment
  address:
    street: 9106 Philadelphia Road
    city: Rosedale
    state: md
    zip: '21237'
  place: '2468400'
  geo:
    lat: 39.34748
    lng: -76.47352
  phone: 443-559-8354
  website: https://www.epecclinic.com
  sources:
  - samhsa/findtreatment
  verified:
    'on': '2026-07-19'
    method: api
- id: md/rosedale/partners-in-recovery-sphs-mosaic-community-servi
  name: Partners in Recovery/SPHS Mosaic Community Services
  categories:
  - su-treatment
  address:
    street: 9201 Philadelphia Road
    city: Rosedale
    state: md
    zip: '21237'
  place: '2468400'
  geo:
    lat: 39.34895
    lng: -76.46858
  phone: 410-285-8157
  website: https://www.sheppardpratt.org
  sources:
  - samhsa/findtreatment
  verified:
    'on': '2026-07-19'
    method: api
- id: md/rosedale/riverside-treatment-services
  name: Riverside Treatment Services
  categories:
  - su-treatment
  address:
    street: '8359 Pulaski Highway '
    city: Rosedale
    state: md
    zip: '21237'
  place: '2468400'
  geo:
    lat: 39.32594
    lng: -76.49675
  phone: 443-730-6104
  website: https://rtsrosedale.com/
  sources:
  - samhsa/findtreatment
  verified:
    'on': '2026-07-19'
    method: api
- id: md/rosedale/y-head-start-eastern-family-resource-center
  name: Y Head Start, Eastern Family Resource Center
  categories:
  - child-care
  address:
    street: 9150 Franklin Square Dr
    city: Rosedale
    state: md
    zip: '21237'
  place: '2468400'
  geo:
    lat: 39.35501
    lng: -76.47299
  phone: 410-801-1650
  sources:
  - acf/head-start-locations
  verified:
    'on': '2026-07-19'
    method: api
