- id: '0200065'
  slug: adak
  name: Adak
  state: ak
  kind: city
  geo: {lat: 51.9095, lng: -176.59918}
- id: '0200650'
  slug: akhiok
  name: Akhiok
  state: ak
  kind: city
  geo: {lat: 56.94833, lng: -154.21531}
- id: '0200760'
  slug: akiachak
  name: Akiachak
  state: ak
  kind: cdp
  geo: {lat: 60.92099, lng: -161.4022}
- id: 0200870
  slug: akiak
  name: Akiak
  state: ak
  kind: city
  geo: {lat: 60.91284, lng: -161.21623}
- id: 0201090
  slug: akutan
  name: Akutan
  state: ak
  kind: city
  geo: {lat: 54.13997, lng: -165.76304}
- id: '0201200'
  slug: alakanuk
  name: Alakanuk
  state: ak
  kind: city
  geo: {lat: 62.71112, lng: -164.64966}
- id: '0201305'
  slug: alatna
  name: Alatna
  state: ak
  kind: cdp
  geo: {lat: 66.56335, lng: -152.83761}
- id: 0201390
  slug: alcan-border
  name: Alcan Border
  state: ak
  kind: cdp
  geo: {lat: 62.70311, lng: -141.19392}
- id: '0201420'
  slug: aleknagik
  name: Aleknagik
  state: ak
  kind: city
  geo: {lat: 59.28887, lng: -158.66446}
- id: '0201560'
  slug: aleneva
  name: Aleneva
  state: ak
  kind: cdp
  geo: {lat: 58.05905, lng: -152.90902}
- id: 0201860
  slug: allakaket
  name: Allakaket
  state: ak
  kind: city
  geo: {lat: 66.54188, lng: -152.58301}
- id: 0201970
  slug: ambler
  name: Ambler
  state: ak
  kind: city
  geo: {lat: 67.0809, lng: -157.90558}
- id: 0202080
  slug: anaktuvuk-pass
  name: Anaktuvuk Pass
  state: ak
  kind: city
  geo: {lat: 68.14975, lng: -151.69707}
- id: '0203110'
  slug: anchor-point
  name: Anchor Point
  state: ak
  kind: cdp
  geo: {lat: 59.76371, lng: -151.70217}
- id: '0203000'
  slug: anchorage
  name: Anchorage
  state: ak
  kind: municipality
  geo: {lat: 61.17425, lng: -149.28433}
- id: '0203220'
  slug: anderson
  name: Anderson
  state: ak
  kind: city
  geo: {lat: 64.30805, lng: -149.16409}
- id: '0203440'
  slug: angoon
  name: Angoon
  state: ak
  kind: city
  geo: {lat: 57.44126, lng: -134.47836}
- id: '0203550'
  slug: aniak
  name: Aniak
  state: ak
  kind: city
  geo: {lat: 61.57882, lng: -159.5474}
- id: 0203880
  slug: anvik
  name: Anvik
  state: ak
  kind: city
  geo: {lat: 62.63166, lng: -160.21466}
- id: 0203990
  slug: arctic-village
  name: Arctic Village
  state: ak
  kind: cdp
  geo: {lat: 68.16528, lng: -145.40135}
- id: '0204210'
  slug: atka
  name: Atka
  state: ak
  kind: city
  geo: {lat: 52.2096, lng: -174.2133}
- id: '0204430'
  slug: atmautluak
  name: Atmautluak
  state: ak
  kind: cdp
  geo: {lat: 60.86124, lng: -162.28355}
- id: '0204500'
  slug: atqasuk
  name: Atqasuk
  state: ak
  kind: city
  geo: {lat: 70.48079, lng: -157.32546}
- id: '0204670'
  slug: attu-station
  name: Attu Station
  state: ak
  kind: cdp
  geo: {lat: 52.88026, lng: 173.25609}
- id: '0205000'
  slug: badger
  name: Badger
  state: ak
  kind: cdp
  geo: {lat: 64.80582, lng: -147.39307}
- id: 0205585
  slug: bear-creek
  name: Bear Creek
  state: ak
  kind: cdp
  geo: {lat: 60.20806, lng: -149.36978}
- id: '0205750'
  slug: beaver
  name: Beaver
  state: ak
  kind: cdp
  geo: {lat: 66.3828, lng: -147.32193}
- id: '0206245'
  slug: beluga
  name: Beluga
  state: ak
  kind: cdp
  geo: {lat: 61.19135, lng: -151.18356}
- id: '0206520'
  slug: bethel
  name: Bethel
  state: ak
  kind: city
  geo: {lat: 60.7939, lng: -161.79586}
- id: '0206630'
  slug: bettles
  name: Bettles
  state: ak
  kind: city
  geo: {lat: 66.90686, lng: -151.53801}
- id: 0206850
  slug: big-delta
  name: Big Delta
  state: ak
  kind: cdp
  geo: {lat: 64.156, lng: -145.74094}
- id: '0207070'
  slug: big-lake
  name: Big Lake
  state: ak
  kind: cdp
  geo: {lat: 61.51555, lng: -149.97548}
- id: '0207620'
  slug: birch-creek
  name: Birch Creek
  state: ak
  kind: cdp
  geo: {lat: 66.26833, lng: -145.87644}
- id: 0208740
  slug: brevig-mission
  name: Brevig Mission
  state: ak
  kind: city
  geo: {lat: 65.34311, lng: -166.50949}
- id: 0209600
  slug: buckland
  name: Buckland
  state: ak
  kind: city
  geo: {lat: 65.97724, lng: -161.13862}
- id: 0209657
  slug: buffalo-soapstone
  name: Buffalo Soapstone
  state: ak
  kind: cdp
  geo: {lat: 61.68444, lng: -149.12117}
- id: 0209710
  slug: butte
  name: Butte
  state: ak
  kind: cdp
  geo: {lat: 61.53392, lng: -148.98781}
- id: '0210150'
  slug: cantwell
  name: Cantwell
  state: ak
  kind: cdp
  geo: {lat: 63.4114, lng: -148.74963}
- id: 0211690
  slug: central
  name: Central
  state: ak
  kind: cdp
  geo: {lat: 65.53936, lng: -144.49763}
- id: 0211800
  slug: chalkyitsik
  name: Chalkyitsik
  state: ak
  kind: cdp
  geo: {lat: 66.64673, lng: -143.78574}
- id: '0212350'
  slug: chase
  name: Chase
  state: ak
  kind: cdp
  geo: {lat: 62.41824, lng: -149.93617}
- id: 0212680
  slug: chefornak
  name: Chefornak
  state: ak
  kind: city
  geo: {lat: 60.14984, lng: -164.2596}
- id: 0212920
  slug: chena-ridge
  name: Chena Ridge
  state: ak
  kind: cdp
  geo: {lat: 64.7943, lng: -148.03288}
- id: 0212970
  slug: chenega
  name: Chenega
  state: ak
  kind: cdp
  geo: {lat: 60.09191, lng: -147.99469}
- id: '0213230'
  slug: chevak
  name: Chevak
  state: ak
  kind: city
  geo: {lat: 61.52954, lng: -165.59422}
- id: '0213340'
  slug: chickaloon
  name: Chickaloon
  state: ak
  kind: cdp
  geo: {lat: 61.81528, lng: -148.29213}
- id: '0213450'
  slug: chicken
  name: Chicken
  state: ak
  kind: cdp
  geo: {lat: 64.08769, lng: -141.82831}
- id: '0213550'
  slug: chignik
  name: Chignik
  state: ak
  kind: city
  geo: {lat: 56.2944, lng: -158.40306}
- id: '0213670'
  slug: chignik-lagoon
  name: Chignik Lagoon
  state: ak
  kind: cdp
  geo: {lat: 56.30427, lng: -158.50025}
- id: 0213780
  slug: chignik-lake
  name: Chignik Lake
  state: ak
  kind: cdp
  geo: {lat: 56.25423, lng: -158.7825}
- id: 0213860
  slug: chiniak
  name: Chiniak
  state: ak
  kind: cdp
  geo: {lat: 57.5755, lng: -152.27903}
- id: 0213890
  slug: chisana
  name: Chisana
  state: ak
  kind: cdp
  geo: {lat: 62.11004, lng: -142.05055}
- id: '0214000'
  slug: chistochina
  name: Chistochina
  state: ak
  kind: cdp
  geo: {lat: 62.59644, lng: -144.94105}
- id: '0214110'
  slug: chitina
  name: Chitina
  state: ak
  kind: cdp
  geo: {lat: 61.55188, lng: -144.17432}
- id: '0214330'
  slug: chuathbaluk
  name: Chuathbaluk
  state: ak
  kind: city
  geo: {lat: 61.57392, lng: -159.24692}
- id: 0214880
  slug: circle
  name: Circle
  state: ak
  kind: cdp
  geo: {lat: 65.79042, lng: -144.19601}
- id: '0215320'
  slug: clam-gulch
  name: Clam Gulch
  state: ak
  kind: cdp
  geo: {lat: 60.20889, lng: -151.4042}
- id: '0215430'
  slug: clark-s-point
  name: Clark's Point
  state: ak
  kind: city
  geo: {lat: 58.833, lng: -158.52738}
- id: '0216360'
  slug: coffman-cove
  name: Coffman Cove
  state: ak
  kind: city
  geo: {lat: 56.00166, lng: -132.84197}
- id: '0216420'
  slug: cohoe
  name: Cohoe
  state: ak
  kind: cdp
  geo: {lat: 60.267, lng: -151.29814}
- id: '0216530'
  slug: cold-bay
  name: Cold Bay
  state: ak
  kind: city
  geo: {lat: 55.21532, lng: -162.77603}
- id: '0216630'
  slug: coldfoot
  name: Coldfoot
  state: ak
  kind: cdp
  geo: {lat: 67.26074, lng: -150.06989}
- id: '0216750'
  slug: college
  name: College
  state: ak
  kind: cdp
  geo: {lat: 64.86729, lng: -147.81945}
- id: 0217190
  slug: cooper-landing
  name: Cooper Landing
  state: ak
  kind: cdp
  geo: {lat: 60.49458, lng: -149.84394}
- id: '0217300'
  slug: copper-center
  name: Copper Center
  state: ak
  kind: cdp
  geo: {lat: 62.00804, lng: -145.39271}
- id: '0217410'
  slug: cordova
  name: Cordova
  state: ak
  kind: city
  geo: {lat: 60.53005, lng: -145.64187}
- id: '0217670'
  slug: covenant-life
  name: Covenant Life
  state: ak
  kind: cdp
  geo: {lat: 59.39751, lng: -136.123}
- id: '0217740'
  slug: craig
  name: Craig
  state: ak
  kind: city
  geo: {lat: 55.48875, lng: -133.11157}
- id: 0217850
  slug: crooked-creek
  name: Crooked Creek
  state: ak
  kind: cdp
  geo: {lat: 61.79685, lng: -158.08099}
- id: 0217960
  slug: crown-point
  name: Crown Point
  state: ak
  kind: cdp
  geo: {lat: 60.42668, lng: -149.35298}
- id: 0218510
  slug: deering
  name: Deering
  state: ak
  kind: city
  geo: {lat: 66.06949, lng: -162.76457}
- id: 0218620
  slug: delta-junction
  name: Delta Junction
  state: ak
  kind: city
  geo: {lat: 64.0567, lng: -145.69246}
- id: 0218675
  slug: deltana
  name: Deltana
  state: ak
  kind: cdp
  geo: {lat: 63.78934, lng: -145.35163}
- id: 0218805
  slug: denali-park
  name: Denali Park
  state: ak
  kind: cdp
  geo: {lat: 63.57316, lng: -148.67407}
- id: 0218925
  slug: diamond-ridge
  name: Diamond Ridge
  state: ak
  kind: cdp
  geo: {lat: 59.70236, lng: -151.55463}
- id: 0218950
  slug: dillingham
  name: Dillingham
  state: ak
  kind: city
  geo: {lat: 59.06057, lng: -158.53236}
- id: 0219060
  slug: diomede
  name: Diomede
  state: ak
  kind: city
  geo: {lat: 65.75392, lng: -168.92258}
- id: 0219720
  slug: dot-lake
  name: Dot Lake
  state: ak
  kind: cdp
  geo: {lat: 63.58719, lng: -144.29233}
- id: 0219750
  slug: dot-lake-village
  name: Dot Lake Village
  state: ak
  kind: cdp
  geo: {lat: 63.66259, lng: -144.01617}
- id: '0220020'
  slug: dry-creek
  name: Dry Creek
  state: ak
  kind: cdp
  geo: {lat: 63.62664, lng: -144.63919}
- id: 0220380
  slug: eagle
  name: Eagle
  state: ak
  kind: city
  geo: {lat: 64.78127, lng: -141.19778}
- id: '0220600'
  slug: eagle-village
  name: Eagle Village
  state: ak
  kind: cdp
  geo: {lat: 64.74167, lng: -141.11706}
- id: '0220716'
  slug: eareckson-station
  name: Eareckson Station
  state: ak
  kind: cdp
  geo: {lat: 52.72106, lng: 174.10715}
- id: 0220970
  slug: edna-bay
  name: Edna Bay
  state: ak
  kind: city
  geo: {lat: 55.96762, lng: -133.69225}
- id: '0221040'
  slug: eek
  name: Eek
  state: ak
  kind: city
  geo: {lat: 60.21628, lng: -162.04251}
- id: '0221150'
  slug: egegik
  name: Egegik
  state: ak
  kind: city
  geo: {lat: 58.20515, lng: -157.52198}
- id: '0221370'
  slug: eielson-afb
  name: Eielson AFB
  state: ak
  kind: cdp
  geo: {lat: 64.67339, lng: -147.05967}
- id: 0221810
  slug: ekwok
  name: Ekwok
  state: ak
  kind: city
  geo: {lat: 59.34595, lng: -157.48704}
- id: '0222140'
  slug: elfin-cove
  name: Elfin Cove
  state: ak
  kind: cdp
  geo: {lat: 58.08768, lng: -136.28831}
- id: '0222250'
  slug: elim
  name: Elim
  state: ak
  kind: city
  geo: {lat: 64.61837, lng: -162.27624}
- id: 0222910
  slug: emmonak
  name: Emmonak
  state: ak
  kind: city
  geo: {lat: 62.7757, lng: -164.51005}
- id: '0223460'
  slug: ester
  name: Ester
  state: ak
  kind: cdp
  geo: {lat: 64.87906, lng: -148.04112}
- id: '0223720'
  slug: eureka-roadhouse
  name: Eureka Roadhouse
  state: ak
  kind: cdp
  geo: {lat: 61.95851, lng: -147.1551}
- id: 0223790
  slug: evansville
  name: Evansville
  state: ak
  kind: cdp
  geo: {lat: 66.93293, lng: -151.37006}
- id: 0223900
  slug: excursion-inlet
  name: Excursion Inlet
  state: ak
  kind: cdp
  geo: {lat: 58.41514, lng: -135.34546}
- id: '0224230'
  slug: fairbanks
  name: Fairbanks
  state: ak
  kind: city
  geo: {lat: 64.83653, lng: -147.65175}
- id: '0224660'
  slug: false-pass
  name: False Pass
  state: ak
  kind: city
  geo: {lat: 54.87244, lng: -163.33427}
- id: '0225000'
  slug: farm-loop
  name: Farm Loop
  state: ak
  kind: cdp
  geo: {lat: 61.63511, lng: -149.15522}
- id: 0224980
  slug: farmers-loop
  name: Farmers Loop
  state: ak
  kind: cdp
  geo: {lat: 64.90822, lng: -147.69858}
- id: '0225220'
  slug: ferry
  name: Ferry
  state: ak
  kind: cdp
  geo: {lat: 64.04964, lng: -148.92032}
- id: '0225550'
  slug: fishhook
  name: Fishhook
  state: ak
  kind: cdp
  geo: {lat: 61.73125, lng: -149.28364}
- id: 0225880
  slug: flat
  name: Flat
  state: ak
  kind: cdp
  geo: {lat: 62.44136, lng: -158.04055}
- id: '0226100'
  slug: fort-greely
  name: Fort Greely
  state: ak
  kind: cdp
  geo: {lat: 63.96784, lng: -145.71488}
- id: '0226760'
  slug: fort-yukon
  name: Fort Yukon
  state: ak
  kind: city
  geo: {lat: 66.58253, lng: -145.24744}
- id: 0226835
  slug: four-mile-road
  name: Four Mile Road
  state: ak
  kind: cdp
  geo: {lat: 64.60559, lng: -149.115}
- id: 0226870
  slug: fox
  name: Fox
  state: ak
  kind: cdp
  geo: {lat: 64.97486, lng: -147.60901}
- id: 0226910
  slug: fox-river
  name: Fox River
  state: ak
  kind: cdp
  geo: {lat: 59.89216, lng: -151.01232}
- id: 0227090
  slug: fritz-creek
  name: Fritz Creek
  state: ak
  kind: cdp
  geo: {lat: 59.76591, lng: -151.30518}
- id: '0227145'
  slug: funny-river
  name: Funny River
  state: ak
  kind: cdp
  geo: {lat: 60.48431, lng: -150.78874}
- id: '0227420'
  slug: gakona
  name: Gakona
  state: ak
  kind: cdp
  geo: {lat: 62.36702, lng: -145.313}
- id: '0227530'
  slug: galena
  name: Galena
  state: ak
  kind: city
  geo: {lat: 64.74142, lng: -156.87339}
- id: '0227640'
  slug: gambell
  name: Gambell
  state: ak
  kind: city
  geo: {lat: 63.75642, lng: -171.72682}
- id: '0227700'
  slug: game-creek
  name: Game Creek
  state: ak
  kind: cdp
  geo: {lat: 58.05011, lng: -135.51255}
- id: 0228200
  slug: gateway
  name: Gateway
  state: ak
  kind: cdp
  geo: {lat: 61.56685, lng: -149.22268}
- id: 0228590
  slug: glacier-view
  name: Glacier View
  state: ak
  kind: cdp
  geo: {lat: 61.84813, lng: -147.7726}
- id: 0228740
  slug: glennallen
  name: Glennallen
  state: ak
  kind: cdp
  geo: {lat: 62.14754, lng: -145.83586}
- id: 0229130
  slug: goldstream
  name: Goldstream
  state: ak
  kind: cdp
  geo: {lat: 64.94215, lng: -148.02732}
- id: 0229180
  slug: golovin
  name: Golovin
  state: ak
  kind: city
  geo: {lat: 64.56022, lng: -163.00716}
- id: 0229290
  slug: goodnews-bay
  name: Goodnews Bay
  state: ak
  kind: city
  geo: {lat: 59.12755, lng: -161.56481}
- id: '0230060'
  slug: grayling
  name: Grayling
  state: ak
  kind: city
  geo: {lat: 62.89605, lng: -160.11298}
- id: '0230500'
  slug: gulkana
  name: Gulkana
  state: ak
  kind: cdp
  geo: {lat: 62.21543, lng: -145.44496}
- id: 0230940
  slug: gustavus
  name: Gustavus
  state: ak
  kind: city
  geo: {lat: 58.43342, lng: -135.72925}
- id: '0231050'
  slug: haines
  name: Haines
  state: ak
  kind: cdp
  geo: {lat: 59.26043, lng: -135.47217}
- id: '0231270'
  slug: halibut-cove
  name: Halibut Cove
  state: ak
  kind: cdp
  geo: {lat: 59.56968, lng: -151.22381}
- id: '0231710'
  slug: happy-valley
  name: Happy Valley
  state: ak
  kind: cdp
  geo: {lat: 59.89881, lng: -151.5278}
- id: '0231765'
  slug: harding-birch-lakes
  name: Harding-Birch Lakes
  state: ak
  kind: cdp
  geo: {lat: 64.3813, lng: -146.5306}
- id: '0232150'
  slug: healy
  name: Healy
  state: ak
  kind: cdp
  geo: {lat: 63.95982, lng: -148.97041}
- id: '0232310'
  slug: healy-lake
  name: Healy Lake
  state: ak
  kind: cdp
  geo: {lat: 64.00969, lng: -144.68163}
- id: '0232550'
  slug: hobart-bay
  name: Hobart Bay
  state: ak
  kind: cdp
  geo: {lat: 57.41776, lng: -133.30657}
- id: 0232810
  slug: hollis
  name: Hollis
  state: ak
  kind: cdp
  geo: {lat: 55.51547, lng: -132.70192}
- id: '0233030'
  slug: holy-cross
  name: Holy Cross
  state: ak
  kind: city
  geo: {lat: 62.18668, lng: -159.85248}
- id: '0233140'
  slug: homer
  name: Homer
  state: ak
  kind: city
  geo: {lat: 59.64042, lng: -151.50905}
- id: '0233360'
  slug: hoonah
  name: Hoonah
  state: ak
  kind: city
  geo: {lat: 58.12201, lng: -135.43147}
- id: '0233470'
  slug: hooper-bay
  name: Hooper Bay
  state: ak
  kind: city
  geo: {lat: 61.50988, lng: -166.11067}
- id: 0233580
  slug: hope
  name: Hope
  state: ak
  kind: cdp
  geo: {lat: 60.88612, lng: -149.63299}
- id: 0233800
  slug: houston
  name: Houston
  state: ak
  kind: city
  geo: {lat: 61.6153, lng: -149.80061}
- id: 0233910
  slug: hughes
  name: Hughes
  state: ak
  kind: city
  geo: {lat: 66.04522, lng: -154.23763}
- id: '0234350'
  slug: huslia
  name: Huslia
  state: ak
  kind: city
  geo: {lat: 65.6962, lng: -156.33834}
- id: '0234460'
  slug: hydaburg
  name: Hydaburg
  state: ak
  kind: city
  geo: {lat: 55.20584, lng: -132.82044}
- id: '0234570'
  slug: hyder
  name: Hyder
  state: ak
  kind: cdp
  geo: {lat: 55.98153, lng: -130.03817}
- id: 0234790
  slug: igiugig
  name: Igiugig
  state: ak
  kind: cdp
  geo: {lat: 59.30057, lng: -155.85841}
- id: '0235120'
  slug: iliamna
  name: Iliamna
  state: ak
  kind: cdp
  geo: {lat: 59.8128, lng: -154.84223}
- id: 0235890
  slug: ivanof-bay
  name: Ivanof Bay
  state: ak
  kind: cdp
  geo: {lat: 55.91939, lng: -159.49543}
- id: '0236400'
  slug: juneau-city-and
  name: Juneau city and
  state: ak
  kind: other
  geo: {lat: 58.37291, lng: -134.17845}
- id: '0236540'
  slug: kachemak
  name: Kachemak
  state: ak
  kind: city
  geo: {lat: 59.67454, lng: -151.43635}
- id: '0236770'
  slug: kake
  name: Kake
  state: ak
  kind: city
  geo: {lat: 56.97532, lng: -133.90366}
- id: 0236990
  slug: kaktovik
  name: Kaktovik
  state: ak
  kind: city
  geo: {lat: 70.12102, lng: -143.63025}
- id: '0237250'
  slug: kalifornsky
  name: Kalifornsky
  state: ak
  kind: cdp
  geo: {lat: 60.4534, lng: -151.2203}
- id: '0237430'
  slug: kaltag
  name: Kaltag
  state: ak
  kind: city
  geo: {lat: 64.31414, lng: -158.77876}
- id: '0237540'
  slug: karluk
  name: Karluk
  state: ak
  kind: cdp
  geo: {lat: 57.59087, lng: -154.36391}
- id: '0237650'
  slug: kasaan
  name: Kasaan
  state: ak
  kind: city
  geo: {lat: 55.56115, lng: -132.40683}
- id: 0237975
  slug: kasigluk
  name: Kasigluk
  state: ak
  kind: cdp
  geo: {lat: 60.86343, lng: -162.53878}
- id: 0238090
  slug: kasilof
  name: Kasilof
  state: ak
  kind: cdp
  geo: {lat: 60.3191, lng: -151.23258}
- id: 0238420
  slug: kenai
  name: Kenai
  state: ak
  kind: city
  geo: {lat: 60.56224, lng: -151.20806}
- id: 0238910
  slug: kenny-lake
  name: Kenny Lake
  state: ak
  kind: cdp
  geo: {lat: 61.62179, lng: -144.81966}
- id: 0238970
  slug: ketchikan
  name: Ketchikan
  state: ak
  kind: city
  geo: {lat: 55.35715, lng: -131.67455}
- id: 0239300
  slug: kiana
  name: Kiana
  state: ak
  kind: city
  geo: {lat: 66.97259, lng: -160.43437}
- id: 0239410
  slug: king-cove
  name: King Cove
  state: ak
  kind: city
  geo: {lat: 55.08333, lng: -162.31764}
- id: 0239630
  slug: king-salmon
  name: King Salmon
  state: ak
  kind: cdp
  geo: {lat: 58.72572, lng: -156.53599}
- id: 0239740
  slug: kipnuk
  name: Kipnuk
  state: ak
  kind: cdp
  geo: {lat: 59.93749, lng: -164.06219}
- id: 0239960
  slug: kivalina
  name: Kivalina
  state: ak
  kind: city
  geo: {lat: 67.73598, lng: -164.51176}
- id: '0240400'
  slug: klawock
  name: Klawock
  state: ak
  kind: city
  geo: {lat: 55.55642, lng: -133.08613}
- id: '0240510'
  slug: klukwan
  name: Klukwan
  state: ak
  kind: cdp
  geo: {lat: 59.40183, lng: -135.88243}
- id: '0240645'
  slug: knik-fairview
  name: Knik-Fairview
  state: ak
  kind: cdp
  geo: {lat: 61.50764, lng: -149.6226}
- id: '0240670'
  slug: knik-river
  name: Knik River
  state: ak
  kind: cdp
  geo: {lat: 61.4619, lng: -149.00749}
- id: 0240840
  slug: kobuk
  name: Kobuk
  state: ak
  kind: city
  geo: {lat: 66.91701, lng: -156.91446}
- id: 0240950
  slug: kodiak
  name: Kodiak
  state: ak
  kind: city
  geo: {lat: 57.79119, lng: -152.41971}
- id: '0241210'
  slug: kodiak-station
  name: Kodiak Station
  state: ak
  kind: cdp
  geo: {lat: 57.76795, lng: -152.59591}
- id: 0241280
  slug: kokhanok
  name: Kokhanok
  state: ak
  kind: cdp
  geo: {lat: 59.41237, lng: -154.73273}
- id: '0241500'
  slug: koliganek
  name: Koliganek
  state: ak
  kind: cdp
  geo: {lat: 59.69277, lng: -157.21806}
- id: '0241610'
  slug: kongiganak
  name: Kongiganak
  state: ak
  kind: cdp
  geo: {lat: 59.99163, lng: -162.84676}
- id: '0241720'
  slug: kotlik
  name: Kotlik
  state: ak
  kind: city
  geo: {lat: 63.02857, lng: -163.53924}
- id: 0241830
  slug: kotzebue
  name: Kotzebue
  state: ak
  kind: city
  geo: {lat: 66.88684, lng: -162.49173}
- id: 0241940
  slug: koyuk
  name: Koyuk
  state: ak
  kind: city
  geo: {lat: 64.93972, lng: -161.12154}
- id: '0242050'
  slug: koyukuk
  name: Koyukuk
  state: ak
  kind: city
  geo: {lat: 64.90127, lng: -157.69413}
- id: '0242160'
  slug: kupreanof
  name: Kupreanof
  state: ak
  kind: city
  geo: {lat: 56.82129, lng: -132.97215}
- id: 0242380
  slug: kwethluk
  name: Kwethluk
  state: ak
  kind: city
  geo: {lat: 60.79365, lng: -161.4306}
- id: 0242490
  slug: kwigillingok
  name: Kwigillingok
  state: ak
  kind: cdp
  geo: {lat: 59.87734, lng: -163.17696}
- id: 0242805
  slug: lake-louise
  name: Lake Louise
  state: ak
  kind: cdp
  geo: {lat: 62.30162, lng: -146.54016}
- id: 0242820
  slug: lake-minchumina
  name: Lake Minchumina
  state: ak
  kind: cdp
  geo: {lat: 63.78976, lng: -152.46231}
- id: '0243040'
  slug: larsen-bay
  name: Larsen Bay
  state: ak
  kind: city
  geo: {lat: 57.55089, lng: -154.00528}
- id: '0243260'
  slug: lazy-mountain
  name: Lazy Mountain
  state: ak
  kind: cdp
  geo: {lat: 61.65823, lng: -148.92558}
- id: 0243810
  slug: levelock
  name: Levelock
  state: ak
  kind: cdp
  geo: {lat: 59.06826, lng: -156.901}
- id: '0244030'
  slug: lime-village
  name: Lime Village
  state: ak
  kind: cdp
  geo: {lat: 61.33045, lng: -155.23807}
- id: 0244580
  slug: livengood
  name: Livengood
  state: ak
  kind: cdp
  geo: {lat: 65.48179, lng: -148.41648}
- id: '0245020'
  slug: loring
  name: Loring
  state: ak
  kind: cdp
  geo: {lat: 55.60668, lng: -131.63998}
- id: 0245295
  slug: lowell-point
  name: Lowell Point
  state: ak
  kind: cdp
  geo: {lat: 60.07606, lng: -149.49381}
- id: '0245460'
  slug: lower-kalskag
  name: Lower Kalskag
  state: ak
  kind: city
  geo: {lat: 61.51472, lng: -160.35853}
- id: '0245700'
  slug: lutak
  name: Lutak
  state: ak
  kind: cdp
  geo: {lat: 59.41221, lng: -135.58905}
- id: 0246780
  slug: manley-hot-springs
  name: Manley Hot Springs
  state: ak
  kind: cdp
  geo: {lat: 65.01875, lng: -150.64525}
- id: 0246890
  slug: manokotak
  name: Manokotak
  state: ak
  kind: city
  geo: {lat: 58.69745, lng: -158.89373}
- id: '0247000'
  slug: marshall
  name: Marshall
  state: ak
  kind: city
  geo: {lat: 61.87156, lng: -162.06087}
- id: 0245790
  slug: mccarthy
  name: McCarthy
  state: ak
  kind: cdp
  geo: {lat: 61.45391, lng: -142.86483}
- id: '0246010'
  slug: mcgrath
  name: McGrath
  state: ak
  kind: city
  geo: {lat: 62.94061, lng: -155.56641}
- id: '0247735'
  slug: meadow-lakes
  name: Meadow Lakes
  state: ak
  kind: cdp
  geo: {lat: 61.63799, lng: -149.60961}
- id: 0247990
  slug: mekoryuk
  name: Mekoryuk
  state: ak
  kind: city
  geo: {lat: 60.36944, lng: -166.27406}
- id: 0248200
  slug: mendeltna
  name: Mendeltna
  state: ak
  kind: cdp
  geo: {lat: 62.14599, lng: -146.75886}
- id: 0248540
  slug: mentasta-lake
  name: Mentasta Lake
  state: ak
  kind: cdp
  geo: {lat: 63.01121, lng: -143.5607}
- id: 0248590
  slug: mertarvik
  name: Mertarvik
  state: ak
  kind: cdp
  geo: {lat: 60.81087, lng: -164.49847}
- id: 0248870
  slug: metlakatla
  name: Metlakatla
  state: ak
  kind: cdp
  geo: {lat: 55.11461, lng: -131.55559}
- id: 0249200
  slug: mill-bay
  name: Mill Bay
  state: ak
  kind: cdp
  geo: {lat: 57.8155, lng: -152.36754}
- id: 0249530
  slug: minto
  name: Minto
  state: ak
  kind: cdp
  geo: {lat: 65.08868, lng: -149.59211}
- id: 0250080
  slug: moose-creek
  name: Moose Creek
  state: ak
  kind: cdp
  geo: {lat: 64.71635, lng: -147.16663}
- id: 0250190
  slug: moose-pass
  name: Moose Pass
  state: ak
  kind: cdp
  geo: {lat: 60.50594, lng: -149.46836}
- id: 0250800
  slug: mosquito-lake
  name: Mosquito Lake
  state: ak
  kind: cdp
  geo: {lat: 59.4751, lng: -136.19911}
- id: 0251180
  slug: mountain-village
  name: Mountain Village
  state: ak
  kind: city
  geo: {lat: 62.09199, lng: -163.69505}
- id: '0251455'
  slug: mud-bay
  name: Mud Bay
  state: ak
  kind: cdp
  geo: {lat: 59.15118, lng: -135.35649}
- id: 0251960
  slug: nabesna
  name: Nabesna
  state: ak
  kind: cdp
  geo: {lat: 62.49606, lng: -143.00779}
- id: '0252060'
  slug: naknek
  name: Naknek
  state: ak
  kind: cdp
  geo: {lat: 58.78797, lng: -156.87313}
- id: '0252210'
  slug: nanwalek
  name: Nanwalek
  state: ak
  kind: cdp
  geo: {lat: 59.31378, lng: -151.91407}
- id: 0252390
  slug: napakiak
  name: Napakiak
  state: ak
  kind: city
  geo: {lat: 60.6906, lng: -161.98603}
- id: '0252720'
  slug: napaskiak
  name: Napaskiak
  state: ak
  kind: city
  geo: {lat: 60.70322, lng: -161.75082}
- id: 0252845
  slug: naukati-bay
  name: Naukati Bay
  state: ak
  kind: cdp
  geo: {lat: 55.87412, lng: -133.19502}
- id: 0252915
  slug: nelchina
  name: Nelchina
  state: ak
  kind: cdp
  geo: {lat: 62.01038, lng: -146.83024}
- id: 0252940
  slug: nelson-lagoon
  name: Nelson Lagoon
  state: ak
  kind: cdp
  geo: {lat: 55.83665, lng: -161.6358}
- id: '0253050'
  slug: nenana
  name: Nenana
  state: ak
  kind: city
  geo: {lat: 64.53605, lng: -149.08363}
- id: '0253710'
  slug: new-stuyahok
  name: New Stuyahok
  state: ak
  kind: city
  geo: {lat: 59.49429, lng: -157.28724}
- id: '0253270'
  slug: newhalen
  name: Newhalen
  state: ak
  kind: city
  geo: {lat: 59.73659, lng: -154.90098}
- id: 0253820
  slug: newtok
  name: Newtok
  state: ak
  kind: cdp
  geo: {lat: 60.93855, lng: -164.64837}
- id: 0253930
  slug: nightmute
  name: Nightmute
  state: ak
  kind: city
  geo: {lat: 60.4624, lng: -164.83464}
- id: '0254050'
  slug: nikiski
  name: Nikiski
  state: ak
  kind: cdp
  geo: {lat: 60.72501, lng: -151.22527}
- id: 0254085
  slug: nikolaevsk
  name: Nikolaevsk
  state: ak
  kind: cdp
  geo: {lat: 59.82955, lng: -151.59638}
- id: '0254150'
  slug: nikolai
  name: Nikolai
  state: ak
  kind: city
  geo: {lat: 63.00775, lng: -154.37508}
- id: '0254260'
  slug: nikolski
  name: Nikolski
  state: ak
  kind: cdp
  geo: {lat: 53.00803, lng: -168.71933}
- id: 0254480
  slug: ninilchik
  name: Ninilchik
  state: ak
  kind: cdp
  geo: {lat: 60.06226, lng: -151.40158}
- id: '0254700'
  slug: noatak
  name: Noatak
  state: ak
  kind: cdp
  geo: {lat: 67.58915, lng: -163.01183}
- id: 0254920
  slug: nome
  name: Nome
  state: ak
  kind: city
  geo: {lat: 64.50574, lng: -165.41529}
- id: '0255030'
  slug: nondalton
  name: Nondalton
  state: ak
  kind: city
  geo: {lat: 59.97395, lng: -154.86587}
- id: '0255140'
  slug: noorvik
  name: Noorvik
  state: ak
  kind: city
  geo: {lat: 66.82803, lng: -161.0439}
- id: '0255745'
  slug: north-lakes
  name: North Lakes
  state: ak
  kind: cdp
  geo: {lat: 61.61838, lng: -149.31072}
- id: 0255910
  slug: north-pole
  name: North Pole
  state: ak
  kind: city
  geo: {lat: 64.75273, lng: -147.36265}
- id: '0256220'
  slug: northway
  name: Northway
  state: ak
  kind: cdp
  geo: {lat: 63.00081, lng: -141.54127}
- id: '0256320'
  slug: nuiqsut
  name: Nuiqsut
  state: ak
  kind: city
  geo: {lat: 70.21258, lng: -151.02508}
- id: '0256350'
  slug: nulato
  name: Nulato
  state: ak
  kind: city
  geo: {lat: 64.69128, lng: -158.27535}
- id: '0256600'
  slug: nunam-iqua
  name: Nunam Iqua
  state: ak
  kind: city
  geo: {lat: 62.50675, lng: -164.9008}
- id: 0256680
  slug: nunapitchuk
  name: Nunapitchuk
  state: ak
  kind: city
  geo: {lat: 60.87963, lng: -162.46222}
- id: '0257340'
  slug: old-harbor
  name: Old Harbor
  state: ak
  kind: city
  geo: {lat: 57.21858, lng: -153.32792}
- id: 0258330
  slug: oscarville
  name: Oscarville
  state: ak
  kind: cdp
  geo: {lat: 60.73209, lng: -161.77692}
- id: 0258550
  slug: ouzinkie
  name: Ouzinkie
  state: ak
  kind: city
  geo: {lat: 57.92459, lng: -152.46377}
- id: 0258660
  slug: palmer
  name: Palmer
  state: ak
  kind: city
  geo: {lat: 61.59717, lng: -149.11468}
- id: 0259320
  slug: paxson
  name: Paxson
  state: ak
  kind: cdp
  geo: {lat: 62.97563, lng: -145.75828}
- id: 0259540
  slug: pedro-bay
  name: Pedro Bay
  state: ak
  kind: cdp
  geo: {lat: 59.7895, lng: -154.14127}
- id: 0259650
  slug: pelican
  name: Pelican
  state: ak
  kind: city
  geo: {lat: 57.95923, lng: -136.21507}
- id: '0260200'
  slug: perryville
  name: Perryville
  state: ak
  kind: cdp
  geo: {lat: 55.93405, lng: -159.15555}
- id: '0260310'
  slug: petersburg
  name: Petersburg
  state: ak
  kind: cdp
  geo: {lat: 56.75692, lng: -132.87494}
- id: '0260460'
  slug: petersville
  name: Petersville
  state: ak
  kind: cdp
  geo: {lat: 62.45348, lng: -150.88412}
- id: '0260640'
  slug: pilot-point
  name: Pilot Point
  state: ak
  kind: city
  geo: {lat: 57.54114, lng: -157.72281}
- id: '0260750'
  slug: pilot-station
  name: Pilot Station
  state: ak
  kind: city
  geo: {lat: 61.9465, lng: -162.87829}
- id: 0260860
  slug: pitkas-point
  name: Pitkas Point
  state: ak
  kind: cdp
  geo: {lat: 62.0374, lng: -163.26813}
- id: 0261080
  slug: platinum
  name: Platinum
  state: ak
  kind: city
  geo: {lat: 58.95208, lng: -161.74681}
- id: '0261120'
  slug: pleasant-valley
  name: Pleasant Valley
  state: ak
  kind: cdp
  geo: {lat: 64.88547, lng: -146.89855}
- id: 0261190
  slug: point-baker
  name: Point Baker
  state: ak
  kind: cdp
  geo: {lat: 56.34813, lng: -133.61679}
- id: '0261630'
  slug: point-hope
  name: Point Hope
  state: ak
  kind: city
  geo: {lat: 68.34416, lng: -166.68039}
- id: '0261700'
  slug: point-lay
  name: Point Lay
  state: ak
  kind: cdp
  geo: {lat: 69.73713, lng: -162.83504}
- id: 0261788
  slug: point-mackenzie
  name: Point MacKenzie
  state: ak
  kind: cdp
  geo: {lat: 61.3427, lng: -150.04853}
- id: 0261825
  slug: point-possession
  name: Point Possession
  state: ak
  kind: cdp
  geo: {lat: 60.92308, lng: -150.68884}
- id: '0262125'
  slug: pope-vannoy-landing
  name: Pope-Vannoy Landing
  state: ak
  kind: cdp
  geo: {lat: 59.57081, lng: -154.44689}
- id: '0262510'
  slug: port-alexander
  name: Port Alexander
  state: ak
  kind: city
  geo: {lat: 56.23742, lng: -134.65286}
- id: '0262620'
  slug: port-alsworth
  name: Port Alsworth
  state: ak
  kind: cdp
  geo: {lat: 60.15785, lng: -154.34061}
- id: '0263170'
  slug: port-clarence
  name: Port Clarence
  state: ak
  kind: cdp
  geo: {lat: 65.10937, lng: -166.76461}
- id: 0263280
  slug: port-graham
  name: Port Graham
  state: ak
  kind: cdp
  geo: {lat: 59.33982, lng: -151.8465}
- id: 0263390
  slug: port-heiden
  name: Port Heiden
  state: ak
  kind: city
  geo: {lat: 56.9649, lng: -158.58739}
- id: '0263610'
  slug: port-lions
  name: Port Lions
  state: ak
  kind: city
  geo: {lat: 57.86701, lng: -152.85625}
- id: 0263870
  slug: port-protection
  name: Port Protection
  state: ak
  kind: cdp
  geo: {lat: 56.33188, lng: -133.60642}
- id: 0262285
  slug: portage-creek
  name: Portage Creek
  state: ak
  kind: cdp
  geo: {lat: 58.90542, lng: -157.66982}
- id: '0264240'
  slug: primrose
  name: Primrose
  state: ak
  kind: cdp
  geo: {lat: 60.34162, lng: -149.29645}
- id: 0264380
  slug: prudhoe-bay
  name: Prudhoe Bay
  state: ak
  kind: cdp
  geo: {lat: 70.36586, lng: -148.7498}
- id: '0264600'
  slug: quinhagak
  name: Quinhagak
  state: ak
  kind: city
  geo: {lat: 59.75128, lng: -161.89724}
- id: 0264820
  slug: rampart
  name: Rampart
  state: ak
  kind: cdp
  geo: {lat: 65.40492, lng: -149.92102}
- id: 0264930
  slug: red-devil
  name: Red Devil
  state: ak
  kind: cdp
  geo: {lat: 61.75753, lng: -157.35843}
- id: 0264980
  slug: red-dog-mine
  name: Red Dog Mine
  state: ak
  kind: cdp
  geo: {lat: 68.0469, lng: -162.87212}
- id: '0265345'
  slug: ridgeway
  name: Ridgeway
  state: ak
  kind: cdp
  geo: {lat: 60.53083, lng: -151.0521}
- id: 0265590
  slug: ruby
  name: Ruby
  state: ak
  kind: city
  geo: {lat: 64.72329, lng: -155.50054}
- id: '0265700'
  slug: russian-mission
  name: Russian Mission
  state: ak
  kind: city
  geo: {lat: 61.78517, lng: -161.36729}
- id: '0266510'
  slug: salamatof
  name: Salamatof
  state: ak
  kind: cdp
  geo: {lat: 60.60423, lng: -151.31131}
- id: '0266550'
  slug: salcha
  name: Salcha
  state: ak
  kind: cdp
  geo: {lat: 64.5341, lng: -146.88362}
- id: '0267020'
  slug: sand-point
  name: Sand Point
  state: ak
  kind: city
  geo: {lat: 55.31347, lng: -160.48434}
- id: '0267460'
  slug: savoonga
  name: Savoonga
  state: ak
  kind: city
  geo: {lat: 63.67971, lng: -170.48332}
- id: '0267570'
  slug: saxman
  name: Saxman
  state: ak
  kind: city
  geo: {lat: 55.32314, lng: -131.58917}
- id: 0267680
  slug: scammon-bay
  name: Scammon Bay
  state: ak
  kind: city
  geo: {lat: 61.84179, lng: -165.58324}
- id: 0268230
  slug: selawik
  name: Selawik
  state: ak
  kind: city
  geo: {lat: 66.6026, lng: -159.99886}
- id: 0268340
  slug: seldovia
  name: Seldovia
  state: ak
  kind: city
  geo: {lat: 59.43948, lng: -151.71039}
- id: 0268370
  slug: seldovia-village
  name: Seldovia Village
  state: ak
  kind: cdp
  geo: {lat: 59.46127, lng: -151.58875}
- id: 0268560
  slug: seward
  name: Seward
  state: ak
  kind: city
  geo: {lat: 60.12479, lng: -149.39158}
- id: 0268670
  slug: shageluk
  name: Shageluk
  state: ak
  kind: city
  geo: {lat: 62.67604, lng: -159.56184}
- id: 0268890
  slug: shaktoolik
  name: Shaktoolik
  state: ak
  kind: city
  geo: {lat: 64.35626, lng: -161.19622}
- id: 0269770
  slug: shishmaref
  name: Shishmaref
  state: ak
  kind: city
  geo: {lat: 66.238, lng: -166.11088}
- id: '0270100'
  slug: shungnak
  name: Shungnak
  state: ak
  kind: city
  geo: {lat: 66.88509, lng: -157.17463}
- id: '0270320'
  slug: silver-springs
  name: Silver Springs
  state: ak
  kind: cdp
  geo: {lat: 62.01917, lng: -145.35805}
- id: '0270540'
  slug: sitka-city-and
  name: Sitka city and
  state: ak
  kind: other
  geo: {lat: 57.1932, lng: -135.3674}
- id: '0270760'
  slug: skagway
  name: Skagway
  state: ak
  kind: cdp
  geo: {lat: 59.46446, lng: -135.27574}
- id: 0270870
  slug: skwentna
  name: Skwentna
  state: ak
  kind: cdp
  geo: {lat: 61.88869, lng: -151.19999}
- id: 0270930
  slug: slana
  name: Slana
  state: ak
  kind: cdp
  geo: {lat: 62.60242, lng: -143.45186}
- id: 0271090
  slug: sleetmute
  name: Sleetmute
  state: ak
  kind: cdp
  geo: {lat: 61.65446, lng: -157.10249}
- id: '0271640'
  slug: soldotna
  name: Soldotna
  state: ak
  kind: city
  geo: {lat: 60.48532, lng: -151.06902}
- id: '0272135'
  slug: south-lakes
  name: South Lakes
  state: ak
  kind: cdp
  geo: {lat: 61.58756, lng: -149.31554}
- id: 0272190
  slug: south-naknek
  name: South Naknek
  state: ak
  kind: cdp
  geo: {lat: 58.66279, lng: -156.98408}
- id: '0272230'
  slug: south-van-horn
  name: South Van Horn
  state: ak
  kind: cdp
  geo: {lat: 64.80973, lng: -147.78778}
- id: 0265800
  slug: st-george
  name: St. George
  state: ak
  kind: city
  geo: {lat: 56.57729, lng: -169.62924}
- id: '0266140'
  slug: st-mary-s
  name: St. Mary's
  state: ak
  kind: city
  geo: {lat: 62.06277, lng: -163.24424}
- id: '0266360'
  slug: st-michael
  name: St. Michael
  state: ak
  kind: city
  geo: {lat: 63.45862, lng: -162.13387}
- id: '0266470'
  slug: st-paul
  name: St. Paul
  state: ak
  kind: city
  geo: {lat: 57.17826, lng: -170.32361}
- id: 0272960
  slug: stebbins
  name: Stebbins
  state: ak
  kind: city
  geo: {lat: 63.47336, lng: -162.25997}
- id: 0272985
  slug: steele-creek
  name: Steele Creek
  state: ak
  kind: cdp
  geo: {lat: 64.92561, lng: -147.43506}
- id: '0273070'
  slug: sterling
  name: Sterling
  state: ak
  kind: cdp
  geo: {lat: 60.53905, lng: -150.81226}
- id: 0273290
  slug: stevens-village
  name: Stevens Village
  state: ak
  kind: cdp
  geo: {lat: 66.02432, lng: -149.0778}
- id: '0273400'
  slug: stony-river
  name: Stony River
  state: ak
  kind: cdp
  geo: {lat: 61.79275, lng: -156.59055}
- id: 0273950
  slug: sunrise
  name: Sunrise
  state: ak
  kind: cdp
  geo: {lat: 60.86913, lng: -149.47151}
- id: '0274340'
  slug: susitna
  name: Susitna
  state: ak
  kind: cdp
  geo: {lat: 61.54028, lng: -150.58794}
- id: '0274350'
  slug: susitna-north
  name: Susitna North
  state: ak
  kind: cdp
  geo: {lat: 62.14759, lng: -149.74854}
- id: '0274525'
  slug: sutton-alpine
  name: Sutton-Alpine
  state: ak
  kind: cdp
  geo: {lat: 61.74144, lng: -148.87418}
- id: '0274610'
  slug: takotna
  name: Takotna
  state: ak
  kind: cdp
  geo: {lat: 62.98685, lng: -156.04316}
- id: 0274830
  slug: talkeetna
  name: Talkeetna
  state: ak
  kind: cdp
  geo: {lat: 62.30951, lng: -149.92393}
- id: '0275050'
  slug: tanacross
  name: Tanacross
  state: ak
  kind: cdp
  geo: {lat: 63.32869, lng: -143.4866}
- id: '0275077'
  slug: tanaina
  name: Tanaina
  state: ak
  kind: cdp
  geo: {lat: 61.65716, lng: -149.42819}
- id: '0275160'
  slug: tanana
  name: Tanana
  state: ak
  kind: city
  geo: {lat: 65.184, lng: -152.0551}
- id: 0275380
  slug: tatitlek
  name: Tatitlek
  state: ak
  kind: cdp
  geo: {lat: 60.89366, lng: -146.67014}
- id: 0275480
  slug: tazlina
  name: Tazlina
  state: ak
  kind: cdp
  geo: {lat: 62.05828, lng: -145.46397}
- id: 0275930
  slug: teller
  name: Teller
  state: ak
  kind: city
  geo: {lat: 65.25251, lng: -166.35233}
- id: '0276260'
  slug: tenakee-springs
  name: Tenakee Springs
  state: ak
  kind: city
  geo: {lat: 57.79005, lng: -135.13545}
- id: 0276590
  slug: tetlin
  name: Tetlin
  state: ak
  kind: cdp
  geo: {lat: 63.18176, lng: -142.50446}
- id: '0277140'
  slug: thorne-bay
  name: Thorne Bay
  state: ak
  kind: city
  geo: {lat: 55.66703, lng: -132.53565}
- id: 0277690
  slug: togiak
  name: Togiak
  state: ak
  kind: city
  geo: {lat: 59.05294, lng: -160.39685}
- id: 0277800
  slug: tok
  name: Tok
  state: ak
  kind: cdp
  geo: {lat: 63.32932, lng: -143.0378}
- id: 0278240
  slug: toksook-bay
  name: Toksook Bay
  state: ak
  kind: city
  geo: {lat: 60.5286, lng: -165.10564}
- id: 0278297
  slug: tolsona
  name: Tolsona
  state: ak
  kind: cdp
  geo: {lat: 62.06894, lng: -146.12293}
- id: 0278350
  slug: tonsina
  name: Tonsina
  state: ak
  kind: cdp
  geo: {lat: 61.5309, lng: -145.11087}
- id: 0278680
  slug: trapper-creek
  name: Trapper Creek
  state: ak
  kind: cdp
  geo: {lat: 62.41537, lng: -150.40784}
- id: 0278790
  slug: tuluksak
  name: Tuluksak
  state: ak
  kind: cdp
  geo: {lat: 61.10442, lng: -160.93836}
- id: 0279120
  slug: tuntutuliak
  name: Tuntutuliak
  state: ak
  kind: cdp
  geo: {lat: 60.41029, lng: -162.66939}
- id: 0279230
  slug: tununak
  name: Tununak
  state: ak
  kind: cdp
  geo: {lat: 60.60738, lng: -165.12687}
- id: 0279780
  slug: twin-hills
  name: Twin Hills
  state: ak
  kind: cdp
  geo: {lat: 59.08494, lng: -160.27665}
- id: 0279830
  slug: two-rivers
  name: Two Rivers
  state: ak
  kind: cdp
  geo: {lat: 64.89084, lng: -147.08988}
- id: 0279890
  slug: tyonek
  name: Tyonek
  state: ak
  kind: cdp
  geo: {lat: 61.09942, lng: -151.33891}
- id: 0280100
  slug: ugashik
  name: Ugashik
  state: ak
  kind: cdp
  geo: {lat: 57.64688, lng: -156.99619}
- id: 0280660
  slug: unalakleet
  name: Unalakleet
  state: ak
  kind: city
  geo: {lat: 63.89297, lng: -160.79582}
- id: 0280770
  slug: unalaska
  name: Unalaska
  state: ak
  kind: city
  geo: {lat: 53.91023, lng: -166.52906}
- id: 0281320
  slug: upper-kalskag
  name: Upper Kalskag
  state: ak
  kind: city
  geo: {lat: 61.5387, lng: -160.35022}
- id: 0281920
  slug: utqiagvik
  name: Utqiaġvik
  state: ak
  kind: city
  geo: {lat: 71.26438, lng: -156.75368}
- id: 0282200
  slug: valdez
  name: Valdez
  state: ak
  kind: city
  geo: {lat: 61.08132, lng: -146.3049}
- id: 0282420
  slug: venetie
  name: Venetie
  state: ak
  kind: cdp
  geo: {lat: 67.02069, lng: -146.37428}
- id: 0282750
  slug: wainwright
  name: Wainwright
  state: ak
  kind: city
  geo: {lat: 70.64895, lng: -159.9459}
- id: 0282860
  slug: wales
  name: Wales
  state: ak
  kind: city
  geo: {lat: 65.61325, lng: -168.06826}
- id: 0283080
  slug: wasilla
  name: Wasilla
  state: ak
  kind: city
  geo: {lat: 61.58114, lng: -149.46079}
- id: 0284000
  slug: whale-pass
  name: Whale Pass
  state: ak
  kind: city
  geo: {lat: 56.08212, lng: -133.06747}
- id: 0284070
  slug: white-mountain
  name: White Mountain
  state: ak
  kind: city
  geo: {lat: 64.68235, lng: -163.41369}
- id: 0284120
  slug: whitestone
  name: Whitestone
  state: ak
  kind: cdp
  geo: {lat: 64.15263, lng: -145.90584}
- id: 0284200
  slug: whitestone-logging-camp
  name: Whitestone Logging Camp
  state: ak
  kind: cdp
  geo: {lat: 58.05834, lng: -135.40933}
- id: 0284510
  slug: whittier
  name: Whittier
  state: ak
  kind: city
  geo: {lat: 60.77729, lng: -148.66384}
- id: 0285280
  slug: willow
  name: Willow
  state: ak
  kind: cdp
  geo: {lat: 61.88696, lng: -149.62024}
- id: 0285290
  slug: willow-creek
  name: Willow Creek
  state: ak
  kind: cdp
  geo: {lat: 61.82679, lng: -145.18461}
- id: 0285610
  slug: wiseman
  name: Wiseman
  state: ak
  kind: cdp
  geo: {lat: 67.48148, lng: -150.15861}
- id: 0285680
  slug: womens-bay
  name: Womens Bay
  state: ak
  kind: cdp
  geo: {lat: 57.68864, lng: -152.67721}
- id: 0286380
  slug: wrangell-city-and
  name: Wrangell city and
  state: ak
  kind: other
  geo: {lat: 56.18078, lng: -132.02679}
- id: 0286490
  slug: yakutat
  name: Yakutat
  state: ak
  kind: cdp
  geo: {lat: 59.56359, lng: -139.60619}
