- id: 0500190
  slug: acorn
  name: Acorn
  state: ar
  kind: cdp
  geo: {lat: 34.63879, lng: -94.20011}
- id: '0500250'
  slug: adona
  name: Adona
  state: ar
  kind: city
  geo: {lat: 35.03993, lng: -92.89913}
- id: 0500580
  slug: alexander
  name: Alexander
  state: ar
  kind: city
  geo: {lat: 34.61859, lng: -92.45122}
- id: '0500700'
  slug: alicia
  name: Alicia
  state: ar
  kind: town
  geo: {lat: 35.89291, lng: -91.08345}
- id: '0500730'
  slug: alix
  name: Alix
  state: ar
  kind: cdp
  geo: {lat: 35.422, lng: -93.72878}
- id: 0500820
  slug: alleene
  name: Alleene
  state: ar
  kind: cdp
  geo: {lat: 33.76482, lng: -94.2622}
- id: 0500940
  slug: allport
  name: Allport
  state: ar
  kind: town
  geo: {lat: 34.53987, lng: -91.78389}
- id: 0500970
  slug: alma
  name: Alma
  state: ar
  kind: city
  geo: {lat: 35.49238, lng: -94.21395}
- id: '0501030'
  slug: almyra
  name: Almyra
  state: ar
  kind: town
  geo: {lat: 34.40569, lng: -91.41085}
- id: '0501060'
  slug: alpena
  name: Alpena
  state: ar
  kind: town
  geo: {lat: 36.29275, lng: -93.30361}
- id: 0501090
  slug: alpine
  name: Alpine
  state: ar
  kind: cdp
  geo: {lat: 34.22689, lng: -93.37832}
- id: '0501150'
  slug: altheimer
  name: Altheimer
  state: ar
  kind: city
  geo: {lat: 34.32743, lng: -91.84728}
- id: '0501210'
  slug: altus
  name: Altus
  state: ar
  kind: city
  geo: {lat: 35.44956, lng: -93.76526}
- id: '0501270'
  slug: amagon
  name: Amagon
  state: ar
  kind: town
  geo: {lat: 35.56317, lng: -91.10941}
- id: '0501360'
  slug: amity
  name: Amity
  state: ar
  kind: city
  geo: {lat: 34.26619, lng: -93.46342}
- id: '0501457'
  slug: anthonyville
  name: Anthonyville
  state: ar
  kind: town
  geo: {lat: 35.03983, lng: -90.34033}
- id: '0501540'
  slug: antoine
  name: Antoine
  state: ar
  kind: town
  geo: {lat: 34.03454, lng: -93.42136}
- id: '0501630'
  slug: aplin
  name: Aplin
  state: ar
  kind: cdp
  geo: {lat: 34.96748, lng: -92.98127}
- id: '0501660'
  slug: appleton
  name: Appleton
  state: ar
  kind: cdp
  geo: {lat: 35.41082, lng: -92.87528}
- id: 0501870
  slug: arkadelphia
  name: Arkadelphia
  state: ar
  kind: city
  geo: {lat: 34.12738, lng: -93.07085}
- id: 0501990
  slug: arkansas-city
  name: Arkansas City
  state: ar
  kind: city
  geo: {lat: 33.60888, lng: -91.2049}
- id: '0502230'
  slug: armorel
  name: Armorel
  state: ar
  kind: cdp
  geo: {lat: 35.92557, lng: -89.79796}
- id: '0502470'
  slug: ash-flat
  name: Ash Flat
  state: ar
  kind: city
  geo: {lat: 36.23656, lng: -91.60651}
- id: 0502380
  slug: ashdown
  name: Ashdown
  state: ar
  kind: city
  geo: {lat: 33.67453, lng: -94.12663}
- id: 0502590
  slug: atkins
  name: Atkins
  state: ar
  kind: city
  geo: {lat: 35.24086, lng: -92.94964}
- id: 0502680
  slug: aubrey
  name: Aubrey
  state: ar
  kind: town
  geo: {lat: 34.71982, lng: -90.89798}
- id: '0502740'
  slug: augusta
  name: Augusta
  state: ar
  kind: city
  geo: {lat: 35.28655, lng: -91.36086}
- id: 0502860
  slug: austin
  name: Austin
  state: ar
  kind: city
  geo: {lat: 35.00591, lng: -91.98961}
- id: '0503010'
  slug: avilla
  name: Avilla
  state: ar
  kind: cdp
  geo: {lat: 34.69484, lng: -92.58614}
- id: '0503040'
  slug: avoca
  name: Avoca
  state: ar
  kind: town
  geo: {lat: 36.3947, lng: -94.06577}
- id: 0503280
  slug: bald-knob
  name: Bald Knob
  state: ar
  kind: city
  geo: {lat: 35.31254, lng: -91.57125}
- id: '0503430'
  slug: banks
  name: Banks
  state: ar
  kind: town
  geo: {lat: 33.5758, lng: -92.2671}
- id: '0503640'
  slug: barling
  name: Barling
  state: ar
  kind: city
  geo: {lat: 35.33129, lng: -94.27519}
- id: 0503940
  slug: bassett
  name: Bassett
  state: ar
  kind: town
  geo: {lat: 35.53558, lng: -90.12943}
- id: 0503970
  slug: batavia
  name: Batavia
  state: ar
  kind: cdp
  geo: {lat: 36.24785, lng: -93.21577}
- id: '0504030'
  slug: batesville
  name: Batesville
  state: ar
  kind: city
  geo: {lat: 35.76857, lng: -91.62265}
- id: 0504090
  slug: bauxite
  name: Bauxite
  state: ar
  kind: town
  geo: {lat: 34.55448, lng: -92.50579}
- id: 0504180
  slug: bay
  name: Bay
  state: ar
  kind: city
  geo: {lat: 35.74606, lng: -90.55214}
- id: '0504420'
  slug: bearden
  name: Bearden
  state: ar
  kind: city
  geo: {lat: 33.72765, lng: -92.61868}
- id: '0504540'
  slug: beaver
  name: Beaver
  state: ar
  kind: town
  geo: {lat: 36.47399, lng: -93.77733}
- id: '0504630'
  slug: bee-branch
  name: Bee Branch
  state: ar
  kind: cdp
  geo: {lat: 35.46262, lng: -92.40102}
- id: '0504600'
  slug: beebe
  name: Beebe
  state: ar
  kind: city
  geo: {lat: 35.07243, lng: -91.90106}
- id: '0504720'
  slug: beedeville
  name: Beedeville
  state: ar
  kind: town
  geo: {lat: 35.42917, lng: -91.11074}
- id: '0504750'
  slug: beirne
  name: Beirne
  state: ar
  kind: cdp
  geo: {lat: 33.88821, lng: -93.20622}
- id: 0504840
  slug: bella-vista
  name: Bella Vista
  state: ar
  kind: city
  geo: {lat: 36.46664, lng: -94.26632}
- id: 0504900
  slug: bellefonte
  name: Bellefonte
  state: ar
  kind: town
  geo: {lat: 36.19986, lng: -93.04704}
- id: 0504960
  slug: belleville
  name: Belleville
  state: ar
  kind: city
  geo: {lat: 35.09153, lng: -93.44577}
- id: '0505260'
  slug: ben-lomond
  name: Ben Lomond
  state: ar
  kind: town
  geo: {lat: 33.82911, lng: -94.12332}
- id: 0505290
  slug: benton
  name: Benton
  state: ar
  kind: city
  geo: {lat: 34.57742, lng: -92.57258}
- id: '0505320'
  slug: bentonville
  name: Bentonville
  state: ar
  kind: city
  geo: {lat: 36.35266, lng: -94.23118}
- id: '0505440'
  slug: bergman
  name: Bergman
  state: ar
  kind: town
  geo: {lat: 36.31279, lng: -93.01122}
- id: '0505560'
  slug: berryville
  name: Berryville
  state: ar
  kind: city
  geo: {lat: 36.37028, lng: -93.56834}
- id: '0505770'
  slug: bethesda
  name: Bethesda
  state: ar
  kind: cdp
  geo: {lat: 35.7871, lng: -91.79271}
- id: 0505980
  slug: big-flat
  name: Big Flat
  state: ar
  kind: town
  geo: {lat: 36.00339, lng: -92.41022}
- id: 0505920
  slug: bigelow
  name: Bigelow
  state: ar
  kind: town
  geo: {lat: 34.9978, lng: -92.63117}
- id: '0506040'
  slug: biggers
  name: Biggers
  state: ar
  kind: town
  geo: {lat: 36.33136, lng: -90.8007}
- id: '0506340'
  slug: birdsong
  name: Birdsong
  state: ar
  kind: town
  geo: {lat: 35.46116, lng: -90.25976}
- id: '0506460'
  slug: bismarck
  name: Bismarck
  state: ar
  kind: cdp
  geo: {lat: 34.32184, lng: -93.17814}
- id: '0506610'
  slug: black-oak
  name: Black Oak
  state: ar
  kind: town
  geo: {lat: 35.83639, lng: -90.36755}
- id: '0506700'
  slug: black-rock
  name: Black Rock
  state: ar
  kind: city
  geo: {lat: 36.10624, lng: -91.10748}
- id: '0506730'
  slug: black-springs
  name: Black Springs
  state: ar
  kind: town
  geo: {lat: 34.45598, lng: -93.71312}
- id: '0507030'
  slug: blevins
  name: Blevins
  state: ar
  kind: city
  geo: {lat: 33.87125, lng: -93.57819}
- id: '0507150'
  slug: blue-eye
  name: Blue Eye
  state: ar
  kind: town
  geo: {lat: 36.49667, lng: -93.39771}
- id: '0507210'
  slug: blue-mountain
  name: Blue Mountain
  state: ar
  kind: town
  geo: {lat: 35.1318, lng: -93.71667}
- id: '0507270'
  slug: bluff-city
  name: Bluff City
  state: ar
  kind: town
  geo: {lat: 33.73512, lng: -93.12456}
- id: '0507330'
  slug: blytheville
  name: Blytheville
  state: ar
  kind: city
  geo: {lat: 35.93407, lng: -89.90513}
- id: '0507420'
  slug: board-camp
  name: Board Camp
  state: ar
  kind: cdp
  geo: {lat: 34.53252, lng: -94.07967}
- id: '0507450'
  slug: bodcaw
  name: Bodcaw
  state: ar
  kind: town
  geo: {lat: 33.56364, lng: -93.39304}
- id: '0507510'
  slug: boles
  name: Boles
  state: ar
  kind: cdp
  geo: {lat: 34.78812, lng: -94.0494}
- id: '0507540'
  slug: bonanza
  name: Bonanza
  state: ar
  kind: city
  geo: {lat: 35.23179, lng: -94.41613}
- id: '0507630'
  slug: bono
  name: Bono
  state: ar
  kind: city
  geo: {lat: 35.9111, lng: -90.80082}
- id: '0507720'
  slug: booneville
  name: Booneville
  state: ar
  kind: city
  geo: {lat: 35.13933, lng: -93.9175}
- id: 0508020
  slug: bowman
  name: Bowman
  state: ar
  kind: cdp
  geo: {lat: 35.81683, lng: -90.49623}
- id: 0508260
  slug: bradford
  name: Bradford
  state: ar
  kind: city
  geo: {lat: 35.422, lng: -91.45523}
- id: 0508290
  slug: bradley
  name: Bradley
  state: ar
  kind: city
  geo: {lat: 33.10011, lng: -93.6569}
- id: 0508440
  slug: branch
  name: Branch
  state: ar
  kind: city
  geo: {lat: 35.3083, lng: -93.95537}
- id: 0508665
  slug: briarcliff
  name: Briarcliff
  state: ar
  kind: city
  geo: {lat: 36.27197, lng: -92.28209}
- id: 0508950
  slug: brinkley
  name: Brinkley
  state: ar
  kind: city
  geo: {lat: 34.88978, lng: -91.18982}
- id: 0509100
  slug: brookland
  name: Brookland
  state: ar
  kind: city
  geo: {lat: 35.90055, lng: -90.57817}
- id: 0509460
  slug: bryant
  name: Bryant
  state: ar
  kind: city
  geo: {lat: 34.61506, lng: -92.49134}
- id: 0509550
  slug: buckner
  name: Buckner
  state: ar
  kind: city
  geo: {lat: 33.35727, lng: -93.43556}
- id: 0509700
  slug: buffalo-city
  name: Buffalo City
  state: ar
  kind: cdp
  geo: {lat: 36.16907, lng: -92.43794}
- id: 0509790
  slug: bull-shoals
  name: Bull Shoals
  state: ar
  kind: city
  geo: {lat: 36.37357, lng: -92.5915}
- id: 0509880
  slug: burdette
  name: Burdette
  state: ar
  kind: town
  geo: {lat: 35.81527, lng: -89.94642}
- id: '0510300'
  slug: cabot
  name: Cabot
  state: ar
  kind: city
  geo: {lat: 34.97511, lng: -92.02829}
- id: '0510330'
  slug: caddo-gap
  name: Caddo Gap
  state: ar
  kind: cdp
  geo: {lat: 34.40249, lng: -93.61788}
- id: '0510360'
  slug: caddo-valley
  name: Caddo Valley
  state: ar
  kind: town
  geo: {lat: 34.18075, lng: -93.0846}
- id: '0510450'
  slug: caldwell
  name: Caldwell
  state: ar
  kind: town
  geo: {lat: 35.07479, lng: -90.80945}
- id: 0510480
  slug: cale
  name: Cale
  state: ar
  kind: town
  geo: {lat: 33.62789, lng: -93.2328}
- id: '0510570'
  slug: calico-rock
  name: Calico Rock
  state: ar
  kind: city
  geo: {lat: 36.12197, lng: -92.12591}
- id: '0510600'
  slug: calion
  name: Calion
  state: ar
  kind: city
  geo: {lat: 33.32841, lng: -92.54019}
- id: '0510720'
  slug: camden
  name: Camden
  state: ar
  kind: city
  geo: {lat: 33.56767, lng: -92.84906}
- id: 0510780
  slug: cammack-village
  name: Cammack Village
  state: ar
  kind: city
  geo: {lat: 34.7808, lng: -92.34498}
- id: 0510900
  slug: campbell-station
  name: Campbell Station
  state: ar
  kind: city
  geo: {lat: 35.6678, lng: -91.25375}
- id: 0511080
  slug: canehill
  name: Canehill
  state: ar
  kind: cdp
  geo: {lat: 35.91376, lng: -94.39732}
- id: '0511410'
  slug: caraway
  name: Caraway
  state: ar
  kind: city
  geo: {lat: 35.76022, lng: -90.32208}
- id: '0511500'
  slug: carlisle
  name: Carlisle
  state: ar
  kind: city
  geo: {lat: 34.79543, lng: -91.74049}
- id: 0511830
  slug: carthage
  name: Carthage
  state: ar
  kind: city
  geo: {lat: 34.07261, lng: -92.55531}
- id: 0511890
  slug: casa
  name: Casa
  state: ar
  kind: town
  geo: {lat: 35.02497, lng: -93.04551}
- id: 0511920
  slug: cash
  name: Cash
  state: ar
  kind: town
  geo: {lat: 35.80116, lng: -90.93165}
- id: 0512190
  slug: caulksville
  name: Caulksville
  state: ar
  kind: town
  geo: {lat: 35.30185, lng: -93.86781}
- id: 0512280
  slug: cave-city
  name: Cave City
  state: ar
  kind: city
  geo: {lat: 35.9478, lng: -91.54698}
- id: '0512340'
  slug: cave-springs
  name: Cave Springs
  state: ar
  kind: city
  geo: {lat: 36.27412, lng: -94.2236}
- id: '0512520'
  slug: cedarville
  name: Cedarville
  state: ar
  kind: city
  geo: {lat: 35.58397, lng: -94.3619}
- id: '0512700'
  slug: center-point
  name: Center Point
  state: ar
  kind: cdp
  geo: {lat: 34.03183, lng: -93.95117}
- id: 0512790
  slug: center-ridge
  name: Center Ridge
  state: ar
  kind: cdp
  geo: {lat: 35.38071, lng: -92.57563}
- id: 0512820
  slug: centerton
  name: Centerton
  state: ar
  kind: city
  geo: {lat: 36.35515, lng: -94.29769}
- id: 0512940
  slug: centerville
  name: Centerville
  state: ar
  kind: cdp
  geo: {lat: 35.1157, lng: -93.17146}
- id: '0513120'
  slug: central-city
  name: Central City
  state: ar
  kind: town
  geo: {lat: 35.33637, lng: -94.23804}
- id: '0513300'
  slug: charleston
  name: Charleston
  state: ar
  kind: city
  geo: {lat: 35.29451, lng: -94.04835}
- id: '0513420'
  slug: cherokee-city
  name: Cherokee City
  state: ar
  kind: cdp
  geo: {lat: 36.2947, lng: -94.5768}
- id: '0513450'
  slug: cherokee-village
  name: Cherokee Village
  state: ar
  kind: city
  geo: {lat: 36.29132, lng: -91.56937}
- id: '0513540'
  slug: cherry-valley
  name: Cherry Valley
  state: ar
  kind: city
  geo: {lat: 35.38822, lng: -90.77111}
- id: '0513570'
  slug: chester
  name: Chester
  state: ar
  kind: town
  geo: {lat: 35.67777, lng: -94.17783}
- id: '0513750'
  slug: chidester
  name: Chidester
  state: ar
  kind: city
  geo: {lat: 33.70195, lng: -93.0238}
- id: 0513960
  slug: cincinnati
  name: Cincinnati
  state: ar
  kind: cdp
  geo: {lat: 36.04532, lng: -94.52731}
- id: 0513990
  slug: clarendon
  name: Clarendon
  state: ar
  kind: city
  geo: {lat: 34.69297, lng: -91.30629}
- id: '0514050'
  slug: clarkedale
  name: Clarkedale
  state: ar
  kind: city
  geo: {lat: 35.29703, lng: -90.21025}
- id: '0514140'
  slug: clarksville
  name: Clarksville
  state: ar
  kind: city
  geo: {lat: 35.45392, lng: -93.48156}
- id: '0514260'
  slug: clinton
  name: Clinton
  state: ar
  kind: city
  geo: {lat: 35.57898, lng: -92.45574}
- id: '0514500'
  slug: coal-hill
  name: Coal Hill
  state: ar
  kind: city
  geo: {lat: 35.43689, lng: -93.66519}
- id: 0514860
  slug: college-station
  name: College Station
  state: ar
  kind: cdp
  geo: {lat: 34.70054, lng: -92.22843}
- id: 0514920
  slug: collins
  name: Collins
  state: ar
  kind: cdp
  geo: {lat: 33.53227, lng: -91.57244}
- id: 0514950
  slug: colt
  name: Colt
  state: ar
  kind: city
  geo: {lat: 35.1329, lng: -90.81293}
- id: '0515100'
  slug: concord
  name: Concord
  state: ar
  kind: town
  geo: {lat: 35.66633, lng: -91.86062}
- id: 0515190
  slug: conway
  name: Conway
  state: ar
  kind: city
  geo: {lat: 35.0744, lng: -92.467}
- id: '0515310'
  slug: corinth
  name: Corinth
  state: ar
  kind: town
  geo: {lat: 35.06951, lng: -93.42009}
- id: '0515460'
  slug: corning
  name: Corning
  state: ar
  kind: city
  geo: {lat: 36.41368, lng: -90.58361}
- id: 0515490
  slug: cotter
  name: Cotter
  state: ar
  kind: city
  geo: {lat: 36.2819, lng: -92.52082}
- id: '0515550'
  slug: cotton-plant
  name: Cotton Plant
  state: ar
  kind: city
  geo: {lat: 35.00592, lng: -91.25205}
- id: '0515700'
  slug: cove
  name: Cove
  state: ar
  kind: town
  geo: {lat: 34.43898, lng: -94.42232}
- id: 0515790
  slug: coy
  name: Coy
  state: ar
  kind: town
  geo: {lat: 34.54048, lng: -91.8713}
- id: 0515940
  slug: crawfordsville
  name: Crawfordsville
  state: ar
  kind: town
  geo: {lat: 35.22667, lng: -90.32417}
- id: '0516240'
  slug: crossett
  name: Crossett
  state: ar
  kind: city
  geo: {lat: 33.12282, lng: -91.95808}
- id: 0516690
  slug: crystal-springs
  name: Crystal Springs
  state: ar
  kind: cdp
  geo: {lat: 34.52483, lng: -93.33362}
- id: 0516930
  slug: cushman
  name: Cushman
  state: ar
  kind: city
  geo: {lat: 35.86584, lng: -91.77808}
- id: '0517140'
  slug: daisy
  name: Daisy
  state: ar
  kind: town
  geo: {lat: 34.23592, lng: -93.73919}
- id: 0517290
  slug: damascus
  name: Damascus
  state: ar
  kind: town
  geo: {lat: 35.36709, lng: -92.41071}
- id: '0517320'
  slug: danville
  name: Danville
  state: ar
  kind: city
  geo: {lat: 35.05246, lng: -93.3912}
- id: 0517380
  slug: dardanelle
  name: Dardanelle
  state: ar
  kind: city
  geo: {lat: 35.22631, lng: -93.16591}
- id: '0517410'
  slug: datto
  name: Datto
  state: ar
  kind: town
  geo: {lat: 36.39247, lng: -90.7285}
- id: 0518490
  slug: de-queen
  name: De Queen
  state: ar
  kind: city
  geo: {lat: 34.04225, lng: -94.34213}
- id: 0518640
  slug: de-valls-bluff
  name: De Valls Bluff
  state: ar
  kind: city
  geo: {lat: 34.78587, lng: -91.46107}
- id: '0517740'
  slug: decatur
  name: Decatur
  state: ar
  kind: city
  geo: {lat: 36.34853, lng: -94.45804}
- id: 0517860
  slug: deer
  name: Deer
  state: ar
  kind: cdp
  geo: {lat: 35.82802, lng: -93.21962}
- id: 0518010
  slug: delaplaine
  name: Delaplaine
  state: ar
  kind: town
  geo: {lat: 36.23041, lng: -90.72567}
- id: 0518100
  slug: delight
  name: Delight
  state: ar
  kind: city
  geo: {lat: 34.02953, lng: -93.50656}
- id: 0518160
  slug: dell
  name: Dell
  state: ar
  kind: town
  geo: {lat: 35.85717, lng: -90.03408}
- id: 0518340
  slug: dennard
  name: Dennard
  state: ar
  kind: cdp
  geo: {lat: 35.74792, lng: -92.55}
- id: 0518370
  slug: denning
  name: Denning
  state: ar
  kind: town
  geo: {lat: 35.42515, lng: -93.75676}
- id: 0518520
  slug: dermott
  name: Dermott
  state: ar
  kind: city
  geo: {lat: 33.52621, lng: -91.4323}
- id: 0518550
  slug: des-arc
  name: Des Arc
  state: ar
  kind: city
  geo: {lat: 34.97843, lng: -91.50683}
- id: 0518580
  slug: desha
  name: Desha
  state: ar
  kind: cdp
  geo: {lat: 35.73045, lng: -91.68558}
- id: 0518790
  slug: dewitt
  name: DeWitt
  state: ar
  kind: city
  geo: {lat: 34.28737, lng: -91.33833}
- id: 0518850
  slug: diamond-city
  name: Diamond City
  state: ar
  kind: city
  geo: {lat: 36.45761, lng: -92.91099}
- id: 0518880
  slug: diamondhead
  name: Diamondhead
  state: ar
  kind: city
  geo: {lat: 34.43957, lng: -92.95799}
- id: 0518940
  slug: diaz
  name: Diaz
  state: ar
  kind: city
  geo: {lat: 35.64877, lng: -91.25893}
- id: 0518970
  slug: dierks
  name: Dierks
  state: ar
  kind: city
  geo: {lat: 34.11996, lng: -94.01728}
- id: 0519450
  slug: donaldson
  name: Donaldson
  state: ar
  kind: town
  geo: {lat: 34.23498, lng: -92.91952}
- id: 0519540
  slug: dora
  name: Dora
  state: ar
  kind: cdp
  geo: {lat: 35.46296, lng: -94.42987}
- id: 0519600
  slug: dover
  name: Dover
  state: ar
  kind: city
  geo: {lat: 35.39098, lng: -93.11424}
- id: 0519720
  slug: drasco
  name: Drasco
  state: ar
  kind: cdp
  geo: {lat: 35.63377, lng: -91.94178}
- id: 0519990
  slug: dumas
  name: Dumas
  state: ar
  kind: city
  geo: {lat: 33.88337, lng: -91.48563}
- id: '0520200'
  slug: dyer
  name: Dyer
  state: ar
  kind: city
  geo: {lat: 35.49437, lng: -94.13881}
- id: '0520230'
  slug: dyess
  name: Dyess
  state: ar
  kind: town
  geo: {lat: 35.58934, lng: -90.21329}
- id: '0520320'
  slug: earle
  name: Earle
  state: ar
  kind: city
  geo: {lat: 35.27338, lng: -90.4643}
- id: '0520440'
  slug: east-camden
  name: East Camden
  state: ar
  kind: town
  geo: {lat: 33.60842, lng: -92.74497}
- id: '0520470'
  slug: east-end
  name: East End
  state: ar
  kind: cdp
  geo: {lat: 34.5545, lng: -92.32748}
- id: 0520800
  slug: edgemont
  name: Edgemont
  state: ar
  kind: cdp
  geo: {lat: 35.60069, lng: -92.19637}
- id: 0520830
  slug: edmondson
  name: Edmondson
  state: ar
  kind: town
  geo: {lat: 35.10504, lng: -90.30545}
- id: 0520920
  slug: egypt
  name: Egypt
  state: ar
  kind: town
  geo: {lat: 35.86778, lng: -90.94583}
- id: '0521070'
  slug: el-dorado
  name: El Dorado
  state: ar
  kind: city
  geo: {lat: 33.21898, lng: -92.66407}
- id: '0521520'
  slug: el-paso
  name: El Paso
  state: ar
  kind: cdp
  geo: {lat: 35.1153, lng: -92.08119}
- id: 0520950
  slug: elaine
  name: Elaine
  state: ar
  kind: city
  geo: {lat: 34.3086, lng: -90.85335}
- id: 0521190
  slug: elkins
  name: Elkins
  state: ar
  kind: city
  geo: {lat: 36.01722, lng: -94.0235}
- id: '0521430'
  slug: elm-springs
  name: Elm Springs
  state: ar
  kind: city
  geo: {lat: 36.20622, lng: -94.2379}
- id: 0521580
  slug: emerson
  name: Emerson
  state: ar
  kind: town
  geo: {lat: 33.09733, lng: -93.19598}
- id: '0521610'
  slug: emmet
  name: Emmet
  state: ar
  kind: city
  geo: {lat: 33.72254, lng: -93.46616}
- id: '0521730'
  slug: england
  name: England
  state: ar
  kind: city
  geo: {lat: 34.54543, lng: -91.96744}
- id: 0521820
  slug: enola
  name: Enola
  state: ar
  kind: town
  geo: {lat: 35.19591, lng: -92.20658}
- id: '0522120'
  slug: etowah
  name: Etowah
  state: ar
  kind: town
  geo: {lat: 35.71576, lng: -90.23068}
- id: 0522180
  slug: eudora
  name: Eudora
  state: ar
  kind: city
  geo: {lat: 33.11887, lng: -91.26403}
- id: '0522240'
  slug: eureka-springs
  name: Eureka Springs
  state: ar
  kind: city
  geo: {lat: 36.41077, lng: -93.7449}
- id: '0522300'
  slug: evansville
  name: Evansville
  state: ar
  kind: cdp
  geo: {lat: 35.79064, lng: -94.48884}
- id: '0522360'
  slug: evening-shade
  name: Evening Shade
  state: ar
  kind: city
  geo: {lat: 36.06993, lng: -91.62188}
- id: '0522450'
  slug: everton
  name: Everton
  state: ar
  kind: town
  geo: {lat: 36.15414, lng: -92.90954}
- id: '0522720'
  slug: fair-oaks
  name: Fair Oaks
  state: ar
  kind: cdp
  geo: {lat: 35.24799, lng: -91.03602}
- id: '0522660'
  slug: fairfield-bay
  name: Fairfield Bay
  state: ar
  kind: city
  geo: {lat: 35.6011, lng: -92.26621}
- id: '0523140'
  slug: fargo
  name: Fargo
  state: ar
  kind: town
  geo: {lat: 34.95399, lng: -91.17974}
- id: '0523170'
  slug: farmington
  name: Farmington
  state: ar
  kind: city
  geo: {lat: 36.03658, lng: -94.25247}
- id: 0523290
  slug: fayetteville
  name: Fayetteville
  state: ar
  kind: city
  geo: {lat: 36.07146, lng: -94.16656}
- id: '0523320'
  slug: felsenthal
  name: Felsenthal
  state: ar
  kind: town
  geo: {lat: 33.06083, lng: -92.14896}
- id: 0523680
  slug: fifty-six
  name: Fifty-Six
  state: ar
  kind: city
  geo: {lat: 35.96351, lng: -92.23336}
- id: 0523800
  slug: fisher
  name: Fisher
  state: ar
  kind: city
  geo: {lat: 35.49142, lng: -90.97249}
- id: '0524010'
  slug: flippin
  name: Flippin
  state: ar
  kind: city
  geo: {lat: 36.27732, lng: -92.59353}
- id: '0524070'
  slug: floral
  name: Floral
  state: ar
  kind: cdp
  geo: {lat: 35.58894, lng: -91.75893}
- id: '0524130'
  slug: floyd
  name: Floyd
  state: ar
  kind: cdp
  geo: {lat: 35.19888, lng: -91.96453}
- id: '0524220'
  slug: fordyce
  name: Fordyce
  state: ar
  kind: city
  geo: {lat: 33.81824, lng: -92.41697}
- id: '0524250'
  slug: foreman
  name: Foreman
  state: ar
  kind: city
  geo: {lat: 33.71949, lng: -94.39767}
- id: '0524430'
  slug: forrest-city
  name: Forrest City
  state: ar
  kind: city
  geo: {lat: 35.0136, lng: -90.79321}
- id: '0524550'
  slug: fort-smith
  name: Fort Smith
  state: ar
  kind: city
  geo: {lat: 35.34928, lng: -94.37088}
- id: '0524640'
  slug: fouke
  name: Fouke
  state: ar
  kind: city
  geo: {lat: 33.26223, lng: -93.88523}
- id: '0524670'
  slug: fountain-hill
  name: Fountain Hill
  state: ar
  kind: town
  geo: {lat: 33.35755, lng: -91.85114}
- id: '0524700'
  slug: fountain-lake
  name: Fountain Lake
  state: ar
  kind: town
  geo: {lat: 34.60968, lng: -92.92045}
- id: '0524760'
  slug: fourche
  name: Fourche
  state: ar
  kind: town
  geo: {lat: 34.99313, lng: -92.61894}
- id: 0524910
  slug: fox
  name: Fox
  state: ar
  kind: cdp
  geo: {lat: 35.7844, lng: -92.29963}
- id: '0525030'
  slug: franklin
  name: Franklin
  state: ar
  kind: town
  geo: {lat: 36.1727, lng: -91.76972}
- id: '0525060'
  slug: fredonia-biscoe
  name: Fredonia (Biscoe)
  state: ar
  kind: town
  geo: {lat: 34.81937, lng: -91.41016}
- id: 0525180
  slug: friendship
  name: Friendship
  state: ar
  kind: town
  geo: {lat: 34.22434, lng: -93.00366}
- id: '0525360'
  slug: fulton
  name: Fulton
  state: ar
  kind: town
  geo: {lat: 33.61256, lng: -93.81379}
- id: '0525630'
  slug: gamaliel
  name: Gamaliel
  state: ar
  kind: cdp
  geo: {lat: 36.45189, lng: -92.23693}
- id: '0525750'
  slug: garfield
  name: Garfield
  state: ar
  kind: city
  geo: {lat: 36.45535, lng: -93.97595}
- id: 0525780
  slug: garland
  name: Garland
  state: ar
  kind: town
  geo: {lat: 33.36096, lng: -93.71417}
- id: 0525900
  slug: garner
  name: Garner
  state: ar
  kind: town
  geo: {lat: 35.1425, lng: -91.77918}
- id: '0526050'
  slug: gassville
  name: Gassville
  state: ar
  kind: city
  geo: {lat: 36.28495, lng: -92.48683}
- id: '0526110'
  slug: gateway
  name: Gateway
  state: ar
  kind: town
  geo: {lat: 36.4889, lng: -93.93309}
- id: '0526260'
  slug: genoa
  name: Genoa
  state: ar
  kind: cdp
  geo: {lat: 33.37749, lng: -93.88241}
- id: 0526290
  slug: gentry
  name: Gentry
  state: ar
  kind: city
  geo: {lat: 36.25831, lng: -94.48677}
- id: '0526440'
  slug: georgetown
  name: Georgetown
  state: ar
  kind: town
  geo: {lat: 35.12668, lng: -91.45392}
- id: '0526710'
  slug: gibson
  name: Gibson
  state: ar
  kind: cdp
  geo: {lat: 34.90223, lng: -92.24082}
- id: 0526800
  slug: gilbert
  name: Gilbert
  state: ar
  kind: town
  geo: {lat: 35.99098, lng: -92.71618}
- id: 0526980
  slug: gillett
  name: Gillett
  state: ar
  kind: city
  geo: {lat: 34.11917, lng: -91.37913}
- id: '0527010'
  slug: gillham
  name: Gillham
  state: ar
  kind: town
  geo: {lat: 34.16863, lng: -94.31298}
- id: '0527040'
  slug: gilmore
  name: Gilmore
  state: ar
  kind: city
  geo: {lat: 35.41399, lng: -90.29558}
- id: '0527310'
  slug: glenwood
  name: Glenwood
  state: ar
  kind: city
  geo: {lat: 34.32831, lng: -93.52725}
- id: '0527610'
  slug: goodwin
  name: Goodwin
  state: ar
  kind: cdp
  geo: {lat: 34.94073, lng: -91.00358}
- id: '0527670'
  slug: goshen
  name: Goshen
  state: ar
  kind: town
  geo: {lat: 36.10246, lng: -94.00158}
- id: '0527700'
  slug: gosnell
  name: Gosnell
  state: ar
  kind: city
  geo: {lat: 35.96494, lng: -89.96858}
- id: '0527730'
  slug: gould
  name: Gould
  state: ar
  kind: city
  geo: {lat: 33.98719, lng: -91.56404}
- id: 0527790
  slug: grady
  name: Grady
  state: ar
  kind: city
  geo: {lat: 34.07249, lng: -91.69764}
- id: 0527970
  slug: grannis
  name: Grannis
  state: ar
  kind: city
  geo: {lat: 34.24016, lng: -94.322}
- id: 0528360
  slug: gravette
  name: Gravette
  state: ar
  kind: city
  geo: {lat: 36.4283, lng: -94.36853}
- id: 0528600
  slug: green-forest
  name: Green Forest
  state: ar
  kind: city
  geo: {lat: 36.33471, lng: -93.43096}
- id: 0528510
  slug: greenbrier
  name: Greenbrier
  state: ar
  kind: city
  geo: {lat: 35.22881, lng: -92.38356}
- id: 0528660
  slug: greenland
  name: Greenland
  state: ar
  kind: city
  geo: {lat: 35.99619, lng: -94.19089}
- id: 0528720
  slug: greenway
  name: Greenway
  state: ar
  kind: city
  geo: {lat: 36.34058, lng: -90.22212}
- id: 0528780
  slug: greenwood
  name: Greenwood
  state: ar
  kind: city
  geo: {lat: 35.21135, lng: -94.23944}
- id: 0528810
  slug: greers-ferry
  name: Greers Ferry
  state: ar
  kind: city
  geo: {lat: 35.57497, lng: -92.16596}
- id: 0528840
  slug: gregory
  name: Gregory
  state: ar
  kind: cdp
  geo: {lat: 35.15333, lng: -91.33424}
- id: 0528990
  slug: griffithville
  name: Griffithville
  state: ar
  kind: town
  geo: {lat: 35.12305, lng: -91.64497}
- id: 0529020
  slug: grubbs
  name: Grubbs
  state: ar
  kind: city
  geo: {lat: 35.654, lng: -91.07546}
- id: 0529080
  slug: guion
  name: Guion
  state: ar
  kind: town
  geo: {lat: 35.92683, lng: -91.93893}
- id: 0529140
  slug: gum-springs
  name: Gum Springs
  state: ar
  kind: town
  geo: {lat: 34.06394, lng: -93.09571}
- id: 0529200
  slug: gurdon
  name: Gurdon
  state: ar
  kind: city
  geo: {lat: 33.91603, lng: -93.15391}
- id: 0529230
  slug: guy
  name: Guy
  state: ar
  kind: city
  geo: {lat: 35.32607, lng: -92.33756}
- id: 0529290
  slug: hackett
  name: Hackett
  state: ar
  kind: city
  geo: {lat: 35.18803, lng: -94.41034}
- id: 0529320
  slug: hagarville
  name: Hagarville
  state: ar
  kind: cdp
  geo: {lat: 35.51502, lng: -93.33213}
- id: 0529380
  slug: halley
  name: Halley
  state: ar
  kind: cdp
  geo: {lat: 33.53625, lng: -91.32365}
- id: 0529500
  slug: hamburg
  name: Hamburg
  state: ar
  kind: city
  geo: {lat: 33.22476, lng: -91.79725}
- id: 0529650
  slug: hampton
  name: Hampton
  state: ar
  kind: city
  geo: {lat: 33.53476, lng: -92.46661}
- id: 0529920
  slug: hardy
  name: Hardy
  state: ar
  kind: city
  geo: {lat: 36.31965, lng: -91.4815}
- id: '0530310'
  slug: harrell
  name: Harrell
  state: ar
  kind: town
  geo: {lat: 33.50987, lng: -92.40006}
- id: '0530400'
  slug: harrisburg
  name: Harrisburg
  state: ar
  kind: city
  geo: {lat: 35.56399, lng: -90.72165}
- id: '0530460'
  slug: harrison
  name: Harrison
  state: ar
  kind: city
  geo: {lat: 36.24259, lng: -93.11765}
- id: 0530490
  slug: hartford
  name: Hartford
  state: ar
  kind: city
  geo: {lat: 35.02343, lng: -94.37941}
- id: '0530520'
  slug: hartman
  name: Hartman
  state: ar
  kind: city
  geo: {lat: 35.43525, lng: -93.62825}
- id: '0530640'
  slug: haskell
  name: Haskell
  state: ar
  kind: city
  geo: {lat: 34.50924, lng: -92.64186}
- id: '0530700'
  slug: hatfield
  name: Hatfield
  state: ar
  kind: town
  geo: {lat: 34.48451, lng: -94.37991}
- id: '0530730'
  slug: hattieville
  name: Hattieville
  state: ar
  kind: cdp
  geo: {lat: 35.29523, lng: -92.77535}
- id: 0530790
  slug: havana
  name: Havana
  state: ar
  kind: city
  geo: {lat: 35.10981, lng: -93.52602}
- id: 0530880
  slug: haynes
  name: Haynes
  state: ar
  kind: town
  geo: {lat: 34.89093, lng: -90.79266}
- id: 0530940
  slug: hazen
  name: Hazen
  state: ar
  kind: city
  geo: {lat: 34.78137, lng: -91.55806}
- id: 0531090
  slug: heber-springs
  name: Heber Springs
  state: ar
  kind: city
  geo: {lat: 35.49955, lng: -92.02934}
- id: '0531150'
  slug: hector
  name: Hector
  state: ar
  kind: town
  geo: {lat: 35.46291, lng: -92.97913}
- id: 0531190
  slug: helena-west-helena
  name: Helena-West Helena
  state: ar
  kind: city
  geo: {lat: 34.53136, lng: -90.6201}
- id: '0531270'
  slug: henderson
  name: Henderson
  state: ar
  kind: cdp
  geo: {lat: 36.37721, lng: -92.21892}
- id: 0531390
  slug: hensley
  name: Hensley
  state: ar
  kind: cdp
  geo: {lat: 34.51041, lng: -92.20952}
- id: '0531540'
  slug: hermitage
  name: Hermitage
  state: ar
  kind: city
  geo: {lat: 33.44737, lng: -92.17145}
- id: 0531900
  slug: hickory-ridge
  name: Hickory Ridge
  state: ar
  kind: city
  geo: {lat: 35.40281, lng: -90.99446}
- id: 0532080
  slug: higden
  name: Higden
  state: ar
  kind: town
  geo: {lat: 35.56641, lng: -92.20518}
- id: '0532140'
  slug: higginson
  name: Higginson
  state: ar
  kind: town
  geo: {lat: 35.19681, lng: -91.71518}
- id: '0532200'
  slug: highfill
  name: Highfill
  state: ar
  kind: town
  geo: {lat: 36.27437, lng: -94.32386}
- id: '0532257'
  slug: highland
  name: Highland
  state: ar
  kind: city
  geo: {lat: 36.26943, lng: -91.51982}
- id: '0532470'
  slug: hindsville
  name: Hindsville
  state: ar
  kind: town
  geo: {lat: 36.14772, lng: -93.86488}
- id: '0532650'
  slug: holiday-island
  name: Holiday Island
  state: ar
  kind: city
  geo: {lat: 36.48421, lng: -93.73683}
- id: '0532710'
  slug: holland
  name: Holland
  state: ar
  kind: city
  geo: {lat: 35.16601, lng: -92.27705}
- id: 0532800
  slug: holly-grove
  name: Holly Grove
  state: ar
  kind: city
  geo: {lat: 34.6015, lng: -91.20025}
- id: 0533190
  slug: hope
  name: Hope
  state: ar
  kind: city
  geo: {lat: 33.66816, lng: -93.58889}
- id: '0533310'
  slug: horatio
  name: Horatio
  state: ar
  kind: city
  geo: {lat: 33.94274, lng: -94.3562}
- id: '0533370'
  slug: horseshoe-bend
  name: Horseshoe Bend
  state: ar
  kind: city
  geo: {lat: 36.21873, lng: -91.73832}
- id: '0533375'
  slug: horseshoe-lake
  name: Horseshoe Lake
  state: ar
  kind: town
  geo: {lat: 34.91375, lng: -90.30772}
- id: '0533400'
  slug: hot-springs
  name: Hot Springs
  state: ar
  kind: city
  geo: {lat: 34.48944, lng: -93.05025}
- id: 0533482
  slug: hot-springs-village
  name: Hot Springs Village
  state: ar
  kind: cdp
  geo: {lat: 34.65807, lng: -92.96864}
- id: 0533490
  slug: houston
  name: Houston
  state: ar
  kind: town
  geo: {lat: 35.03488, lng: -92.69452}
- id: 0533580
  slug: hoxie
  name: Hoxie
  state: ar
  kind: city
  geo: {lat: 36.03604, lng: -90.97359}
- id: '0533760'
  slug: hughes
  name: Hughes
  state: ar
  kind: city
  geo: {lat: 34.94811, lng: -90.47137}
- id: 0533820
  slug: humnoke
  name: Humnoke
  state: ar
  kind: city
  geo: {lat: 34.54224, lng: -91.75966}
- id: 0533850
  slug: humphrey
  name: Humphrey
  state: ar
  kind: city
  geo: {lat: 34.42237, lng: -91.70245}
- id: 0533910
  slug: hunter
  name: Hunter
  state: ar
  kind: town
  geo: {lat: 35.05456, lng: -91.12286}
- id: 0533940
  slug: huntington
  name: Huntington
  state: ar
  kind: city
  geo: {lat: 35.08171, lng: -94.26632}
- id: 0533970
  slug: huntsville
  name: Huntsville
  state: ar
  kind: city
  geo: {lat: 36.09866, lng: -93.73324}
- id: 0534090
  slug: huttig
  name: Huttig
  state: ar
  kind: city
  geo: {lat: 33.04032, lng: -92.17968}
- id: '0534150'
  slug: imboden
  name: Imboden
  state: ar
  kind: town
  geo: {lat: 36.1997, lng: -91.17739}
- id: '0534220'
  slug: indian-bay
  name: Indian Bay
  state: ar
  kind: cdp
  geo: {lat: 34.38712, lng: -91.06956}
- id: '0534540'
  slug: ivan
  name: Ivan
  state: ar
  kind: cdp
  geo: {lat: 33.90197, lng: -92.4332}
- id: '0534720'
  slug: jacksonport
  name: Jacksonport
  state: ar
  kind: town
  geo: {lat: 35.64218, lng: -91.30791}
- id: '0534750'
  slug: jacksonville
  name: Jacksonville
  state: ar
  kind: city
  geo: {lat: 34.87791, lng: -92.13147}
- id: 0534900
  slug: jasper
  name: Jasper
  state: ar
  kind: city
  geo: {lat: 36.0121, lng: -93.1875}
- id: '0535040'
  slug: jennette
  name: Jennette
  state: ar
  kind: town
  geo: {lat: 35.15813, lng: -90.41876}
- id: '0535140'
  slug: jericho
  name: Jericho
  state: ar
  kind: town
  geo: {lat: 35.28768, lng: -90.23047}
- id: '0535170'
  slug: jerome
  name: Jerome
  state: ar
  kind: cdp
  geo: {lat: 33.39724, lng: -91.47051}
- id: '0535260'
  slug: jerusalem
  name: Jerusalem
  state: ar
  kind: cdp
  geo: {lat: 35.40757, lng: -92.82301}
- id: '0535500'
  slug: johnson
  name: Johnson
  state: ar
  kind: city
  geo: {lat: 36.13385, lng: -94.17427}
- id: '0535650'
  slug: joiner
  name: Joiner
  state: ar
  kind: city
  geo: {lat: 35.50739, lng: -90.15071}
- id: '0535770'
  slug: jones-mills
  name: Jones Mills
  state: ar
  kind: cdp
  geo: {lat: 34.44495, lng: -92.90154}
- id: '0535710'
  slug: jonesboro
  name: Jonesboro
  state: ar
  kind: city
  geo: {lat: 35.81976, lng: -90.67903}
- id: '0536040'
  slug: judsonia
  name: Judsonia
  state: ar
  kind: city
  geo: {lat: 35.27643, lng: -91.64161}
- id: '0536130'
  slug: junction-city
  name: Junction City
  state: ar
  kind: city
  geo: {lat: 33.02209, lng: -92.72362}
- id: '0536310'
  slug: keiser
  name: Keiser
  state: ar
  kind: city
  geo: {lat: 35.67422, lng: -90.09685}
- id: '0536430'
  slug: kensett
  name: Kensett
  state: ar
  kind: city
  geo: {lat: 35.2352, lng: -91.67126}
- id: '0536550'
  slug: keo
  name: Keo
  state: ar
  kind: town
  geo: {lat: 34.60929, lng: -92.01157}
- id: '0536670'
  slug: kibler
  name: Kibler
  state: ar
  kind: city
  geo: {lat: 35.42524, lng: -94.23614}
- id: 0536880
  slug: kingsland
  name: Kingsland
  state: ar
  kind: city
  geo: {lat: 33.85798, lng: -92.29779}
- id: 0536910
  slug: kingston
  name: Kingston
  state: ar
  kind: cdp
  geo: {lat: 36.05674, lng: -93.51474}
- id: '0537060'
  slug: kirby
  name: Kirby
  state: ar
  kind: cdp
  geo: {lat: 34.25429, lng: -93.65487}
- id: '0537240'
  slug: knobel
  name: Knobel
  state: ar
  kind: city
  geo: {lat: 36.31999, lng: -90.60227}
- id: '0537300'
  slug: knoxville
  name: Knoxville
  state: ar
  kind: town
  geo: {lat: 35.37754, lng: -93.36184}
- id: '0537450'
  slug: lacey
  name: Lacey
  state: ar
  kind: cdp
  geo: {lat: 33.45035, lng: -91.84955}
- id: '0537660'
  slug: lafe
  name: Lafe
  state: ar
  kind: town
  geo: {lat: 36.20918, lng: -90.50429}
- id: '0537720'
  slug: lagrange
  name: LaGrange
  state: ar
  kind: town
  geo: {lat: 34.65576, lng: -90.73474}
- id: 0537780
  slug: lake-city
  name: Lake City
  state: ar
  kind: city
  geo: {lat: 35.81937, lng: -90.45391}
- id: 0537930
  slug: lake-hamilton
  name: Lake Hamilton
  state: ar
  kind: cdp
  geo: {lat: 34.42962, lng: -93.07635}
- id: 0538110
  slug: lake-view
  name: Lake View
  state: ar
  kind: city
  geo: {lat: 34.42116, lng: -90.81331}
- id: 0538170
  slug: lake-village
  name: Lake Village
  state: ar
  kind: city
  geo: {lat: 33.32918, lng: -91.28479}
- id: 0538050
  slug: lakeview
  name: Lakeview
  state: ar
  kind: city
  geo: {lat: 36.37391, lng: -92.53874}
- id: 0538290
  slug: lamar
  name: Lamar
  state: ar
  kind: city
  geo: {lat: 35.44443, lng: -93.39468}
- id: 0538540
  slug: landmark
  name: Landmark
  state: ar
  kind: cdp
  geo: {lat: 34.61035, lng: -92.31605}
- id: 0538890
  slug: lavaca
  name: Lavaca
  state: ar
  kind: city
  geo: {lat: 35.3302, lng: -94.18288}
- id: 0538950
  slug: lawson
  name: Lawson
  state: ar
  kind: cdp
  geo: {lat: 33.19996, lng: -92.4879}
- id: 0539010
  slug: leachville
  name: Leachville
  state: ar
  kind: city
  geo: {lat: 35.91147, lng: -90.25495}
- id: 0539040
  slug: lead-hill
  name: Lead Hill
  state: ar
  kind: town
  geo: {lat: 36.41361, lng: -92.90717}
- id: 0539310
  slug: leola
  name: Leola
  state: ar
  kind: town
  geo: {lat: 34.17009, lng: -92.59141}
- id: 0539370
  slug: lepanto
  name: Lepanto
  state: ar
  kind: city
  geo: {lat: 35.60853, lng: -90.33298}
- id: 0539460
  slug: leslie
  name: Leslie
  state: ar
  kind: city
  geo: {lat: 35.82951, lng: -92.55596}
- id: 0539520
  slug: letona
  name: Letona
  state: ar
  kind: town
  geo: {lat: 35.3635, lng: -91.82955}
- id: 0539640
  slug: lewisville
  name: Lewisville
  state: ar
  kind: city
  geo: {lat: 33.36013, lng: -93.58397}
- id: 0539670
  slug: lexa
  name: Lexa
  state: ar
  kind: town
  geo: {lat: 34.59825, lng: -90.75189}
- id: 0539970
  slug: lincoln
  name: Lincoln
  state: ar
  kind: city
  geo: {lat: 35.94883, lng: -94.41747}
- id: '0540120'
  slug: little-flock
  name: Little Flock
  state: ar
  kind: city
  geo: {lat: 36.38334, lng: -94.13726}
- id: '0541000'
  slug: little-rock
  name: Little Rock
  state: ar
  kind: city
  geo: {lat: 34.72539, lng: -92.35856}
- id: 0541090
  slug: lockesburg
  name: Lockesburg
  state: ar
  kind: city
  geo: {lat: 33.97287, lng: -94.17958}
- id: '0541270'
  slug: london
  name: London
  state: ar
  kind: city
  geo: {lat: 35.32762, lng: -93.24347}
- id: '0541420'
  slug: lonoke
  name: Lonoke
  state: ar
  kind: city
  geo: {lat: 34.7905, lng: -91.90736}
- id: '0541450'
  slug: lonsdale
  name: Lonsdale
  state: ar
  kind: town
  geo: {lat: 34.54497, lng: -92.81056}
- id: '0541555'
  slug: lost-bridge-village
  name: Lost Bridge Village
  state: ar
  kind: cdp
  geo: {lat: 36.38973, lng: -93.91554}
- id: '0541630'
  slug: louann
  name: Louann
  state: ar
  kind: town
  geo: {lat: 33.39148, lng: -92.79221}
- id: '0541720'
  slug: lowell
  name: Lowell
  state: ar
  kind: city
  geo: {lat: 36.25585, lng: -94.15336}
- id: '0542170'
  slug: luxora
  name: Luxora
  state: ar
  kind: city
  geo: {lat: 35.75767, lng: -89.92948}
- id: '0542260'
  slug: lynn
  name: Lynn
  state: ar
  kind: town
  geo: {lat: 36.00426, lng: -91.252}
- id: 0543280
  slug: madison
  name: Madison
  state: ar
  kind: city
  geo: {lat: 35.01799, lng: -90.73115}
- id: '0543310'
  slug: magazine
  name: Magazine
  state: ar
  kind: city
  geo: {lat: 35.1539, lng: -93.80785}
- id: '0543370'
  slug: magness
  name: Magness
  state: ar
  kind: town
  geo: {lat: 35.70305, lng: -91.48224}
- id: '0543430'
  slug: magnet-cove
  name: Magnet Cove
  state: ar
  kind: cdp
  geo: {lat: 34.44916, lng: -92.83772}
- id: '0543460'
  slug: magnolia
  name: Magnolia
  state: ar
  kind: city
  geo: {lat: 33.2767, lng: -93.22625}
- id: '0543610'
  slug: malvern
  name: Malvern
  state: ar
  kind: city
  geo: {lat: 34.37358, lng: -92.82125}
- id: '0543670'
  slug: mammoth-spring
  name: Mammoth Spring
  state: ar
  kind: city
  geo: {lat: 36.49241, lng: -91.54107}
- id: 0543820
  slug: manila
  name: Manila
  state: ar
  kind: city
  geo: {lat: 35.88437, lng: -90.16556}
- id: 0543880
  slug: mansfield
  name: Mansfield
  state: ar
  kind: city
  geo: {lat: 35.06392, lng: -94.23427}
- id: '0544120'
  slug: marianna
  name: Marianna
  state: ar
  kind: city
  geo: {lat: 34.77363, lng: -90.7675}
- id: '0544150'
  slug: marie
  name: Marie
  state: ar
  kind: town
  geo: {lat: 35.61293, lng: -90.08296}
- id: 0544180
  slug: marion
  name: Marion
  state: ar
  kind: city
  geo: {lat: 35.20425, lng: -90.20672}
- id: '0544210'
  slug: marked-tree
  name: Marked Tree
  state: ar
  kind: city
  geo: {lat: 35.52789, lng: -90.42661}
- id: '0544240'
  slug: marmaduke
  name: Marmaduke
  state: ar
  kind: city
  geo: {lat: 36.19003, lng: -90.38506}
- id: '0544300'
  slug: marshall
  name: Marshall
  state: ar
  kind: city
  geo: {lat: 35.90846, lng: -92.6465}
- id: '0544420'
  slug: marvell
  name: Marvell
  state: ar
  kind: city
  geo: {lat: 34.5563, lng: -90.91534}
- id: '0544600'
  slug: maumelle
  name: Maumelle
  state: ar
  kind: city
  geo: {lat: 34.85234, lng: -92.4}
- id: '0544750'
  slug: mayflower
  name: Mayflower
  state: ar
  kind: city
  geo: {lat: 34.9662, lng: -92.42673}
- id: 0544780
  slug: maynard
  name: Maynard
  state: ar
  kind: town
  geo: {lat: 36.42272, lng: -90.90184}
- id: 0544810
  slug: maysville
  name: Maysville
  state: ar
  kind: cdp
  geo: {lat: 36.40198, lng: -94.58895}
- id: '0542350'
  slug: mcalmont
  name: McAlmont
  state: ar
  kind: cdp
  geo: {lat: 34.79249, lng: -92.19601}
- id: '0542410'
  slug: mccaskill
  name: McCaskill
  state: ar
  kind: town
  geo: {lat: 33.91954, lng: -93.63683}
- id: '0542500'
  slug: mccrory
  name: McCrory
  state: ar
  kind: city
  geo: {lat: 35.25733, lng: -91.19728}
- id: '0542560'
  slug: mcdougal
  name: McDougal
  state: ar
  kind: town
  geo: {lat: 36.43646, lng: -90.39073}
- id: '0542770'
  slug: mcgehee
  name: McGehee
  state: ar
  kind: city
  geo: {lat: 33.62779, lng: -91.39501}
- id: '0543070'
  slug: mcnab
  name: McNab
  state: ar
  kind: town
  geo: {lat: 33.66089, lng: -93.83228}
- id: '0543100'
  slug: mcneil
  name: McNeil
  state: ar
  kind: city
  geo: {lat: 33.34792, lng: -93.2084}
- id: '0543220'
  slug: mcrae
  name: McRae
  state: ar
  kind: city
  geo: {lat: 35.11363, lng: -91.82619}
- id: 0545080
  slug: melbourne
  name: Melbourne
  state: ar
  kind: city
  geo: {lat: 36.06397, lng: -91.88152}
- id: '0545110'
  slug: mellwood
  name: Mellwood
  state: ar
  kind: cdp
  geo: {lat: 34.21547, lng: -90.94469}
- id: '0545170'
  slug: mena
  name: Mena
  state: ar
  kind: city
  geo: {lat: 34.58184, lng: -94.23652}
- id: '0545200'
  slug: menifee
  name: Menifee
  state: ar
  kind: town
  geo: {lat: 35.1497, lng: -92.55042}
- id: '0545500'
  slug: midland
  name: Midland
  state: ar
  kind: town
  geo: {lat: 35.0924, lng: -94.35295}
- id: '0545530'
  slug: midway-5530
  name: Midway
  state: ar
  kind: cdp
  geo: {lat: 36.39224, lng: -92.47553}
- id: '0545560'
  slug: midway-5560
  name: Midway
  state: ar
  kind: town
  geo: {lat: 34.24989, lng: -92.97343}
- id: '0546040'
  slug: mineral-springs
  name: Mineral Springs
  state: ar
  kind: city
  geo: {lat: 33.87772, lng: -93.92139}
- id: '0546100'
  slug: minturn
  name: Minturn
  state: ar
  kind: town
  geo: {lat: 35.97642, lng: -91.02719}
- id: 0546190
  slug: mitchellville
  name: Mitchellville
  state: ar
  kind: city
  geo: {lat: 33.90533, lng: -91.4984}
- id: '0546400'
  slug: monette
  name: Monette
  state: ar
  kind: city
  geo: {lat: 35.89321, lng: -90.34411}
- id: '0546460'
  slug: monroe
  name: Monroe
  state: ar
  kind: cdp
  geo: {lat: 34.73404, lng: -91.10677}
- id: 0546580
  slug: monticello
  name: Monticello
  state: ar
  kind: city
  geo: {lat: 33.62478, lng: -91.79372}
- id: '0546670'
  slug: montrose
  name: Montrose
  state: ar
  kind: city
  geo: {lat: 33.29892, lng: -91.49644}
- id: '0546730'
  slug: moorefield
  name: Moorefield
  state: ar
  kind: town
  geo: {lat: 35.76723, lng: -91.57081}
- id: 0546910
  slug: moro
  name: Moro
  state: ar
  kind: town
  geo: {lat: 34.79198, lng: -90.98798}
- id: 0546970
  slug: morrilton
  name: Morrilton
  state: ar
  kind: city
  geo: {lat: 35.15546, lng: -92.73893}
- id: '0547030'
  slug: morrison-bluff
  name: Morrison Bluff
  state: ar
  kind: town
  geo: {lat: 35.38195, lng: -93.51885}
- id: 0547090
  slug: morrow
  name: Morrow
  state: ar
  kind: cdp
  geo: {lat: 35.85633, lng: -94.43056}
- id: '0547660'
  slug: mount-holly
  name: Mount Holly
  state: ar
  kind: cdp
  geo: {lat: 33.30722, lng: -92.95021}
- id: 0547690
  slug: mount-ida
  name: Mount Ida
  state: ar
  kind: city
  geo: {lat: 34.54915, lng: -93.62994}
- id: '0547720'
  slug: mount-judea
  name: Mount Judea
  state: ar
  kind: cdp
  geo: {lat: 35.92617, lng: -93.0568}
- id: 0547810
  slug: mount-olive
  name: Mount Olive
  state: ar
  kind: cdp
  geo: {lat: 36.00312, lng: -92.09046}
- id: 0547900
  slug: mount-pleasant
  name: Mount Pleasant
  state: ar
  kind: town
  geo: {lat: 35.98142, lng: -91.77738}
- id: 0548020
  slug: mount-vernon
  name: Mount Vernon
  state: ar
  kind: town
  geo: {lat: 35.2236, lng: -92.12398}
- id: 0547390
  slug: mountain-home
  name: Mountain Home
  state: ar
  kind: city
  geo: {lat: 36.33509, lng: -92.38425}
- id: '0547450'
  slug: mountain-pine
  name: Mountain Pine
  state: ar
  kind: city
  geo: {lat: 34.56964, lng: -93.17149}
- id: '0547540'
  slug: mountain-view
  name: Mountain View
  state: ar
  kind: city
  geo: {lat: 35.86156, lng: -92.10966}
- id: '0547300'
  slug: mountainburg
  name: Mountainburg
  state: ar
  kind: city
  geo: {lat: 35.64963, lng: -94.16241}
- id: 0548200
  slug: mulberry
  name: Mulberry
  state: ar
  kind: city
  geo: {lat: 35.5085, lng: -94.07475}
- id: 0548290
  slug: murfreesboro
  name: Murfreesboro
  state: ar
  kind: city
  geo: {lat: 34.07031, lng: -93.69407}
- id: 0548560
  slug: nashville
  name: Nashville
  state: ar
  kind: city
  geo: {lat: 33.94192, lng: -93.85166}
- id: 0548680
  slug: natural-steps
  name: Natural Steps
  state: ar
  kind: cdp
  geo: {lat: 34.87427, lng: -92.49777}
- id: 0549070
  slug: new-blaine
  name: New Blaine
  state: ar
  kind: cdp
  geo: {lat: 35.29252, lng: -93.41908}
- id: 0549220
  slug: new-edinburg
  name: New Edinburg
  state: ar
  kind: cdp
  geo: {lat: 33.75622, lng: -92.24036}
- id: 0549010
  slug: newark
  name: Newark
  state: ar
  kind: city
  geo: {lat: 35.70763, lng: -91.4434}
- id: 0549370
  slug: newhope
  name: Newhope
  state: ar
  kind: cdp
  geo: {lat: 34.22226, lng: -93.8774}
- id: 0549580
  slug: newport
  name: Newport
  state: ar
  kind: city
  geo: {lat: 35.62377, lng: -91.23168}
- id: 0549820
  slug: nimmons
  name: Nimmons
  state: ar
  kind: town
  geo: {lat: 36.30625, lng: -90.09506}
- id: '0550000'
  slug: norfork
  name: Norfork
  state: ar
  kind: city
  geo: {lat: 36.20947, lng: -92.27784}
- id: '0550030'
  slug: norman
  name: Norman
  state: ar
  kind: town
  geo: {lat: 34.45898, lng: -93.67682}
- id: '0550060'
  slug: norphlet
  name: Norphlet
  state: ar
  kind: city
  geo: {lat: 33.31991, lng: -92.66206}
- id: '0550240'
  slug: north-crossett
  name: North Crossett
  state: ar
  kind: cdp
  geo: {lat: 33.17411, lng: -91.93174}
- id: '0550450'
  slug: north-little-rock
  name: North Little Rock
  state: ar
  kind: city
  geo: {lat: 34.78175, lng: -92.23506}
- id: '0551500'
  slug: o-kean
  name: O'Kean
  state: ar
  kind: town
  geo: {lat: 36.17146, lng: -90.81835}
- id: 0550810
  slug: oak-grove-0810
  name: Oak Grove
  state: ar
  kind: town
  geo: {lat: 36.4702, lng: -93.42809}
- id: 0550990
  slug: oak-grove-0990
  name: Oak Grove
  state: ar
  kind: cdp
  geo: {lat: 35.36478, lng: -92.96418}
- id: '0551060'
  slug: oak-grove-heights
  name: Oak Grove Heights
  state: ar
  kind: town
  geo: {lat: 36.12643, lng: -90.50343}
- id: 0551080
  slug: oakhaven
  name: Oakhaven
  state: ar
  kind: town
  geo: {lat: 33.7294, lng: -93.62078}
- id: '0551110'
  slug: oakland
  name: Oakland
  state: ar
  kind: cdp
  geo: {lat: 36.46042, lng: -92.57177}
- id: '0551230'
  slug: oark
  name: Oark
  state: ar
  kind: cdp
  geo: {lat: 35.69498, lng: -93.57503}
- id: 0551290
  slug: oden
  name: Oden
  state: ar
  kind: town
  geo: {lat: 34.62315, lng: -93.78365}
- id: '0551350'
  slug: ogden
  name: Ogden
  state: ar
  kind: city
  geo: {lat: 33.58587, lng: -94.04692}
- id: '0551410'
  slug: oil-trough
  name: Oil Trough
  state: ar
  kind: town
  geo: {lat: 35.62916, lng: -91.46123}
- id: '0551530'
  slug: okolona
  name: Okolona
  state: ar
  kind: town
  geo: {lat: 34.00048, lng: -93.33762}
- id: '0551560'
  slug: ola
  name: Ola
  state: ar
  kind: city
  geo: {lat: 35.03145, lng: -93.22404}
- id: '0552160'
  slug: omaha
  name: Omaha
  state: ar
  kind: town
  geo: {lat: 36.46165, lng: -93.18996}
- id: 0552280
  slug: oneida
  name: Oneida
  state: ar
  kind: cdp
  geo: {lat: 34.46049, lng: -90.78672}
- id: '0552430'
  slug: oppelo
  name: Oppelo
  state: ar
  kind: city
  geo: {lat: 35.10056, lng: -92.77357}
- id: 0552580
  slug: osceola
  name: Osceola
  state: ar
  kind: city
  geo: {lat: 35.69022, lng: -89.98829}
- id: 0552880
  slug: oxford
  name: Oxford
  state: ar
  kind: city
  geo: {lat: 36.20903, lng: -91.91827}
- id: 0552940
  slug: ozan
  name: Ozan
  state: ar
  kind: town
  geo: {lat: 33.84661, lng: -93.72082}
- id: 0552970
  slug: ozark
  name: Ozark
  state: ar
  kind: city
  geo: {lat: 35.50186, lng: -93.84838}
- id: '0553000'
  slug: ozark-acres
  name: Ozark Acres
  state: ar
  kind: cdp
  geo: {lat: 36.29992, lng: -91.38708}
- id: '0553060'
  slug: ozone
  name: Ozone
  state: ar
  kind: cdp
  geo: {lat: 35.63849, lng: -93.44732}
- id: '0553150'
  slug: palestine
  name: Palestine
  state: ar
  kind: city
  geo: {lat: 34.97031, lng: -90.90823}
- id: '0553240'
  slug: pangburn
  name: Pangburn
  state: ar
  kind: city
  geo: {lat: 35.42611, lng: -91.83941}
- id: 0553390
  slug: paragould
  name: Paragould
  state: ar
  kind: city
  geo: {lat: 36.05229, lng: -90.51046}
- id: 0553480
  slug: paris
  name: Paris
  state: ar
  kind: city
  geo: {lat: 35.29076, lng: -93.73423}
- id: '0553510'
  slug: parkdale
  name: Parkdale
  state: ar
  kind: city
  geo: {lat: 33.12121, lng: -91.5464}
- id: '0553600'
  slug: parkin
  name: Parkin
  state: ar
  kind: city
  geo: {lat: 35.26118, lng: -90.55351}
- id: 0553900
  slug: patmos
  name: Patmos
  state: ar
  kind: town
  geo: {lat: 33.51137, lng: -93.56696}
- id: 0553990
  slug: patterson
  name: Patterson
  state: ar
  kind: city
  geo: {lat: 35.25897, lng: -91.23496}
- id: '0554110'
  slug: payneway
  name: Payneway
  state: ar
  kind: cdp
  geo: {lat: 35.54573, lng: -90.5123}
- id: '0554200'
  slug: pea-ridge
  name: Pea Ridge
  state: ar
  kind: city
  geo: {lat: 36.44665, lng: -94.12081}
- id: '0554140'
  slug: peach-orchard
  name: Peach Orchard
  state: ar
  kind: city
  geo: {lat: 36.28123, lng: -90.66077}
- id: '0554170'
  slug: pearcy
  name: Pearcy
  state: ar
  kind: cdp
  geo: {lat: 34.43545, lng: -93.28822}
- id: '0554410'
  slug: pencil-bluff
  name: Pencil Bluff
  state: ar
  kind: cdp
  geo: {lat: 34.63038, lng: -93.73503}
- id: '0554620'
  slug: perla
  name: Perla
  state: ar
  kind: town
  geo: {lat: 34.36476, lng: -92.77623}
- id: '0554650'
  slug: perry
  name: Perry
  state: ar
  kind: town
  geo: {lat: 35.04622, lng: -92.79441}
- id: 0554680
  slug: perrytown
  name: Perrytown
  state: ar
  kind: town
  geo: {lat: 33.69714, lng: -93.53241}
- id: '0554710'
  slug: perryville
  name: Perryville
  state: ar
  kind: city
  geo: {lat: 35.012, lng: -92.80294}
- id: '0555130'
  slug: piggott
  name: Piggott
  state: ar
  kind: city
  geo: {lat: 36.38719, lng: -90.19894}
- id: 0555280
  slug: pindall
  name: Pindall
  state: ar
  kind: town
  geo: {lat: 36.06366, lng: -92.86216}
- id: '0555310'
  slug: pine-bluff
  name: Pine Bluff
  state: ar
  kind: city
  geo: {lat: 34.21159, lng: -92.01756}
- id: 0555580
  slug: pineville
  name: Pineville
  state: ar
  kind: town
  geo: {lat: 36.16114, lng: -92.10647}
- id: '0555610'
  slug: piney
  name: Piney
  state: ar
  kind: cdp
  geo: {lat: 34.50291, lng: -93.14443}
- id: 0555970
  slug: plainview
  name: Plainview
  state: ar
  kind: city
  geo: {lat: 34.98987, lng: -93.29795}
- id: '0556060'
  slug: pleasant-grove
  name: Pleasant Grove
  state: ar
  kind: cdp
  geo: {lat: 35.82046, lng: -91.90698}
- id: '0556270'
  slug: pleasant-plains
  name: Pleasant Plains
  state: ar
  kind: town
  geo: {lat: 35.55456, lng: -91.62722}
- id: 0556480
  slug: plumerville
  name: Plumerville
  state: ar
  kind: city
  geo: {lat: 35.15938, lng: -92.64306}
- id: '0556540'
  slug: pocahontas
  name: Pocahontas
  state: ar
  kind: city
  geo: {lat: 36.26337, lng: -90.97122}
- id: '0556600'
  slug: pollard
  name: Pollard
  state: ar
  kind: city
  geo: {lat: 36.42956, lng: -90.26713}
- id: '0556630'
  slug: ponca
  name: Ponca
  state: ar
  kind: cdp
  geo: {lat: 36.02929, lng: -93.36238}
- id: 0556690
  slug: poplar-grove
  name: Poplar Grove
  state: ar
  kind: cdp
  geo: {lat: 34.55217, lng: -90.85422}
- id: '0556720'
  slug: portia
  name: Portia
  state: ar
  kind: town
  geo: {lat: 36.08487, lng: -91.07104}
- id: '0556750'
  slug: portland
  name: Portland
  state: ar
  kind: city
  geo: {lat: 33.23794, lng: -91.51095}
- id: 0556990
  slug: pottsville
  name: Pottsville
  state: ar
  kind: city
  geo: {lat: 35.23061, lng: -93.06084}
- id: '0557050'
  slug: powhatan
  name: Powhatan
  state: ar
  kind: town
  geo: {lat: 36.08731, lng: -91.12388}
- id: 0557080
  slug: poyen
  name: Poyen
  state: ar
  kind: town
  geo: {lat: 34.32417, lng: -92.64198}
- id: '0557125'
  slug: prairie-creek
  name: Prairie Creek
  state: ar
  kind: cdp
  geo: {lat: 36.32948, lng: -94.05893}
- id: '0557170'
  slug: prairie-grove
  name: Prairie Grove
  state: ar
  kind: city
  geo: {lat: 35.98611, lng: -94.30338}
- id: '0557230'
  slug: prattsville
  name: Prattsville
  state: ar
  kind: town
  geo: {lat: 34.31849, lng: -92.54315}
- id: '0557260'
  slug: prescott
  name: Prescott
  state: ar
  kind: city
  geo: {lat: 33.80432, lng: -93.39121}
- id: '0557530'
  slug: princeton
  name: Princeton
  state: ar
  kind: cdp
  geo: {lat: 33.97754, lng: -92.62418}
- id: 0557890
  slug: pyatt
  name: Pyatt
  state: ar
  kind: town
  geo: {lat: 36.25074, lng: -92.84664}
- id: 0557950
  slug: quitman
  name: Quitman
  state: ar
  kind: city
  geo: {lat: 35.38172, lng: -92.21472}
- id: 0558160
  slug: ratcliff
  name: Ratcliff
  state: ar
  kind: city
  geo: {lat: 35.30695, lng: -93.88864}
- id: 0558250
  slug: ravenden
  name: Ravenden
  state: ar
  kind: town
  geo: {lat: 36.2432, lng: -91.25131}
- id: 0558280
  slug: ravenden-springs
  name: Ravenden Springs
  state: ar
  kind: town
  geo: {lat: 36.31271, lng: -91.22326}
- id: 0558400
  slug: reader
  name: Reader
  state: ar
  kind: cdp
  geo: {lat: 33.75161, lng: -93.10118}
- id: 0558490
  slug: rector
  name: Rector
  state: ar
  kind: city
  geo: {lat: 36.26416, lng: -90.29352}
- id: 0558580
  slug: redfield
  name: Redfield
  state: ar
  kind: city
  geo: {lat: 34.43934, lng: -92.18848}
- id: 0558880
  slug: reed
  name: Reed
  state: ar
  kind: town
  geo: {lat: 33.70167, lng: -91.44576}
- id: 0559180
  slug: reyno
  name: Reyno
  state: ar
  kind: city
  geo: {lat: 36.3609, lng: -90.75899}
- id: 0559480
  slug: rison
  name: Rison
  state: ar
  kind: city
  geo: {lat: 33.95995, lng: -92.19365}
- id: 0559630
  slug: rivervale
  name: Rivervale
  state: ar
  kind: cdp
  geo: {lat: 35.67588, lng: -90.3445}
- id: '0560020'
  slug: rockport
  name: Rockport
  state: ar
  kind: city
  geo: {lat: 34.40527, lng: -92.80859}
- id: '0560110'
  slug: rockwell
  name: Rockwell
  state: ar
  kind: cdp
  geo: {lat: 34.46434, lng: -93.13383}
- id: 0560380
  slug: roe
  name: Roe
  state: ar
  kind: town
  geo: {lat: 34.6311, lng: -91.38596}
- id: '0560410'
  slug: rogers
  name: Rogers
  state: ar
  kind: city
  geo: {lat: 36.31809, lng: -94.15229}
- id: '0560470'
  slug: roland
  name: Roland
  state: ar
  kind: cdp
  geo: {lat: 34.90224, lng: -92.51747}
- id: 0560590
  slug: rondo
  name: Rondo
  state: ar
  kind: town
  geo: {lat: 34.65745, lng: -90.82084}
- id: '0560770'
  slug: rose-bud
  name: Rose Bud
  state: ar
  kind: town
  geo: {lat: 35.32118, lng: -92.07652}
- id: '0561040'
  slug: rosston
  name: Rosston
  state: ar
  kind: town
  geo: {lat: 33.58802, lng: -93.28693}
- id: 0561190
  slug: rover
  name: Rover
  state: ar
  kind: cdp
  geo: {lat: 34.95182, lng: -93.40896}
- id: '0561460'
  slug: rudy
  name: Rudy
  state: ar
  kind: town
  geo: {lat: 35.52746, lng: -94.24038}
- id: '0561640'
  slug: russell
  name: Russell
  state: ar
  kind: town
  geo: {lat: 35.36213, lng: -91.50995}
- id: '0561670'
  slug: russellville
  name: Russellville
  state: ar
  kind: city
  geo: {lat: 35.27688, lng: -93.13751}
- id: '0561730'
  slug: rye
  name: Rye
  state: ar
  kind: cdp
  geo: {lat: 33.75048, lng: -91.99849}
- id: '0562120'
  slug: salado
  name: Salado
  state: ar
  kind: cdp
  geo: {lat: 35.69541, lng: -91.59232}
- id: '0562150'
  slug: salem-2150
  name: Salem
  state: ar
  kind: city
  geo: {lat: 36.37042, lng: -91.82171}
- id: '0562210'
  slug: salem-2210
  name: Salem
  state: ar
  kind: cdp
  geo: {lat: 34.6309, lng: -92.56149}
- id: '0562240'
  slug: salesville
  name: Salesville
  state: ar
  kind: city
  geo: {lat: 36.23906, lng: -92.2775}
- id: '0562630'
  slug: saratoga
  name: Saratoga
  state: ar
  kind: cdp
  geo: {lat: 33.74374, lng: -93.90429}
- id: '0562660'
  slug: sardis
  name: Sardis
  state: ar
  kind: cdp
  geo: {lat: 34.53304, lng: -92.40672}
- id: 0562900
  slug: scott
  name: Scott
  state: ar
  kind: cdp
  geo: {lat: 34.69766, lng: -92.09393}
- id: 0562960
  slug: scranton
  name: Scranton
  state: ar
  kind: city
  geo: {lat: 35.36043, lng: -93.53972}
- id: '0563020'
  slug: searcy
  name: Searcy
  state: ar
  kind: city
  geo: {lat: 35.24113, lng: -91.73522}
- id: '0563110'
  slug: sedgwick
  name: Sedgwick
  state: ar
  kind: town
  geo: {lat: 35.97416, lng: -90.86215}
- id: '0563470'
  slug: shannon-hills
  name: Shannon Hills
  state: ar
  kind: city
  geo: {lat: 34.61759, lng: -92.40218}
- id: '0563710'
  slug: sheridan
  name: Sheridan
  state: ar
  kind: city
  geo: {lat: 34.32158, lng: -92.44307}
- id: '0563740'
  slug: sherrill
  name: Sherrill
  state: ar
  kind: town
  geo: {lat: 34.38506, lng: -91.95181}
- id: 0563800
  slug: sherwood
  name: Sherwood
  state: ar
  kind: city
  geo: {lat: 34.85203, lng: -92.20448}
- id: 0563980
  slug: shirley
  name: Shirley
  state: ar
  kind: town
  geo: {lat: 35.64375, lng: -92.31352}
- id: 0564280
  slug: sidney
  name: Sidney
  state: ar
  kind: town
  geo: {lat: 36.00442, lng: -91.65829}
- id: '0564370'
  slug: siloam-springs
  name: Siloam Springs
  state: ar
  kind: city
  geo: {lat: 36.18538, lng: -94.53003}
- id: '0564730'
  slug: smackover
  name: Smackover
  state: ar
  kind: city
  geo: {lat: 33.36359, lng: -92.73143}
- id: 0564910
  slug: smithville
  name: Smithville
  state: ar
  kind: town
  geo: {lat: 36.07992, lng: -91.30267}
- id: 0565480
  slug: south-lead-hill
  name: South Lead Hill
  state: ar
  kind: town
  geo: {lat: 36.39561, lng: -92.90621}
- id: '0565630'
  slug: southside
  name: Southside
  state: ar
  kind: city
  geo: {lat: 35.72018, lng: -91.63016}
- id: 0565900
  slug: sparkman
  name: Sparkman
  state: ar
  kind: city
  geo: {lat: 33.91717, lng: -92.85}
- id: 0566080
  slug: springdale
  name: Springdale
  state: ar
  kind: city
  geo: {lat: 36.19144, lng: -94.15506}
- id: '0566110'
  slug: springfield
  name: Springfield
  state: ar
  kind: cdp
  geo: {lat: 35.27289, lng: -92.55499}
- id: '0566200'
  slug: springtown
  name: Springtown
  state: ar
  kind: town
  geo: {lat: 36.26029, lng: -94.42381}
- id: 0561940
  slug: st-charles
  name: St. Charles
  state: ar
  kind: town
  geo: {lat: 34.373, lng: -91.13745}
- id: 0561970
  slug: st-francis
  name: St. Francis
  state: ar
  kind: city
  geo: {lat: 36.45487, lng: -90.14218}
- id: '0562030'
  slug: st-joe
  name: St. Joe
  state: ar
  kind: town
  geo: {lat: 36.02603, lng: -92.80128}
- id: '0562060'
  slug: st-paul
  name: St. Paul
  state: ar
  kind: town
  geo: {lat: 35.82679, lng: -93.76729}
- id: '0566320'
  slug: stamps
  name: Stamps
  state: ar
  kind: city
  geo: {lat: 33.35496, lng: -93.49788}
- id: '0566440'
  slug: star-city
  name: Star City
  state: ar
  kind: city
  geo: {lat: 33.94078, lng: -91.83995}
- id: 0566800
  slug: staves
  name: Staves
  state: ar
  kind: cdp
  geo: {lat: 34.03358, lng: -92.28058}
- id: 0566860
  slug: stephens
  name: Stephens
  state: ar
  kind: city
  geo: {lat: 33.42092, lng: -93.06959}
- id: '0567250'
  slug: strawberry
  name: Strawberry
  state: ar
  kind: town
  geo: {lat: 35.96652, lng: -91.3211}
- id: '0567370'
  slug: strong
  name: Strong
  state: ar
  kind: city
  geo: {lat: 33.10788, lng: -92.35557}
- id: 0567490
  slug: stuttgart
  name: Stuttgart
  state: ar
  kind: city
  geo: {lat: 34.49523, lng: -91.54864}
- id: '0567520'
  slug: subiaco
  name: Subiaco
  state: ar
  kind: town
  geo: {lat: 35.29737, lng: -93.63944}
- id: '0567550'
  slug: success
  name: Success
  state: ar
  kind: town
  geo: {lat: 36.4545, lng: -90.72262}
- id: '0567730'
  slug: sulphur-rock
  name: Sulphur Rock
  state: ar
  kind: town
  geo: {lat: 35.75161, lng: -91.50026}
- id: '0567760'
  slug: sulphur-springs-7760
  name: Sulphur Springs
  state: ar
  kind: city
  geo: {lat: 36.48408, lng: -94.46009}
- id: 0567790
  slug: sulphur-springs-7790
  name: Sulphur Springs
  state: ar
  kind: cdp
  geo: {lat: 34.17145, lng: -92.13205}
- id: 0567880
  slug: summers
  name: Summers
  state: ar
  kind: cdp
  geo: {lat: 35.98719, lng: -94.48287}
- id: 0567940
  slug: summit
  name: Summit
  state: ar
  kind: city
  geo: {lat: 36.2522, lng: -92.68829}
- id: 0568060
  slug: sunset
  name: Sunset
  state: ar
  kind: town
  geo: {lat: 35.22398, lng: -90.20564}
- id: 0568330
  slug: sweet-home
  name: Sweet Home
  state: ar
  kind: cdp
  geo: {lat: 34.6674, lng: -92.2463}
- id: 0568360
  slug: swifton
  name: Swifton
  state: ar
  kind: city
  geo: {lat: 35.82438, lng: -91.12943}
- id: 0568660
  slug: taylor
  name: Taylor
  state: ar
  kind: city
  geo: {lat: 33.0998, lng: -93.46184}
- id: 0568810
  slug: texarkana
  name: Texarkana
  state: ar
  kind: city
  geo: {lat: 33.43634, lng: -93.98712}
- id: 0569050
  slug: thornton
  name: Thornton
  state: ar
  kind: city
  geo: {lat: 33.77488, lng: -92.48765}
- id: 0569230
  slug: tillar
  name: Tillar
  state: ar
  kind: city
  geo: {lat: 33.711, lng: -91.45181}
- id: 0569350
  slug: tinsman
  name: Tinsman
  state: ar
  kind: town
  geo: {lat: 33.62918, lng: -92.3533}
- id: 0569500
  slug: tollette
  name: Tollette
  state: ar
  kind: town
  geo: {lat: 33.81809, lng: -93.8969}
- id: 0569740
  slug: tontitown
  name: Tontitown
  state: ar
  kind: city
  geo: {lat: 36.16739, lng: -94.24213}
- id: 0569830
  slug: traskwood
  name: Traskwood
  state: ar
  kind: city
  geo: {lat: 34.45245, lng: -92.66644}
- id: '0570010'
  slug: trumann
  name: Trumann
  state: ar
  kind: city
  geo: {lat: 35.67698, lng: -90.52609}
- id: '0570070'
  slug: tucker
  name: Tucker
  state: ar
  kind: cdp
  geo: {lat: 34.43952, lng: -91.95191}
- id: '0570100'
  slug: tuckerman
  name: Tuckerman
  state: ar
  kind: city
  geo: {lat: 35.72564, lng: -91.20208}
- id: '0570220'
  slug: tull
  name: Tull
  state: ar
  kind: town
  geo: {lat: 34.44121, lng: -92.58588}
- id: '0570310'
  slug: tumbling-shoals
  name: Tumbling Shoals
  state: ar
  kind: cdp
  geo: {lat: 35.54705, lng: -91.96746}
- id: '0570340'
  slug: tupelo
  name: Tupelo
  state: ar
  kind: town
  geo: {lat: 35.39033, lng: -91.2299}
- id: '0570430'
  slug: turrell
  name: Turrell
  state: ar
  kind: city
  geo: {lat: 35.37461, lng: -90.27038}
- id: '0570540'
  slug: twin-groves
  name: Twin Groves
  state: ar
  kind: town
  geo: {lat: 35.32921, lng: -92.40567}
- id: '0570700'
  slug: tyronza
  name: Tyronza
  state: ar
  kind: city
  geo: {lat: 35.48677, lng: -90.35601}
- id: '0570760'
  slug: ulm
  name: Ulm
  state: ar
  kind: town
  geo: {lat: 34.57623, lng: -91.46169}
- id: '0571060'
  slug: uniontown
  name: Uniontown
  state: ar
  kind: cdp
  geo: {lat: 35.58522, lng: -94.447}
- id: 0571180
  slug: urbana
  name: Urbana
  state: ar
  kind: cdp
  geo: {lat: 33.15845, lng: -92.44536}
- id: 0571390
  slug: valley-springs
  name: Valley Springs
  state: ar
  kind: town
  geo: {lat: 36.15377, lng: -92.9897}
- id: 0571480
  slug: van-buren
  name: Van Buren
  state: ar
  kind: city
  geo: {lat: 35.45118, lng: -94.354}
- id: '0571510'
  slug: vandervoort
  name: Vandervoort
  state: ar
  kind: town
  geo: {lat: 34.37978, lng: -94.36492}
- id: '0571570'
  slug: vanndale
  name: Vanndale
  state: ar
  kind: cdp
  geo: {lat: 35.31529, lng: -90.77111}
- id: 0571900
  slug: victoria
  name: Victoria
  state: ar
  kind: town
  geo: {lat: 35.75742, lng: -90.06015}
- id: 0571960
  slug: vilonia
  name: Vilonia
  state: ar
  kind: city
  geo: {lat: 35.0787, lng: -92.21539}
- id: '0572140'
  slug: viola
  name: Viola
  state: ar
  kind: town
  geo: {lat: 36.39924, lng: -91.98698}
- id: '0572170'
  slug: violet-hill
  name: Violet Hill
  state: ar
  kind: cdp
  geo: {lat: 36.1529, lng: -91.83972}
- id: '0572230'
  slug: wabbaseka
  name: Wabbaseka
  state: ar
  kind: town
  geo: {lat: 34.35981, lng: -91.79378}
- id: 0572290
  slug: walcott
  name: Walcott
  state: ar
  kind: cdp
  geo: {lat: 36.04612, lng: -90.6705}
- id: '0572320'
  slug: waldenburg
  name: Waldenburg
  state: ar
  kind: town
  geo: {lat: 35.56526, lng: -90.93456}
- id: '0572350'
  slug: waldo
  name: Waldo
  state: ar
  kind: city
  geo: {lat: 33.35192, lng: -93.29539}
- id: 0572380
  slug: waldron
  name: Waldron
  state: ar
  kind: city
  geo: {lat: 34.90325, lng: -94.09484}
- id: 0572890
  slug: walnut-ridge
  name: Walnut Ridge
  state: ar
  kind: city
  geo: {lat: 36.0848, lng: -90.94684}
- id: '0573130'
  slug: ward
  name: Ward
  state: ar
  kind: city
  geo: {lat: 35.01378, lng: -91.95773}
- id: '0573250'
  slug: warm-springs
  name: Warm Springs
  state: ar
  kind: cdp
  geo: {lat: 36.48315, lng: -91.04901}
- id: '0573310'
  slug: warren
  name: Warren
  state: ar
  kind: city
  geo: {lat: 33.61183, lng: -92.06772}
- id: '0573370'
  slug: washington
  name: Washington
  state: ar
  kind: city
  geo: {lat: 33.77288, lng: -93.68329}
- id: '0573550'
  slug: watson
  name: Watson
  state: ar
  kind: city
  geo: {lat: 33.89375, lng: -91.25706}
- id: '0573730'
  slug: wayton
  name: Wayton
  state: ar
  kind: cdp
  geo: {lat: 35.91936, lng: -93.25959}
- id: 0573940
  slug: weiner
  name: Weiner
  state: ar
  kind: city
  geo: {lat: 35.61971, lng: -90.9053}
- id: '0574000'
  slug: weldon
  name: Weldon
  state: ar
  kind: town
  geo: {lat: 35.44799, lng: -91.23161}
- id: 0574090
  slug: wesley
  name: Wesley
  state: ar
  kind: cdp
  geo: {lat: 36.03254, lng: -93.91862}
- id: '0574270'
  slug: west-crossett
  name: West Crossett
  state: ar
  kind: cdp
  geo: {lat: 33.14804, lng: -92.01698}
- id: '0574360'
  slug: west-fork
  name: West Fork
  state: ar
  kind: city
  geo: {lat: 35.93492, lng: -94.18111}
- id: '0574540'
  slug: west-memphis
  name: West Memphis
  state: ar
  kind: city
  geo: {lat: 35.14955, lng: -90.19927}
- id: '0574660'
  slug: west-point
  name: West Point
  state: ar
  kind: town
  geo: {lat: 35.20331, lng: -91.6099}
- id: '0574330'
  slug: western-grove
  name: Western Grove
  state: ar
  kind: town
  geo: {lat: 36.10112, lng: -92.95455}
- id: 0574840
  slug: wheatley
  name: Wheatley
  state: ar
  kind: city
  geo: {lat: 34.92119, lng: -91.10626}
- id: 0574930
  slug: whelen-springs
  name: Whelen Springs
  state: ar
  kind: town
  geo: {lat: 33.83314, lng: -93.12603}
- id: '0575170'
  slug: white-hall
  name: White Hall
  state: ar
  kind: city
  geo: {lat: 34.27518, lng: -92.10065}
- id: '0575500'
  slug: wickes
  name: Wickes
  state: ar
  kind: town
  geo: {lat: 34.29974, lng: -94.32725}
- id: '0575560'
  slug: widener
  name: Widener
  state: ar
  kind: town
  geo: {lat: 35.0235, lng: -90.68193}
- id: '0575570'
  slug: wiederkehr-village
  name: Wiederkehr Village
  state: ar
  kind: city
  geo: {lat: 35.47771, lng: -93.76472}
- id: 0575590
  slug: wilburn
  name: Wilburn
  state: ar
  kind: cdp
  geo: {lat: 35.50879, lng: -91.88837}
- id: '0575740'
  slug: williford
  name: Williford
  state: ar
  kind: town
  geo: {lat: 36.25183, lng: -91.36046}
- id: '0575770'
  slug: willisville
  name: Willisville
  state: ar
  kind: town
  geo: {lat: 33.51612, lng: -93.29367}
- id: 0575860
  slug: wilmar
  name: Wilmar
  state: ar
  kind: city
  geo: {lat: 33.62638, lng: -91.92934}
- id: 0575890
  slug: wilmot
  name: Wilmot
  state: ar
  kind: city
  geo: {lat: 33.05696, lng: -91.57786}
- id: 0575920
  slug: wilson
  name: Wilson
  state: ar
  kind: city
  geo: {lat: 35.56596, lng: -90.0418}
- id: 0575980
  slug: wilton
  name: Wilton
  state: ar
  kind: city
  geo: {lat: 33.73873, lng: -94.14799}
- id: '0576010'
  slug: winchester
  name: Winchester
  state: ar
  kind: town
  geo: {lat: 33.77407, lng: -91.4737}
- id: 0576190
  slug: winslow
  name: Winslow
  state: ar
  kind: city
  geo: {lat: 35.80154, lng: -94.13178}
- id: '0576250'
  slug: winthrop
  name: Winthrop
  state: ar
  kind: city
  geo: {lat: 33.83084, lng: -94.35422}
- id: '0576460'
  slug: witts-springs
  name: Witts Springs
  state: ar
  kind: cdp
  geo: {lat: 35.77027, lng: -92.88228}
- id: 0576690
  slug: woodlawn
  name: Woodlawn
  state: ar
  kind: cdp
  geo: {lat: 33.96674, lng: -92.04524}
- id: '0576730'
  slug: woodson
  name: Woodson
  state: ar
  kind: cdp
  geo: {lat: 34.53973, lng: -92.22255}
- id: 0576820
  slug: wooster
  name: Wooster
  state: ar
  kind: town
  geo: {lat: 35.19992, lng: -92.4502}
- id: 0576970
  slug: wrightsville
  name: Wrightsville
  state: ar
  kind: city
  geo: {lat: 34.62071, lng: -92.21961}
- id: 0577090
  slug: wynne
  name: Wynne
  state: ar
  kind: city
  geo: {lat: 35.23522, lng: -90.78851}
- id: '0577203'
  slug: yarborough-landing
  name: Yarborough Landing
  state: ar
  kind: cdp
  geo: {lat: 33.71883, lng: -94.00926}
- id: '0577330'
  slug: yellville
  name: Yellville
  state: ar
  kind: city
  geo: {lat: 36.22885, lng: -92.68612}
- id: '0577600'
  slug: zinc
  name: Zinc
  state: ar
  kind: town
  geo: {lat: 36.28396, lng: -92.91442}
