- id: '0600135'
  slug: acalanes-ridge
  name: Acalanes Ridge
  state: ca
  kind: cdp
  geo: {lat: 37.90472, lng: -122.07857}
- id: '0600156'
  slug: acampo
  name: Acampo
  state: ca
  kind: cdp
  geo: {lat: 38.17353, lng: -121.27989}
- id: '0600212'
  slug: acton
  name: Acton
  state: ca
  kind: cdp
  geo: {lat: 34.49607, lng: -118.1839}
- id: 0600296
  slug: adelanto
  name: Adelanto
  state: ca
  kind: city
  geo: {lat: 34.5809, lng: -117.43946}
- id: '0600310'
  slug: adin
  name: Adin
  state: ca
  kind: cdp
  geo: {lat: 41.19931, lng: -120.95678}
- id: 0600394
  slug: agoura-hills
  name: Agoura Hills
  state: ca
  kind: city
  geo: {lat: 34.14894, lng: -118.76393}
- id: '0600450'
  slug: agua-dulce
  name: Agua Dulce
  state: ca
  kind: cdp
  geo: {lat: 34.50168, lng: -118.32068}
- id: '0600464'
  slug: aguanga
  name: Aguanga
  state: ca
  kind: cdp
  geo: {lat: 33.45229, lng: -116.85547}
- id: 0600478
  slug: ahwahnee
  name: Ahwahnee
  state: ca
  kind: cdp
  geo: {lat: 37.36542, lng: -119.71656}
- id: '0600535'
  slug: airport
  name: Airport
  state: ca
  kind: cdp
  geo: {lat: 37.63388, lng: -120.97201}
- id: '0600562'
  slug: alameda
  name: Alameda
  state: ca
  kind: city
  geo: {lat: 37.74191, lng: -122.25991}
- id: 0600618
  slug: alamo
  name: Alamo
  state: ca
  kind: cdp
  geo: {lat: 37.85477, lng: -122.01356}
- id: '0600674'
  slug: albany
  name: Albany
  state: ca
  kind: city
  geo: {lat: 37.89065, lng: -122.31812}
- id: '0600716'
  slug: albion
  name: Albion
  state: ca
  kind: cdp
  geo: {lat: 39.22533, lng: -123.75759}
- id: 0600786
  slug: alderpoint
  name: Alderpoint
  state: ca
  kind: cdp
  geo: {lat: 40.16135, lng: -123.61573}
- id: 0600884
  slug: alhambra
  name: Alhambra
  state: ca
  kind: city
  geo: {lat: 34.08357, lng: -118.13644}
- id: 0600898
  slug: alhambra-valley
  name: Alhambra Valley
  state: ca
  kind: cdp
  geo: {lat: 37.96674, lng: -122.136}
- id: 0600947
  slug: aliso-viejo
  name: Aliso Viejo
  state: ca
  kind: city
  geo: {lat: 33.57921, lng: -117.7289}
- id: 0600982
  slug: alleghany
  name: Alleghany
  state: ca
  kind: cdp
  geo: {lat: 39.46666, lng: -120.84113}
- id: 0600996
  slug: allendale
  name: Allendale
  state: ca
  kind: cdp
  geo: {lat: 38.44299, lng: -121.98333}
- id: '0601010'
  slug: allensworth
  name: Allensworth
  state: ca
  kind: cdp
  geo: {lat: 35.84988, lng: -119.38921}
- id: 0601094
  slug: almanor
  name: Almanor
  state: ca
  kind: cdp
  geo: {lat: 40.21449, lng: -121.17622}
- id: '0601150'
  slug: alondra-park
  name: Alondra Park
  state: ca
  kind: cdp
  geo: {lat: 33.89016, lng: -118.33568}
- id: '0601164'
  slug: alpaugh
  name: Alpaugh
  state: ca
  kind: cdp
  geo: {lat: 35.88904, lng: -119.48581}
- id: 0601192
  slug: alpine
  name: Alpine
  state: ca
  kind: cdp
  geo: {lat: 32.84249, lng: -116.75591}
- id: 0601228
  slug: alpine-village
  name: Alpine Village
  state: ca
  kind: cdp
  geo: {lat: 38.77935, lng: -119.80778}
- id: '0601276'
  slug: alta
  name: Alta
  state: ca
  kind: cdp
  geo: {lat: 39.21569, lng: -120.79851}
- id: 0601358
  slug: alta-sierra-1358
  name: Alta Sierra
  state: ca
  kind: cdp
  geo: {lat: 35.72578, lng: -118.54517}
- id: '0601360'
  slug: alta-sierra-1360
  name: Alta Sierra
  state: ca
  kind: cdp
  geo: {lat: 39.12617, lng: -121.04909}
- id: 0601290
  slug: altadena
  name: Altadena
  state: ca
  kind: cdp
  geo: {lat: 34.19221, lng: -118.13559}
- id: '0601416'
  slug: alto
  name: Alto
  state: ca
  kind: cdp
  geo: {lat: 37.90558, lng: -122.51872}
- id: '0601444'
  slug: alturas
  name: Alturas
  state: ca
  kind: city
  geo: {lat: 41.48914, lng: -120.55129}
- id: 0601458
  slug: alum-rock
  name: Alum Rock
  state: ca
  kind: cdp
  geo: {lat: 37.36939, lng: -121.82381}
- id: '0601514'
  slug: amador-city
  name: Amador City
  state: ca
  kind: city
  geo: {lat: 38.41899, lng: -120.82326}
- id: 0601518
  slug: amador-pines
  name: Amador Pines
  state: ca
  kind: cdp
  geo: {lat: 38.48963, lng: -120.5333}
- id: '0601640'
  slug: american-canyon
  name: American Canyon
  state: ca
  kind: city
  geo: {lat: 38.17903, lng: -122.2596}
- id: '0601651'
  slug: amesti
  name: Amesti
  state: ca
  kind: cdp
  geo: {lat: 36.95948, lng: -121.78174}
- id: '0602000'
  slug: anaheim
  name: Anaheim
  state: ca
  kind: city
  geo: {lat: 33.8555, lng: -117.75866}
- id: 0602028
  slug: anchor-bay
  name: Anchor Bay
  state: ca
  kind: cdp
  geo: {lat: 38.81265, lng: -123.57027}
- id: '0602042'
  slug: anderson
  name: Anderson
  state: ca
  kind: city
  geo: {lat: 40.44976, lng: -122.29507}
- id: '0602112'
  slug: angels
  name: Angels
  state: ca
  kind: city
  geo: {lat: 38.07104, lng: -120.55173}
- id: 0602168
  slug: angwin
  name: Angwin
  state: ca
  kind: cdp
  geo: {lat: 38.57787, lng: -122.45122}
- id: '0602210'
  slug: antelope
  name: Antelope
  state: ca
  kind: cdp
  geo: {lat: 38.71533, lng: -121.36096}
- id: '0602252'
  slug: antioch
  name: Antioch
  state: ca
  kind: city
  geo: {lat: 37.97834, lng: -121.79606}
- id: 0602294
  slug: anza
  name: Anza
  state: ca
  kind: cdp
  geo: {lat: 33.56159, lng: -116.69607}
- id: '0602364'
  slug: apple-valley
  name: Apple Valley
  state: ca
  kind: town
  geo: {lat: 34.53338, lng: -117.21036}
- id: 0602378
  slug: aptos
  name: Aptos
  state: ca
  kind: cdp
  geo: {lat: 36.99115, lng: -121.89346}
- id: 0602382
  slug: aptos-hills-larkin-valley
  name: Aptos Hills-Larkin Valley
  state: ca
  kind: cdp
  geo: {lat: 36.96349, lng: -121.83521}
- id: '0602420'
  slug: arbuckle
  name: Arbuckle
  state: ca
  kind: cdp
  geo: {lat: 39.01418, lng: -122.06104}
- id: '0602462'
  slug: arcadia
  name: Arcadia
  state: ca
  kind: city
  geo: {lat: 34.13269, lng: -118.03635}
- id: '0602476'
  slug: arcata
  name: Arcata
  state: ca
  kind: city
  geo: {lat: 40.86229, lng: -124.07497}
- id: '0602553'
  slug: arden-arcade
  name: Arden-Arcade
  state: ca
  kind: cdp
  geo: {lat: 38.60065, lng: -121.38464}
- id: '0602700'
  slug: armona
  name: Armona
  state: ca
  kind: cdp
  geo: {lat: 36.31661, lng: -119.70538}
- id: '0602770'
  slug: arnold
  name: Arnold
  state: ca
  kind: cdp
  geo: {lat: 38.24905, lng: -120.34933}
- id: 0602812
  slug: aromas
  name: Aromas
  state: ca
  kind: cdp
  geo: {lat: 36.87476, lng: -121.63073}
- id: 0602868
  slug: arroyo-grande
  name: Arroyo Grande
  state: ca
  kind: city
  geo: {lat: 35.12415, lng: -120.58453}
- id: 0602896
  slug: artesia
  name: Artesia
  state: ca
  kind: city
  geo: {lat: 33.86759, lng: -118.08063}
- id: 0602910
  slug: artois
  name: Artois
  state: ca
  kind: cdp
  geo: {lat: 39.63318, lng: -122.18976}
- id: 0602924
  slug: arvin
  name: Arvin
  state: ca
  kind: city
  geo: {lat: 35.19436, lng: -118.83057}
- id: 0602980
  slug: ashland
  name: Ashland
  state: ca
  kind: cdp
  geo: {lat: 37.6942, lng: -122.11594}
- id: '0603026'
  slug: aspen-springs
  name: Aspen Springs
  state: ca
  kind: cdp
  geo: {lat: 37.54879, lng: -118.69966}
- id: '0603064'
  slug: atascadero
  name: Atascadero
  state: ca
  kind: city
  geo: {lat: 35.48572, lng: -120.68794}
- id: 0603092
  slug: atherton
  name: Atherton
  state: ca
  kind: town
  geo: {lat: 37.45707, lng: -122.20106}
- id: '0603162'
  slug: atwater
  name: Atwater
  state: ca
  kind: city
  geo: {lat: 37.35405, lng: -120.59718}
- id: 0603190
  slug: auberry
  name: Auberry
  state: ca
  kind: cdp
  geo: {lat: 37.08865, lng: -119.45076}
- id: '0603204'
  slug: auburn
  name: Auburn
  state: ca
  kind: city
  geo: {lat: 38.89507, lng: -121.07674}
- id: '0603205'
  slug: auburn-lake-trails
  name: Auburn Lake Trails
  state: ca
  kind: cdp
  geo: {lat: 38.88624, lng: -120.9797}
- id: 0603209
  slug: august
  name: August
  state: ca
  kind: cdp
  geo: {lat: 37.97964, lng: -121.26251}
- id: '0603274'
  slug: avalon
  name: Avalon
  state: ca
  kind: city
  geo: {lat: 33.34334, lng: -118.31762}
- id: '0603302'
  slug: avenal
  name: Avenal
  state: ca
  kind: city
  geo: {lat: 36.03111, lng: -120.11617}
- id: '0603316'
  slug: avery
  name: Avery
  state: ca
  kind: cdp
  geo: {lat: 38.20683, lng: -120.37226}
- id: '0603330'
  slug: avila-beach
  name: Avila Beach
  state: ca
  kind: cdp
  geo: {lat: 35.19935, lng: -120.72076}
- id: '0603344'
  slug: avocado-heights
  name: Avocado Heights
  state: ca
  kind: cdp
  geo: {lat: 34.03904, lng: -117.99817}
- id: 0603386
  slug: azusa
  name: Azusa
  state: ca
  kind: city
  geo: {lat: 34.13852, lng: -117.91225}
- id: '0603512'
  slug: baker
  name: Baker
  state: ca
  kind: cdp
  geo: {lat: 35.27692, lng: -116.07174}
- id: '0603526'
  slug: bakersfield
  name: Bakersfield
  state: ca
  kind: city
  geo: {lat: 35.35317, lng: -119.03792}
- id: '0603546'
  slug: bakersfield-country-club
  name: Bakersfield Country Club
  state: ca
  kind: cdp
  geo: {lat: 35.38989, lng: -118.94092}
- id: '0603666'
  slug: baldwin-park
  name: Baldwin Park
  state: ca
  kind: city
  geo: {lat: 34.08282, lng: -117.97129}
- id: 0603694
  slug: ballard
  name: Ballard
  state: ca
  kind: cdp
  geo: {lat: 34.63995, lng: -120.11099}
- id: 0603708
  slug: ballico
  name: Ballico
  state: ca
  kind: cdp
  geo: {lat: 37.45192, lng: -120.70371}
- id: 0603792
  slug: bangor
  name: Bangor
  state: ca
  kind: cdp
  geo: {lat: 39.37609, lng: -121.41165}
- id: 0603820
  slug: banning
  name: Banning
  state: ca
  kind: city
  geo: {lat: 33.9459, lng: -116.89904}
- id: '0604030'
  slug: barstow
  name: Barstow
  state: ca
  kind: city
  geo: {lat: 34.86699, lng: -117.04304}
- id: 0604198
  slug: bass-lake
  name: Bass Lake
  state: ca
  kind: cdp
  geo: {lat: 37.32728, lng: -119.56533}
- id: '0604415'
  slug: bay-point
  name: Bay Point
  state: ca
  kind: cdp
  geo: {lat: 38.03225, lng: -121.96224}
- id: '0604470'
  slug: bayview-4470
  name: Bayview
  state: ca
  kind: cdp
  geo: {lat: 38.00623, lng: -122.32017}
- id: 0604478
  slug: bayview-4478
  name: Bayview
  state: ca
  kind: cdp
  geo: {lat: 40.76536, lng: -124.17862}
- id: 0604549
  slug: baywood-park
  name: Baywood Park
  state: ca
  kind: cdp
  geo: {lat: 37.52916, lng: -122.34164}
- id: '0604576'
  slug: beale-afb
  name: Beale AFB
  state: ca
  kind: cdp
  geo: {lat: 39.10806, lng: -121.35121}
- id: '0604632'
  slug: bear-creek
  name: Bear Creek
  state: ca
  kind: cdp
  geo: {lat: 37.2966, lng: -120.41768}
- id: '0604716'
  slug: bear-valley-4716
  name: Bear Valley
  state: ca
  kind: cdp
  geo: {lat: 38.47232, lng: -120.05185}
- id: '0604730'
  slug: bear-valley-4730
  name: Bear Valley
  state: ca
  kind: cdp
  geo: {lat: 37.57474, lng: -120.1361}
- id: '0604734'
  slug: bear-valley-springs
  name: Bear Valley Springs
  state: ca
  kind: cdp
  geo: {lat: 35.17836, lng: -118.66962}
- id: 0604758
  slug: beaumont
  name: Beaumont
  state: ca
  kind: city
  geo: {lat: 33.87672, lng: -116.95301}
- id: '0604772'
  slug: beckwourth
  name: Beckwourth
  state: ca
  kind: cdp
  geo: {lat: 39.84393, lng: -120.41401}
- id: 0604856
  slug: belden
  name: Belden
  state: ca
  kind: cdp
  geo: {lat: 40.00678, lng: -121.24819}
- id: 0604870
  slug: bell
  name: Bell
  state: ca
  kind: city
  geo: {lat: 33.9797, lng: -118.17925}
- id: 0604938
  slug: bell-canyon
  name: Bell Canyon
  state: ca
  kind: cdp
  geo: {lat: 34.20815, lng: -118.68757}
- id: 0604996
  slug: bell-gardens
  name: Bell Gardens
  state: ca
  kind: city
  geo: {lat: 33.96438, lng: -118.15444}
- id: 0604926
  slug: bella-vista
  name: Bella Vista
  state: ca
  kind: cdp
  geo: {lat: 40.6512, lng: -122.25637}
- id: 0604982
  slug: bellflower
  name: Bellflower
  state: ca
  kind: city
  geo: {lat: 33.88782, lng: -118.12725}
- id: 0605108
  slug: belmont
  name: Belmont
  state: ca
  kind: city
  geo: {lat: 37.5144, lng: -122.29448}
- id: '0605164'
  slug: belvedere
  name: Belvedere
  state: ca
  kind: city
  geo: {lat: 37.87357, lng: -122.471}
- id: '0605332'
  slug: ben-lomond
  name: Ben Lomond
  state: ca
  kind: cdp
  geo: {lat: 37.07821, lng: -122.0881}
- id: '0605262'
  slug: benbow
  name: Benbow
  state: ca
  kind: cdp
  geo: {lat: 40.06027, lng: -123.76538}
- id: '0605276'
  slug: bend
  name: Bend
  state: ca
  kind: cdp
  geo: {lat: 40.25509, lng: -122.21092}
- id: 0605290
  slug: benicia
  name: Benicia
  state: ca
  kind: city
  geo: {lat: 38.07273, lng: -122.15517}
- id: '0605346'
  slug: benton
  name: Benton
  state: ca
  kind: cdp
  geo: {lat: 37.82244, lng: -118.48769}
- id: '0605356'
  slug: benton-park
  name: Benton Park
  state: ca
  kind: cdp
  geo: {lat: 35.34644, lng: -119.02981}
- id: '0606000'
  slug: berkeley
  name: Berkeley
  state: ca
  kind: city
  geo: {lat: 37.86567, lng: -122.29873}
- id: 0606028
  slug: bermuda-dunes
  name: Bermuda Dunes
  state: ca
  kind: cdp
  geo: {lat: 33.74349, lng: -116.28733}
- id: '0606070'
  slug: berry-creek
  name: Berry Creek
  state: ca
  kind: cdp
  geo: {lat: 39.63181, lng: -121.40562}
- id: '0606150'
  slug: bertsch-oceanview
  name: Bertsch-Oceanview
  state: ca
  kind: cdp
  geo: {lat: 41.75173, lng: -124.17021}
- id: '0606210'
  slug: bethel-island
  name: Bethel Island
  state: ca
  kind: cdp
  geo: {lat: 38.02813, lng: -121.62985}
- id: 0606308
  slug: beverly-hills
  name: Beverly Hills
  state: ca
  kind: city
  geo: {lat: 34.07923, lng: -118.40244}
- id: '0606336'
  slug: bieber
  name: Bieber
  state: ca
  kind: cdp
  geo: {lat: 41.13845, lng: -121.11701}
- id: '0606406'
  slug: big-bear-city
  name: Big Bear City
  state: ca
  kind: cdp
  geo: {lat: 34.25412, lng: -116.79638}
- id: '0606434'
  slug: big-bear-lake
  name: Big Bear Lake
  state: ca
  kind: city
  geo: {lat: 34.24289, lng: -116.89389}
- id: '0606475'
  slug: big-bend
  name: Big Bend
  state: ca
  kind: cdp
  geo: {lat: 41.01162, lng: -121.93043}
- id: 0606518
  slug: big-creek
  name: Big Creek
  state: ca
  kind: cdp
  geo: {lat: 37.20356, lng: -119.24849}
- id: '0606567'
  slug: big-lagoon
  name: Big Lagoon
  state: ca
  kind: cdp
  geo: {lat: 41.15943, lng: -124.12975}
- id: '0606616'
  slug: big-pine
  name: Big Pine
  state: ca
  kind: cdp
  geo: {lat: 37.16551, lng: -118.29626}
- id: '0606635'
  slug: big-river
  name: Big River
  state: ca
  kind: cdp
  geo: {lat: 34.13982, lng: -114.3621}
- id: '0606560'
  slug: biggs
  name: Biggs
  state: ca
  kind: city
  geo: {lat: 39.41151, lng: -121.71138}
- id: 0606728
  slug: biola
  name: Biola
  state: ca
  kind: cdp
  geo: {lat: 36.79994, lng: -120.02104}
- id: 0606798
  slug: bishop
  name: Bishop
  state: ca
  kind: city
  geo: {lat: 37.36638, lng: -118.39581}
- id: 0606982
  slug: black-point-green-point
  name: Black Point-Green Point
  state: ca
  kind: cdp
  geo: {lat: 38.11065, lng: -122.5191}
- id: 0606928
  slug: blackhawk
  name: Blackhawk
  state: ca
  kind: cdp
  geo: {lat: 37.80963, lng: -121.91324}
- id: 0606935
  slug: blacklake
  name: Blacklake
  state: ca
  kind: cdp
  geo: {lat: 35.04969, lng: -120.53864}
- id: 0606994
  slug: blairsden
  name: Blairsden
  state: ca
  kind: cdp
  geo: {lat: 39.7752, lng: -120.61084}
- id: '0607036'
  slug: bloomfield
  name: Bloomfield
  state: ca
  kind: cdp
  geo: {lat: 38.32207, lng: -122.83446}
- id: '0607064'
  slug: bloomington
  name: Bloomington
  state: ca
  kind: cdp
  geo: {lat: 34.06007, lng: -117.40124}
- id: '0607162'
  slug: blue-lake
  name: Blue Lake
  state: ca
  kind: city
  geo: {lat: 40.88099, lng: -123.99491}
- id: '0607172'
  slug: bluewater
  name: Bluewater
  state: ca
  kind: cdp
  geo: {lat: 34.17543, lng: -114.26496}
- id: 0607218
  slug: blythe
  name: Blythe
  state: ca
  kind: city
  geo: {lat: 33.65352, lng: -114.62182}
- id: '0607246'
  slug: bodega
  name: Bodega
  state: ca
  kind: cdp
  geo: {lat: 38.34884, lng: -122.97116}
- id: '0607260'
  slug: bodega-bay
  name: Bodega Bay
  state: ca
  kind: cdp
  geo: {lat: 38.32747, lng: -123.02993}
- id: '0607274'
  slug: bodfish
  name: Bodfish
  state: ca
  kind: cdp
  geo: {lat: 35.57342, lng: -118.48644}
- id: '0607316'
  slug: bolinas
  name: Bolinas
  state: ca
  kind: cdp
  geo: {lat: 37.91772, lng: -122.7095}
- id: '0607372'
  slug: bombay-beach
  name: Bombay Beach
  state: ca
  kind: cdp
  geo: {lat: 33.35561, lng: -115.7269}
- id: 0607378
  slug: bonadelle-ranchos
  name: Bonadelle Ranchos
  state: ca
  kind: cdp
  geo: {lat: 36.96881, lng: -119.89278}
- id: '0607414'
  slug: bonita
  name: Bonita
  state: ca
  kind: cdp
  geo: {lat: 32.67322, lng: -117.0061}
- id: '0607470'
  slug: bonny-doon
  name: Bonny Doon
  state: ca
  kind: cdp
  geo: {lat: 37.04358, lng: -122.13697}
- id: 0607498
  slug: bonsall
  name: Bonsall
  state: ca
  kind: cdp
  geo: {lat: 33.27488, lng: -117.19186}
- id: '0607512'
  slug: boonville
  name: Boonville
  state: ca
  kind: cdp
  geo: {lat: 39.01147, lng: -123.37404}
- id: '0607525'
  slug: bootjack
  name: Bootjack
  state: ca
  kind: cdp
  geo: {lat: 37.47404, lng: -119.8838}
- id: 0607568
  slug: boron
  name: Boron
  state: ca
  kind: cdp
  geo: {lat: 35.01978, lng: -117.66594}
- id: 0607578
  slug: boronda
  name: Boronda
  state: ca
  kind: cdp
  geo: {lat: 36.69463, lng: -121.67451}
- id: 0607596
  slug: borrego-springs
  name: Borrego Springs
  state: ca
  kind: cdp
  geo: {lat: 33.24097, lng: -116.35712}
- id: '0607624'
  slug: bostonia
  name: Bostonia
  state: ca
  kind: cdp
  geo: {lat: 32.81898, lng: -116.94226}
- id: '0607652'
  slug: boulder-creek
  name: Boulder Creek
  state: ca
  kind: cdp
  geo: {lat: 37.1341, lng: -122.12721}
- id: 0607694
  slug: boulevard
  name: Boulevard
  state: ca
  kind: cdp
  geo: {lat: 32.66402, lng: -116.2896}
- id: '0607750'
  slug: bowles
  name: Bowles
  state: ca
  kind: cdp
  geo: {lat: 36.60887, lng: -119.75256}
- id: 0607848
  slug: boyes-hot-springs
  name: Boyes Hot Springs
  state: ca
  kind: cdp
  geo: {lat: 38.31263, lng: -122.48874}
- id: 0607946
  slug: bradbury
  name: Bradbury
  state: ca
  kind: city
  geo: {lat: 34.15316, lng: -117.96882}
- id: 0607974
  slug: bradley
  name: Bradley
  state: ca
  kind: cdp
  geo: {lat: 35.86284, lng: -120.80427}
- id: 0608058
  slug: brawley
  name: Brawley
  state: ca
  kind: city
  geo: {lat: 32.97845, lng: -115.52857}
- id: 0608100
  slug: brea
  name: Brea
  state: ca
  kind: city
  geo: {lat: 33.92518, lng: -117.86511}
- id: 0608142
  slug: brentwood
  name: Brentwood
  state: ca
  kind: city
  geo: {lat: 37.93558, lng: -121.71897}
- id: 0608172
  slug: bret-harte
  name: Bret Harte
  state: ca
  kind: cdp
  geo: {lat: 37.60208, lng: -121.00438}
- id: 0608240
  slug: bridgeport
  name: Bridgeport
  state: ca
  kind: cdp
  geo: {lat: 38.25521, lng: -119.21042}
- id: 0608310
  slug: brisbane
  name: Brisbane
  state: ca
  kind: city
  geo: {lat: 37.67575, lng: -122.3833}
- id: 0608338
  slug: broadmoor
  name: Broadmoor
  state: ca
  kind: cdp
  geo: {lat: 37.6915, lng: -122.48134}
- id: 0608478
  slug: brookdale
  name: Brookdale
  state: ca
  kind: cdp
  geo: {lat: 37.10573, lng: -122.11062}
- id: 0608506
  slug: brooks
  name: Brooks
  state: ca
  kind: cdp
  geo: {lat: 38.73688, lng: -122.14681}
- id: 0608530
  slug: brooktrails
  name: Brooktrails
  state: ca
  kind: cdp
  geo: {lat: 39.44328, lng: -123.3938}
- id: 0608716
  slug: buck-meadows
  name: Buck Meadows
  state: ca
  kind: cdp
  geo: {lat: 37.80705, lng: -120.07524}
- id: 0608680
  slug: buckhorn
  name: Buckhorn
  state: ca
  kind: cdp
  geo: {lat: 38.4548, lng: -120.53233}
- id: 0608744
  slug: bucks-lake
  name: Bucks Lake
  state: ca
  kind: cdp
  geo: {lat: 39.87956, lng: -121.19908}
- id: 0608758
  slug: buellton
  name: Buellton
  state: ca
  kind: city
  geo: {lat: 34.6155, lng: -120.19424}
- id: 0608786
  slug: buena-park
  name: Buena Park
  state: ca
  kind: city
  geo: {lat: 33.85735, lng: -118.00737}
- id: 0608828
  slug: buena-vista
  name: Buena Vista
  state: ca
  kind: cdp
  geo: {lat: 38.29749, lng: -120.9174}
- id: 0608954
  slug: burbank-8954
  name: Burbank
  state: ca
  kind: city
  geo: {lat: 34.19008, lng: -118.3264}
- id: 0608968
  slug: burbank-8968
  name: Burbank
  state: ca
  kind: cdp
  geo: {lat: 37.32108, lng: -121.93062}
- id: 0609066
  slug: burlingame
  name: Burlingame
  state: ca
  kind: city
  geo: {lat: 37.58995, lng: -122.36334}
- id: 0609122
  slug: burney
  name: Burney
  state: ca
  kind: cdp
  geo: {lat: 40.88936, lng: -121.67547}
- id: 0609150
  slug: burnt-ranch
  name: Burnt Ranch
  state: ca
  kind: cdp
  geo: {lat: 40.81133, lng: -123.50826}
- id: 0609310
  slug: butte-creek-canyon
  name: Butte Creek Canyon
  state: ca
  kind: cdp
  geo: {lat: 39.7445, lng: -121.70713}
- id: 0609318
  slug: butte-meadows
  name: Butte Meadows
  state: ca
  kind: cdp
  geo: {lat: 40.08531, lng: -121.54268}
- id: 0609324
  slug: butte-valley
  name: Butte Valley
  state: ca
  kind: cdp
  geo: {lat: 39.66882, lng: -121.64589}
- id: 0609332
  slug: buttonwillow
  name: Buttonwillow
  state: ca
  kind: cdp
  geo: {lat: 35.40923, lng: -119.44067}
- id: 0609346
  slug: byron
  name: Byron
  state: ca
  kind: cdp
  geo: {lat: 37.87564, lng: -121.64212}
- id: 0609353
  slug: bystrom
  name: Bystrom
  state: ca
  kind: cdp
  geo: {lat: 37.61939, lng: -120.98125}
- id: '0617267'
  slug: c-road
  name: C-Road
  state: ca
  kind: cdp
  geo: {lat: 39.76273, lng: -120.57705}
- id: 0609360
  slug: cabazon
  name: Cabazon
  state: ca
  kind: cdp
  geo: {lat: 33.91273, lng: -116.78283}
- id: 0609598
  slug: calabasas
  name: Calabasas
  state: ca
  kind: city
  geo: {lat: 34.13425, lng: -118.66645}
- id: 0609710
  slug: calexico
  name: Calexico
  state: ca
  kind: city
  geo: {lat: 32.68486, lng: -115.49474}
- id: 0609780
  slug: california-city
  name: California City
  state: ca
  kind: city
  geo: {lat: 35.14659, lng: -117.86935}
- id: 0609822
  slug: california-hot-springs
  name: California Hot Springs
  state: ca
  kind: cdp
  geo: {lat: 35.88757, lng: -118.65502}
- id: 0609834
  slug: california-pines
  name: California Pines
  state: ca
  kind: cdp
  geo: {lat: 41.41379, lng: -120.66531}
- id: 0609835
  slug: california-polytechnic-state-university
  name: California Polytechnic State University
  state: ca
  kind: cdp
  geo: {lat: 35.30698, lng: -120.66728}
- id: 0609864
  slug: calimesa
  name: Calimesa
  state: ca
  kind: city
  geo: {lat: 33.98735, lng: -117.05424}
- id: 0609878
  slug: calipatria
  name: Calipatria
  state: ca
  kind: city
  geo: {lat: 33.16865, lng: -115.48564}
- id: 0609892
  slug: calistoga
  name: Calistoga
  state: ca
  kind: city
  geo: {lat: 38.58141, lng: -122.5827}
- id: 0609948
  slug: callender
  name: Callender
  state: ca
  kind: cdp
  geo: {lat: 35.04797, lng: -120.57591}
- id: 0609990
  slug: calpella
  name: Calpella
  state: ca
  kind: cdp
  geo: {lat: 39.23372, lng: -123.19376}
- id: '0610004'
  slug: calpine
  name: Calpine
  state: ca
  kind: cdp
  geo: {lat: 39.66338, lng: -120.43928}
- id: '0610032'
  slug: calwa
  name: Calwa
  state: ca
  kind: cdp
  geo: {lat: 36.71348, lng: -119.76086}
- id: '0610042'
  slug: camanche-north-shore
  name: Camanche North Shore
  state: ca
  kind: cdp
  geo: {lat: 38.24422, lng: -120.95391}
- id: '0610044'
  slug: camanche-village
  name: Camanche Village
  state: ca
  kind: cdp
  geo: {lat: 38.26648, lng: -120.98658}
- id: '0610046'
  slug: camarillo
  name: Camarillo
  state: ca
  kind: city
  geo: {lat: 34.22182, lng: -119.03215}
- id: '0610074'
  slug: cambria
  name: Cambria
  state: ca
  kind: cdp
  geo: {lat: 35.55207, lng: -121.08414}
- id: 0610088
  slug: cambrian-park
  name: Cambrian Park
  state: ca
  kind: cdp
  geo: {lat: 37.25606, lng: -121.92878}
- id: '0610256'
  slug: cameron-park
  name: Cameron Park
  state: ca
  kind: cdp
  geo: {lat: 38.67403, lng: -120.98834}
- id: '0610270'
  slug: camino
  name: Camino
  state: ca
  kind: cdp
  geo: {lat: 38.74227, lng: -120.68081}
- id: '0610301'
  slug: camino-tassajara
  name: Camino Tassajara
  state: ca
  kind: cdp
  geo: {lat: 37.79089, lng: -121.88505}
- id: 0610494
  slug: camp-nelson
  name: Camp Nelson
  state: ca
  kind: cdp
  geo: {lat: 36.14198, lng: -118.61071}
- id: '0610554'
  slug: camp-pendleton-mainside
  name: Camp Pendleton Mainside
  state: ca
  kind: cdp
  geo: {lat: 33.30721, lng: -117.33105}
- id: '0610561'
  slug: camp-pendleton-south
  name: Camp Pendleton South
  state: ca
  kind: cdp
  geo: {lat: 33.23182, lng: -117.392}
- id: '0610345'
  slug: campbell
  name: Campbell
  state: ca
  kind: city
  geo: {lat: 37.28024, lng: -121.9533}
- id: 0610508
  slug: campo
  name: Campo
  state: ca
  kind: cdp
  geo: {lat: 32.64097, lng: -116.47452}
- id: '0610536'
  slug: campo-seco
  name: Campo Seco
  state: ca
  kind: cdp
  geo: {lat: 38.22074, lng: -120.85905}
- id: '0610676'
  slug: camptonville
  name: Camptonville
  state: ca
  kind: cdp
  geo: {lat: 39.45207, lng: -121.04867}
- id: '0610732'
  slug: canby
  name: Canby
  state: ca
  kind: cdp
  geo: {lat: 41.45229, lng: -120.88832}
- id: 0610816
  slug: cantua-creek
  name: Cantua Creek
  state: ca
  kind: cdp
  geo: {lat: 36.50005, lng: -120.31636}
- id: 0610928
  slug: canyon-lake
  name: Canyon Lake
  state: ca
  kind: city
  geo: {lat: 33.6883, lng: -117.26355}
- id: 0610914
  slug: canyondam
  name: Canyondam
  state: ca
  kind: cdp
  geo: {lat: 40.16987, lng: -121.07699}
- id: '0611040'
  slug: capitola
  name: Capitola
  state: ca
  kind: city
  geo: {lat: 36.97608, lng: -121.95401}
- id: '0611166'
  slug: caribou
  name: Caribou
  state: ca
  kind: cdp
  geo: {lat: 40.07324, lng: -121.16567}
- id: 0611194
  slug: carlsbad
  name: Carlsbad
  state: ca
  kind: city
  geo: {lat: 33.12928, lng: -117.28418}
- id: '0611250'
  slug: carmel-by-the-sea
  name: Carmel-by-the-Sea
  state: ca
  kind: city
  geo: {lat: 36.55288, lng: -121.92192}
- id: '0611324'
  slug: carmel-valley-village
  name: Carmel Valley Village
  state: ca
  kind: cdp
  geo: {lat: 36.50063, lng: -121.73182}
- id: '0611376'
  slug: carmet
  name: Carmet
  state: ca
  kind: cdp
  geo: {lat: 38.37445, lng: -123.07186}
- id: 0611390
  slug: carmichael
  name: Carmichael
  state: ca
  kind: cdp
  geo: {lat: 38.63081, lng: -121.32564}
- id: 0611418
  slug: carnelian-bay
  name: Carnelian Bay
  state: ca
  kind: cdp
  geo: {lat: 39.23517, lng: -120.07821}
- id: '0611446'
  slug: carpinteria
  name: Carpinteria
  state: ca
  kind: city
  geo: {lat: 34.38523, lng: -119.50076}
- id: 0611481
  slug: carrick
  name: Carrick
  state: ca
  kind: cdp
  geo: {lat: 41.44675, lng: -122.36346}
- id: '0611530'
  slug: carson
  name: Carson
  state: ca
  kind: city
  geo: {lat: 33.84037, lng: -118.24957}
- id: '0611600'
  slug: cartago
  name: Cartago
  state: ca
  kind: cdp
  geo: {lat: 36.30524, lng: -118.02717}
- id: '0611614'
  slug: caruthers
  name: Caruthers
  state: ca
  kind: cdp
  geo: {lat: 36.53991, lng: -119.84503}
- id: '0611656'
  slug: casa-conejo
  name: Casa Conejo
  state: ca
  kind: cdp
  geo: {lat: 34.18473, lng: -118.94452}
- id: 0611691
  slug: casa-de-oro-mount-helix
  name: Casa de Oro-Mount Helix
  state: ca
  kind: cdp
  geo: {lat: 32.76396, lng: -116.96881}
- id: 0611696
  slug: casa-loma
  name: Casa Loma
  state: ca
  kind: cdp
  geo: {lat: 35.34323, lng: -118.99871}
- id: '0611754'
  slug: casmalia
  name: Casmalia
  state: ca
  kind: cdp
  geo: {lat: 34.8378, lng: -120.53104}
- id: 0611768
  slug: caspar
  name: Caspar
  state: ca
  kind: cdp
  geo: {lat: 39.36306, lng: -123.80419}
- id: 0611782
  slug: cassel
  name: Cassel
  state: ca
  kind: cdp
  geo: {lat: 40.92502, lng: -121.54848}
- id: 0611796
  slug: castaic
  name: Castaic
  state: ca
  kind: cdp
  geo: {lat: 34.47744, lng: -118.63268}
- id: 0611824
  slug: castella
  name: Castella
  state: ca
  kind: cdp
  geo: {lat: 41.17725, lng: -122.28724}
- id: 0611915
  slug: castle-hill
  name: Castle Hill
  state: ca
  kind: cdp
  geo: {lat: 37.87472, lng: -122.05858}
- id: 0611964
  slug: castro-valley
  name: Castro Valley
  state: ca
  kind: cdp
  geo: {lat: 37.70828, lng: -122.06277}
- id: 0611978
  slug: castroville
  name: Castroville
  state: ca
  kind: cdp
  geo: {lat: 36.76484, lng: -121.75338}
- id: 0612048
  slug: cathedral-city
  name: Cathedral City
  state: ca
  kind: city
  geo: {lat: 33.83549, lng: -116.4631}
- id: '0612062'
  slug: catheys-valley
  name: Catheys Valley
  state: ca
  kind: cdp
  geo: {lat: 37.42771, lng: -120.09604}
- id: '0612132'
  slug: cayucos
  name: Cayucos
  state: ca
  kind: cdp
  geo: {lat: 35.43958, lng: -120.88983}
- id: '0612146'
  slug: cazadero
  name: Cazadero
  state: ca
  kind: cdp
  geo: {lat: 38.52783, lng: -123.1098}
- id: '0612216'
  slug: cedar-flat
  name: Cedar Flat
  state: ca
  kind: cdp
  geo: {lat: 39.20691, lng: -120.0949}
- id: '0612300'
  slug: cedar-ridge
  name: Cedar Ridge
  state: ca
  kind: cdp
  geo: {lat: 38.06574, lng: -120.27387}
- id: '0612314'
  slug: cedar-slope
  name: Cedar Slope
  state: ca
  kind: cdp
  geo: {lat: 36.14546, lng: -118.57888}
- id: 0612328
  slug: cedarville
  name: Cedarville
  state: ca
  kind: cdp
  geo: {lat: 41.52868, lng: -120.17443}
- id: '0612412'
  slug: centerville-2412
  name: Centerville
  state: ca
  kind: cdp
  geo: {lat: 36.73612, lng: -119.49601}
- id: '0612415'
  slug: centerville-2415
  name: Centerville
  state: ca
  kind: cdp
  geo: {lat: 40.5429, lng: -122.46451}
- id: '0612524'
  slug: ceres
  name: Ceres
  state: ca
  kind: city
  geo: {lat: 37.59879, lng: -120.96808}
- id: '0612552'
  slug: cerritos
  name: Cerritos
  state: ca
  kind: city
  geo: {lat: 33.86774, lng: -118.06947}
- id: 0612594
  slug: chalfant
  name: Chalfant
  state: ca
  kind: cdp
  geo: {lat: 37.49211, lng: -118.39041}
- id: '0612612'
  slug: challenge-brownsville
  name: Challenge-Brownsville
  state: ca
  kind: cdp
  geo: {lat: 39.46462, lng: -121.26325}
- id: 0612669
  slug: channel-islands-beach
  name: Channel Islands Beach
  state: ca
  kind: cdp
  geo: {lat: 34.16896, lng: -119.22854}
- id: '0612730'
  slug: charleston-view
  name: Charleston View
  state: ca
  kind: cdp
  geo: {lat: 35.96463, lng: -115.89723}
- id: '0612734'
  slug: charter-oak
  name: Charter Oak
  state: ca
  kind: cdp
  geo: {lat: 34.10249, lng: -117.85628}
- id: 0612818
  slug: cherokee
  name: Cherokee
  state: ca
  kind: cdp
  geo: {lat: 39.65088, lng: -121.53365}
- id: 0612860
  slug: cherokee-strip
  name: Cherokee Strip
  state: ca
  kind: cdp
  geo: {lat: 35.46957, lng: -119.26153}
- id: 0612916
  slug: cherry-valley
  name: Cherry Valley
  state: ca
  kind: cdp
  geo: {lat: 33.97964, lng: -116.96937}
- id: 0612902
  slug: cherryland
  name: Cherryland
  state: ca
  kind: cdp
  geo: {lat: 37.67922, lng: -122.10378}
- id: 0612930
  slug: chester
  name: Chester
  state: ca
  kind: cdp
  geo: {lat: 40.30168, lng: -121.2325}
- id: '0613014'
  slug: chico
  name: Chico
  state: ca
  kind: city
  geo: {lat: 39.75895, lng: -121.81772}
- id: '0613077'
  slug: chilcoot-vinton
  name: Chilcoot-Vinton
  state: ca
  kind: cdp
  geo: {lat: 39.80674, lng: -120.13886}
- id: '0613157'
  slug: china-lake-acres
  name: China Lake Acres
  state: ca
  kind: cdp
  geo: {lat: 35.64002, lng: -117.76646}
- id: 0613182
  slug: chinese-camp
  name: Chinese Camp
  state: ca
  kind: cdp
  geo: {lat: 37.87022, lng: -120.44423}
- id: '0613210'
  slug: chino
  name: Chino
  state: ca
  kind: city
  geo: {lat: 33.97563, lng: -117.66735}
- id: '0613214'
  slug: chino-hills
  name: Chino Hills
  state: ca
  kind: city
  geo: {lat: 33.94297, lng: -117.72565}
- id: 0613278
  slug: choctaw-valley
  name: Choctaw Valley
  state: ca
  kind: cdp
  geo: {lat: 35.44855, lng: -118.88719}
- id: 0613294
  slug: chowchilla
  name: Chowchilla
  state: ca
  kind: city
  geo: {lat: 37.1161, lng: -120.24198}
- id: '0613364'
  slug: chualar
  name: Chualar
  state: ca
  kind: cdp
  geo: {lat: 36.57111, lng: -121.51029}
- id: 0613392
  slug: chula-vista
  name: Chula Vista
  state: ca
  kind: city
  geo: {lat: 32.62767, lng: -117.01517}
- id: '0613560'
  slug: citrus
  name: Citrus
  state: ca
  kind: cdp
  geo: {lat: 34.11344, lng: -117.8913}
- id: 0613588
  slug: citrus-heights
  name: Citrus Heights
  state: ca
  kind: city
  geo: {lat: 38.69481, lng: -121.28795}
- id: '0613756'
  slug: claremont
  name: Claremont
  state: ca
  kind: city
  geo: {lat: 34.12493, lng: -117.71392}
- id: 0613784
  slug: clarksburg
  name: Clarksburg
  state: ca
  kind: cdp
  geo: {lat: 38.41933, lng: -121.54162}
- id: 0613854
  slug: clay
  name: Clay
  state: ca
  kind: cdp
  geo: {lat: 38.31404, lng: -121.15959}
- id: 0613882
  slug: clayton
  name: Clayton
  state: ca
  kind: city
  geo: {lat: 37.94032, lng: -121.93008}
- id: 0613910
  slug: clear-creek
  name: Clear Creek
  state: ca
  kind: cdp
  geo: {lat: 40.30709, lng: -121.0554}
- id: 0613945
  slug: clearlake
  name: Clearlake
  state: ca
  kind: city
  geo: {lat: 38.96005, lng: -122.63323}
- id: 0613966
  slug: clearlake-oaks
  name: Clearlake Oaks
  state: ca
  kind: cdp
  geo: {lat: 39.02061, lng: -122.65694}
- id: 0613985
  slug: clearlake-riviera
  name: Clearlake Riviera
  state: ca
  kind: cdp
  geo: {lat: 38.95138, lng: -122.72224}
- id: 0614008
  slug: cleone
  name: Cleone
  state: ca
  kind: cdp
  geo: {lat: 39.49015, lng: -123.77569}
- id: '0614106'
  slug: clio
  name: Clio
  state: ca
  kind: cdp
  geo: {lat: 39.75422, lng: -120.56673}
- id: 0614148
  slug: clipper-mills
  name: Clipper Mills
  state: ca
  kind: cdp
  geo: {lat: 39.53242, lng: -121.16655}
- id: 0614190
  slug: cloverdale
  name: Cloverdale
  state: ca
  kind: city
  geo: {lat: 38.7948, lng: -123.0147}
- id: 0614218
  slug: clovis
  name: Clovis
  state: ca
  kind: city
  geo: {lat: 36.82781, lng: -119.68184}
- id: '0614232'
  slug: clyde
  name: Clyde
  state: ca
  kind: cdp
  geo: {lat: 38.02539, lng: -122.02802}
- id: '0614260'
  slug: coachella
  name: Coachella
  state: ca
  kind: city
  geo: {lat: 33.69038, lng: -116.14313}
- id: '0614274'
  slug: coalinga
  name: Coalinga
  state: ca
  kind: city
  geo: {lat: 36.13301, lng: -120.33901}
- id: 0614288
  slug: coarsegold
  name: Coarsegold
  state: ca
  kind: cdp
  geo: {lat: 37.23918, lng: -119.70097}
- id: '0614302'
  slug: cobb
  name: Cobb
  state: ca
  kind: cdp
  geo: {lat: 38.83533, lng: -122.72244}
- id: '0614406'
  slug: coffee-creek
  name: Coffee Creek
  state: ca
  kind: cdp
  geo: {lat: 41.07967, lng: -122.71691}
- id: '0614442'
  slug: cohasset
  name: Cohasset
  state: ca
  kind: cdp
  geo: {lat: 39.90215, lng: -121.74537}
- id: '0614450'
  slug: cold-springs-4450
  name: Cold Springs
  state: ca
  kind: cdp
  geo: {lat: 38.74644, lng: -120.87381}
- id: '0614454'
  slug: cold-springs-4454
  name: Cold Springs
  state: ca
  kind: cdp
  geo: {lat: 38.16134, lng: -120.05353}
- id: 0614484
  slug: coleville
  name: Coleville
  state: ca
  kind: cdp
  geo: {lat: 38.58056, lng: -119.50286}
- id: 0614498
  slug: colfax
  name: Colfax
  state: ca
  kind: city
  geo: {lat: 39.0938, lng: -120.95322}
- id: '0614554'
  slug: college-city
  name: College City
  state: ca
  kind: cdp
  geo: {lat: 39.00608, lng: -122.00513}
- id: 0614708
  slug: collierville
  name: Collierville
  state: ca
  kind: cdp
  geo: {lat: 38.21283, lng: -121.26497}
- id: '0614736'
  slug: colma
  name: Colma
  state: ca
  kind: town
  geo: {lat: 37.6767, lng: -122.45282}
- id: '0614764'
  slug: coloma
  name: Coloma
  state: ca
  kind: cdp
  geo: {lat: 38.80262, lng: -120.89463}
- id: 0614890
  slug: colton
  name: Colton
  state: ca
  kind: city
  geo: {lat: 34.05452, lng: -117.32503}
- id: 0614904
  slug: columbia
  name: Columbia
  state: ca
  kind: cdp
  geo: {lat: 38.03123, lng: -120.4134}
- id: 0614946
  slug: colusa
  name: Colusa
  state: ca
  kind: city
  geo: {lat: 39.20002, lng: -122.00948}
- id: 0614974
  slug: commerce
  name: Commerce
  state: ca
  kind: city
  geo: {lat: 33.99452, lng: -118.14995}
- id: '0615030'
  slug: comptche
  name: Comptche
  state: ca
  kind: cdp
  geo: {lat: 39.26513, lng: -123.58971}
- id: '0615044'
  slug: compton
  name: Compton
  state: ca
  kind: city
  geo: {lat: 33.89405, lng: -118.22747}
- id: '0616000'
  slug: concord
  name: Concord
  state: ca
  kind: city
  geo: {lat: 37.97218, lng: -122.00159}
- id: '0616035'
  slug: concow
  name: Concow
  state: ca
  kind: cdp
  geo: {lat: 39.77032, lng: -121.51349}
- id: 0616090
  slug: contra-costa-centre
  name: Contra Costa Centre
  state: ca
  kind: cdp
  geo: {lat: 37.92596, lng: -122.05398}
- id: '0616210'
  slug: copperopolis
  name: Copperopolis
  state: ca
  kind: cdp
  geo: {lat: 37.93909, lng: -120.62514}
- id: '0616224'
  slug: corcoran
  name: Corcoran
  state: ca
  kind: city
  geo: {lat: 36.08406, lng: -119.56127}
- id: '0616322'
  slug: corning
  name: Corning
  state: ca
  kind: city
  geo: {lat: 39.9282, lng: -122.18201}
- id: '0616350'
  slug: corona
  name: Corona
  state: ca
  kind: city
  geo: {lat: 33.86197, lng: -117.56549}
- id: 0616378
  slug: coronado
  name: Coronado
  state: ca
  kind: city
  geo: {lat: 32.65672, lng: -117.15638}
- id: '0616420'
  slug: coronita
  name: Coronita
  state: ca
  kind: cdp
  geo: {lat: 33.87588, lng: -117.61098}
- id: '0616434'
  slug: corralitos
  name: Corralitos
  state: ca
  kind: cdp
  geo: {lat: 36.98423, lng: -121.78943}
- id: '0616462'
  slug: corte-madera
  name: Corte Madera
  state: ca
  kind: town
  geo: {lat: 37.93185, lng: -122.50774}
- id: '0616532'
  slug: costa-mesa
  name: Costa Mesa
  state: ca
  kind: city
  geo: {lat: 33.66591, lng: -117.91234}
- id: '0616560'
  slug: cotati
  name: Cotati
  state: ca
  kind: city
  geo: {lat: 38.32849, lng: -122.71005}
- id: 0616580
  slug: coto-de-caza
  name: Coto de Caza
  state: ca
  kind: cdp
  geo: {lat: 33.59704, lng: -117.58648}
- id: '0616623'
  slug: cottonwood-6623
  name: Cottonwood
  state: ca
  kind: cdp
  geo: {lat: 35.34559, lng: -118.98586}
- id: '0616630'
  slug: cottonwood-6630
  name: Cottonwood
  state: ca
  kind: cdp
  geo: {lat: 40.39029, lng: -122.31563}
- id: '0616644'
  slug: coulterville
  name: Coulterville
  state: ca
  kind: cdp
  geo: {lat: 37.71257, lng: -120.19606}
- id: '0616651'
  slug: country-club
  name: Country Club
  state: ca
  kind: cdp
  geo: {lat: 37.96804, lng: -121.34048}
- id: '0616714'
  slug: courtland
  name: Courtland
  state: ca
  kind: cdp
  geo: {lat: 38.33291, lng: -121.55703}
- id: 0616728
  slug: covelo
  name: Covelo
  state: ca
  kind: cdp
  geo: {lat: 39.80019, lng: -123.2526}
- id: '0616742'
  slug: covina
  name: Covina
  state: ca
  kind: city
  geo: {lat: 34.09047, lng: -117.88214}
- id: '0616762'
  slug: cowan
  name: Cowan
  state: ca
  kind: cdp
  geo: {lat: 37.56011, lng: -120.98879}
- id: '0617022'
  slug: crescent-city
  name: Crescent City
  state: ca
  kind: city
  geo: {lat: 41.76451, lng: -124.20078}
- id: '0617050'
  slug: crescent-mills
  name: Crescent Mills
  state: ca
  kind: cdp
  geo: {lat: 40.10074, lng: -120.92171}
- id: 0617078
  slug: cressey
  name: Cressey
  state: ca
  kind: cdp
  geo: {lat: 37.42103, lng: -120.65569}
- id: '0617106'
  slug: crest
  name: Crest
  state: ca
  kind: cdp
  geo: {lat: 32.80002, lng: -116.86708}
- id: '0617162'
  slug: crestline
  name: Crestline
  state: ca
  kind: cdp
  geo: {lat: 34.25408, lng: -117.28671}
- id: '0617232'
  slug: creston
  name: Creston
  state: ca
  kind: cdp
  geo: {lat: 35.5171, lng: -120.51814}
- id: '0617274'
  slug: crockett
  name: Crockett
  state: ca
  kind: cdp
  geo: {lat: 38.05192, lng: -122.22013}
- id: 0617288
  slug: cromberg
  name: Cromberg
  state: ca
  kind: cdp
  geo: {lat: 39.86838, lng: -120.69045}
- id: '0617372'
  slug: crowley-lake
  name: Crowley Lake
  state: ca
  kind: cdp
  geo: {lat: 37.56874, lng: -118.74642}
- id: 0617428
  slug: crows-landing
  name: Crows Landing
  state: ca
  kind: cdp
  geo: {lat: 37.39444, lng: -121.07517}
- id: 0617498
  slug: cudahy
  name: Cudahy
  state: ca
  kind: city
  geo: {lat: 33.964, lng: -118.18256}
- id: 0617568
  slug: culver-city
  name: Culver City
  state: ca
  kind: city
  geo: {lat: 34.00582, lng: -118.39678}
- id: '0617610'
  slug: cupertino
  name: Cupertino
  state: ca
  kind: city
  geo: {lat: 37.3194, lng: -122.04496}
- id: 0617708
  slug: cutler
  name: Cutler
  state: ca
  kind: cdp
  geo: {lat: 36.52466, lng: -119.28883}
- id: '0617722'
  slug: cutten
  name: Cutten
  state: ca
  kind: cdp
  geo: {lat: 40.76568, lng: -124.14446}
- id: '0617727'
  slug: cuyama
  name: Cuyama
  state: ca
  kind: cdp
  geo: {lat: 34.93106, lng: -119.61488}
- id: '0617750'
  slug: cypress
  name: Cypress
  state: ca
  kind: city
  geo: {lat: 33.81848, lng: -118.03831}
- id: 0617876
  slug: dales
  name: Dales
  state: ca
  kind: cdp
  geo: {lat: 40.31799, lng: -122.05384}
- id: 0617918
  slug: daly-city
  name: Daly City
  state: ca
  kind: city
  geo: {lat: 37.70168, lng: -122.46497}
- id: 0617946
  slug: dana-point
  name: Dana Point
  state: ca
  kind: city
  geo: {lat: 33.47545, lng: -117.69309}
- id: 0617988
  slug: danville
  name: Danville
  state: ca
  kind: town
  geo: {lat: 37.81214, lng: -121.96982}
- id: 0617995
  slug: daphnedale-park
  name: Daphnedale Park
  state: ca
  kind: cdp
  geo: {lat: 41.50686, lng: -120.54807}
- id: 0618030
  slug: darwin
  name: Darwin
  state: ca
  kind: cdp
  geo: {lat: 36.2688, lng: -117.589}
- id: 0618086
  slug: davenport
  name: Davenport
  state: ca
  kind: cdp
  geo: {lat: 37.01778, lng: -122.18788}
- id: 0618100
  slug: davis
  name: Davis
  state: ca
  kind: city
  geo: {lat: 38.55615, lng: -121.73779}
- id: 0618153
  slug: day-valley
  name: Day Valley
  state: ca
  kind: cdp
  geo: {lat: 37.02544, lng: -121.85593}
- id: 0618324
  slug: deer-park
  name: Deer Park
  state: ca
  kind: cdp
  geo: {lat: 38.53518, lng: -122.47015}
- id: 0618352
  slug: del-aire
  name: Del Aire
  state: ca
  kind: cdp
  geo: {lat: 33.91674, lng: -118.36929}
- id: 0618422
  slug: del-dios
  name: Del Dios
  state: ca
  kind: cdp
  geo: {lat: 33.07568, lng: -117.11904}
- id: 0618506
  slug: del-mar
  name: Del Mar
  state: ca
  kind: city
  geo: {lat: 32.96395, lng: -117.2598}
- id: 0618590
  slug: del-monte-forest
  name: Del Monte Forest
  state: ca
  kind: cdp
  geo: {lat: 36.58383, lng: -121.94671}
- id: 0618674
  slug: del-rey
  name: Del Rey
  state: ca
  kind: cdp
  geo: {lat: 36.65646, lng: -119.59813}
- id: 0618688
  slug: del-rey-oaks
  name: Del Rey Oaks
  state: ca
  kind: city
  geo: {lat: 36.5897, lng: -121.82953}
- id: 0618695
  slug: del-rio
  name: Del Rio
  state: ca
  kind: cdp
  geo: {lat: 37.74591, lng: -121.00929}
- id: 0618394
  slug: delano
  name: Delano
  state: ca
  kind: city
  geo: {lat: 35.76643, lng: -119.26422}
- id: 0618450
  slug: delft-colony
  name: Delft Colony
  state: ca
  kind: cdp
  geo: {lat: 36.51381, lng: -119.44652}
- id: 0618464
  slug: delhi
  name: Delhi
  state: ca
  kind: cdp
  geo: {lat: 37.4306, lng: -120.7759}
- id: 0618485
  slug: delleker
  name: Delleker
  state: ca
  kind: cdp
  geo: {lat: 39.81325, lng: -120.48967}
- id: 0618856
  slug: denair
  name: Denair
  state: ca
  kind: cdp
  geo: {lat: 37.5254, lng: -120.79743}
- id: 0618926
  slug: derby-acres
  name: Derby Acres
  state: ca
  kind: cdp
  geo: {lat: 35.24403, lng: -119.60383}
- id: 0618940
  slug: descanso
  name: Descanso
  state: ca
  kind: cdp
  geo: {lat: 32.86957, lng: -116.62788}
- id: 0618982
  slug: desert-center
  name: Desert Center
  state: ca
  kind: cdp
  geo: {lat: 33.7378, lng: -115.36662}
- id: 0618986
  slug: desert-edge
  name: Desert Edge
  state: ca
  kind: cdp
  geo: {lat: 33.92229, lng: -116.44009}
- id: 0618996
  slug: desert-hot-springs
  name: Desert Hot Springs
  state: ca
  kind: city
  geo: {lat: 33.95759, lng: -116.54228}
- id: 0619022
  slug: desert-palms
  name: Desert Palms
  state: ca
  kind: cdp
  geo: {lat: 33.77914, lng: -116.29822}
- id: 0619024
  slug: desert-shores
  name: Desert Shores
  state: ca
  kind: cdp
  geo: {lat: 33.4038, lng: -116.03921}
- id: 0619052
  slug: desert-view-highlands
  name: Desert View Highlands
  state: ca
  kind: cdp
  geo: {lat: 34.59026, lng: -118.15354}
- id: 0619248
  slug: di-giorgio
  name: Di Giorgio
  state: ca
  kind: cdp
  geo: {lat: 35.24912, lng: -118.84415}
- id: 0619150
  slug: diablo
  name: Diablo
  state: ca
  kind: cdp
  geo: {lat: 37.84077, lng: -121.95648}
- id: 0619155
  slug: diablo-grande
  name: Diablo Grande
  state: ca
  kind: cdp
  geo: {lat: 37.39905, lng: -121.26351}
- id: 0619192
  slug: diamond-bar
  name: Diamond Bar
  state: ca
  kind: city
  geo: {lat: 34.00157, lng: -117.8176}
- id: 0619220
  slug: diamond-springs
  name: Diamond Springs
  state: ca
  kind: cdp
  geo: {lat: 38.69201, lng: -120.83868}
- id: 0619262
  slug: dillon-beach
  name: Dillon Beach
  state: ca
  kind: cdp
  geo: {lat: 38.24349, lng: -122.95596}
- id: 0619318
  slug: dinuba
  name: Dinuba
  state: ca
  kind: city
  geo: {lat: 36.5451, lng: -119.39888}
- id: 0619339
  slug: discovery-bay
  name: Discovery Bay
  state: ca
  kind: cdp
  geo: {lat: 37.90813, lng: -121.5972}
- id: 0619402
  slug: dixon
  name: Dixon
  state: ca
  kind: city
  geo: {lat: 38.44751, lng: -121.82422}
- id: 0619406
  slug: dixon-lane-meadowcreek
  name: Dixon Lane-MeadowCreek
  state: ca
  kind: cdp
  geo: {lat: 37.38639, lng: -118.41527}
- id: 0619416
  slug: dobbins
  name: Dobbins
  state: ca
  kind: cdp
  geo: {lat: 39.35659, lng: -121.21038}
- id: 0619440
  slug: dogtown
  name: Dogtown
  state: ca
  kind: cdp
  geo: {lat: 38.20867, lng: -121.15481}
- id: 0619455
  slug: dollar-point
  name: Dollar Point
  state: ca
  kind: cdp
  geo: {lat: 39.18963, lng: -120.10943}
- id: 0619570
  slug: dorrington
  name: Dorrington
  state: ca
  kind: cdp
  geo: {lat: 38.30448, lng: -120.26632}
- id: 0619584
  slug: dorris
  name: Dorris
  state: ca
  kind: city
  geo: {lat: 41.96496, lng: -121.92039}
- id: 0619612
  slug: dos-palos
  name: Dos Palos
  state: ca
  kind: city
  geo: {lat: 36.98542, lng: -120.63384}
- id: 0619654
  slug: dos-palos-y
  name: Dos Palos Y
  state: ca
  kind: cdp
  geo: {lat: 37.04684, lng: -120.63947}
- id: 0619724
  slug: douglas-city
  name: Douglas City
  state: ca
  kind: cdp
  geo: {lat: 40.64495, lng: -122.92743}
- id: 0619738
  slug: douglas-flat
  name: Douglas Flat
  state: ca
  kind: cdp
  geo: {lat: 38.11462, lng: -120.45286}
- id: 0619766
  slug: downey
  name: Downey
  state: ca
  kind: city
  geo: {lat: 33.93824, lng: -118.13086}
- id: 0619794
  slug: downieville
  name: Downieville
  state: ca
  kind: cdp
  geo: {lat: 39.57864, lng: -120.81641}
- id: 0619878
  slug: doyle
  name: Doyle
  state: ca
  kind: cdp
  geo: {lat: 40.02722, lng: -120.11537}
- id: 0619976
  slug: drytown
  name: Drytown
  state: ca
  kind: cdp
  geo: {lat: 38.44149, lng: -120.8605}
- id: 0619990
  slug: duarte
  name: Duarte
  state: ca
  kind: city
  geo: {lat: 34.16097, lng: -117.95045}
- id: 0620018
  slug: dublin
  name: Dublin
  state: ca
  kind: city
  geo: {lat: 37.71614, lng: -121.89623}
- id: '0620032'
  slug: ducor
  name: Ducor
  state: ca
  kind: cdp
  geo: {lat: 35.8927, lng: -119.04701}
- id: 0620228
  slug: dunnigan
  name: Dunnigan
  state: ca
  kind: cdp
  geo: {lat: 38.89264, lng: -121.97418}
- id: '0620242'
  slug: dunsmuir
  name: Dunsmuir
  state: ca
  kind: city
  geo: {lat: 41.23153, lng: -122.27094}
- id: '0620270'
  slug: durham
  name: Durham
  state: ca
  kind: cdp
  geo: {lat: 39.62936, lng: -121.79077}
- id: 0620284
  slug: dustin-acres
  name: Dustin Acres
  state: ca
  kind: cdp
  geo: {lat: 35.21593, lng: -119.37499}
- id: 0620298
  slug: dutch-flat
  name: Dutch Flat
  state: ca
  kind: cdp
  geo: {lat: 39.20801, lng: -120.83448}
- id: '0620424'
  slug: eagleville
  name: Eagleville
  state: ca
  kind: cdp
  geo: {lat: 41.31899, lng: -120.11461}
- id: 0620438
  slug: earlimart
  name: Earlimart
  state: ca
  kind: cdp
  geo: {lat: 35.89135, lng: -119.27209}
- id: '0620515'
  slug: east-bakersfield
  name: East Bakersfield
  state: ca
  kind: cdp
  geo: {lat: 35.38318, lng: -118.97437}
- id: 0620598
  slug: east-foothills
  name: East Foothills
  state: ca
  kind: cdp
  geo: {lat: 37.38261, lng: -121.81375}
- id: 0620697
  slug: east-hemet
  name: East Hemet
  state: ca
  kind: cdp
  geo: {lat: 33.73011, lng: -116.941}
- id: 0620802
  slug: east-los-angeles
  name: East Los Angeles
  state: ca
  kind: cdp
  geo: {lat: 34.03151, lng: -118.16857}
- id: 0620900
  slug: east-nicolaus
  name: East Nicolaus
  state: ca
  kind: cdp
  geo: {lat: 38.91004, lng: -121.54432}
- id: 0620903
  slug: east-niles
  name: East Niles
  state: ca
  kind: cdp
  geo: {lat: 35.36827, lng: -118.92246}
- id: 0620907
  slug: east-oakdale
  name: East Oakdale
  state: ca
  kind: cdp
  geo: {lat: 37.78387, lng: -120.79863}
- id: 0620942
  slug: east-orosi
  name: East Orosi
  state: ca
  kind: cdp
  geo: {lat: 36.54807, lng: -119.25985}
- id: 0620956
  slug: east-palo-alto
  name: East Palo Alto
  state: ca
  kind: city
  geo: {lat: 37.46778, lng: -122.13255}
- id: 0620984
  slug: east-pasadena
  name: East Pasadena
  state: ca
  kind: cdp
  geo: {lat: 34.1368, lng: -118.07753}
- id: '0621012'
  slug: east-porterville
  name: East Porterville
  state: ca
  kind: cdp
  geo: {lat: 36.05816, lng: -118.9749}
- id: '0621026'
  slug: east-quincy
  name: East Quincy
  state: ca
  kind: cdp
  geo: {lat: 39.91643, lng: -120.91894}
- id: '0621034'
  slug: east-rancho-dominguez
  name: East Rancho Dominguez
  state: ca
  kind: cdp
  geo: {lat: 33.89484, lng: -118.19559}
- id: '0621061'
  slug: east-richmond-heights
  name: East Richmond Heights
  state: ca
  kind: cdp
  geo: {lat: 37.94508, lng: -122.31391}
- id: 0621096
  slug: east-san-gabriel
  name: East San Gabriel
  state: ca
  kind: cdp
  geo: {lat: 34.11619, lng: -118.07989}
- id: 0621138
  slug: east-shore
  name: East Shore
  state: ca
  kind: cdp
  geo: {lat: 40.24527, lng: -121.07678}
- id: 0621188
  slug: east-sonora
  name: East Sonora
  state: ca
  kind: cdp
  geo: {lat: 37.97424, lng: -120.33804}
- id: '0621210'
  slug: east-tulare-villa
  name: East Tulare Villa
  state: ca
  kind: cdp
  geo: {lat: 36.20376, lng: -119.28033}
- id: 0621292
  slug: east-whittier
  name: East Whittier
  state: ca
  kind: cdp
  geo: {lat: 33.92438, lng: -117.98873}
- id: '0620574'
  slug: eastern-goleta-valley
  name: Eastern Goleta Valley
  state: ca
  kind: cdp
  geo: {lat: 34.44391, lng: -119.78548}
- id: 0620928
  slug: easton
  name: Easton
  state: ca
  kind: cdp
  geo: {lat: 36.65239, lng: -119.79079}
- id: '0621230'
  slug: eastvale
  name: Eastvale
  state: ca
  kind: city
  geo: {lat: 33.96327, lng: -117.58237}
- id: '0621530'
  slug: edgewood
  name: Edgewood
  state: ca
  kind: cdp
  geo: {lat: 41.46077, lng: -122.42569}
- id: '0621544'
  slug: edison
  name: Edison
  state: ca
  kind: cdp
  geo: {lat: 35.34731, lng: -118.86983}
- id: 0621558
  slug: edmundson-acres
  name: Edmundson Acres
  state: ca
  kind: cdp
  geo: {lat: 35.2273, lng: -118.82325}
- id: '0621565'
  slug: edna
  name: Edna
  state: ca
  kind: cdp
  geo: {lat: 35.21079, lng: -120.60597}
- id: '0621600'
  slug: edwards-afb
  name: Edwards AFB
  state: ca
  kind: cdp
  geo: {lat: 34.90241, lng: -117.92187}
- id: 0621691
  slug: el-adobe
  name: El Adobe
  state: ca
  kind: cdp
  geo: {lat: 35.24508, lng: -118.95884}
- id: '0621712'
  slug: el-cajon
  name: El Cajon
  state: ca
  kind: city
  geo: {lat: 32.80167, lng: -116.96047}
- id: 0621782
  slug: el-centro
  name: El Centro
  state: ca
  kind: city
  geo: {lat: 32.78635, lng: -115.56021}
- id: 0621788
  slug: el-centro-naval-air-facility
  name: El Centro Naval Air Facility
  state: ca
  kind: cdp
  geo: {lat: 32.82523, lng: -115.66807}
- id: 0621796
  slug: el-cerrito-1796
  name: El Cerrito
  state: ca
  kind: city
  geo: {lat: 37.91957, lng: -122.30252}
- id: 0621810
  slug: el-cerrito-1810
  name: El Cerrito
  state: ca
  kind: cdp
  geo: {lat: 33.83819, lng: -117.5222}
- id: 0621880
  slug: el-dorado-hills
  name: El Dorado Hills
  state: ca
  kind: cdp
  geo: {lat: 38.67608, lng: -121.0477}
- id: 0621936
  slug: el-granada
  name: El Granada
  state: ca
  kind: cdp
  geo: {lat: 37.51417, lng: -122.4648}
- id: '0622104'
  slug: el-macero
  name: El Macero
  state: ca
  kind: cdp
  geo: {lat: 38.54402, lng: -121.68517}
- id: 0622188
  slug: el-modena
  name: El Modena
  state: ca
  kind: cdp
  geo: {lat: 33.79196, lng: -117.80465}
- id: '0622230'
  slug: el-monte
  name: El Monte
  state: ca
  kind: city
  geo: {lat: 34.07463, lng: -118.02914}
- id: '0622235'
  slug: el-monte-mobile-village
  name: El Monte Mobile Village
  state: ca
  kind: cdp
  geo: {lat: 36.54707, lng: -119.42505}
- id: 0622286
  slug: el-nido
  name: El Nido
  state: ca
  kind: cdp
  geo: {lat: 37.13238, lng: -120.49855}
- id: '0622300'
  slug: el-paso-de-robles-paso-robles
  name: El Paso de Robles (Paso Robles)
  state: ca
  kind: city
  geo: {lat: 35.62851, lng: -120.65036}
- id: 0622328
  slug: el-portal
  name: El Portal
  state: ca
  kind: cdp
  geo: {lat: 37.67324, lng: -119.78772}
- id: '0622360'
  slug: el-rancho
  name: El Rancho
  state: ca
  kind: cdp
  geo: {lat: 36.22068, lng: -119.06836}
- id: '0622370'
  slug: el-rio
  name: El Rio
  state: ca
  kind: cdp
  geo: {lat: 34.24536, lng: -119.15676}
- id: '0622412'
  slug: el-segundo
  name: El Segundo
  state: ca
  kind: city
  geo: {lat: 33.91037, lng: -118.42508}
- id: '0622454'
  slug: el-sobrante-2454
  name: El Sobrante
  state: ca
  kind: cdp
  geo: {lat: 37.97362, lng: -122.30314}
- id: '0622457'
  slug: el-sobrante-2457
  name: El Sobrante
  state: ca
  kind: cdp
  geo: {lat: 33.87246, lng: -117.46252}
- id: '0622510'
  slug: el-verano
  name: El Verano
  state: ca
  kind: cdp
  geo: {lat: 38.29747, lng: -122.49154}
- id: 0621894
  slug: eldridge
  name: Eldridge
  state: ca
  kind: cdp
  geo: {lat: 38.33389, lng: -122.50652}
- id: 0621916
  slug: elfin-forest
  name: Elfin Forest
  state: ca
  kind: cdp
  geo: {lat: 33.08123, lng: -117.17744}
- id: 0621964
  slug: elizabeth-lake
  name: Elizabeth Lake
  state: ca
  kind: cdp
  geo: {lat: 34.65649, lng: -118.37985}
- id: '0622006'
  slug: elk-creek
  name: Elk Creek
  state: ca
  kind: cdp
  geo: {lat: 39.59868, lng: -122.53232}
- id: '0622020'
  slug: elk-grove
  name: Elk Grove
  state: ca
  kind: city
  geo: {lat: 38.41462, lng: -121.38496}
- id: '0622034'
  slug: elkhorn
  name: Elkhorn
  state: ca
  kind: cdp
  geo: {lat: 36.81067, lng: -121.7187}
- id: '0622146'
  slug: elmira
  name: Elmira
  state: ca
  kind: cdp
  geo: {lat: 38.35233, lng: -121.90772}
- id: '0622524'
  slug: elverta
  name: Elverta
  state: ca
  kind: cdp
  geo: {lat: 38.71846, lng: -121.44548}
- id: 0622587
  slug: emerald-lake-hills
  name: Emerald Lake Hills
  state: ca
  kind: cdp
  geo: {lat: 37.46566, lng: -122.26535}
- id: 0622594
  slug: emeryville
  name: Emeryville
  state: ca
  kind: city
  geo: {lat: 37.83847, lng: -122.30168}
- id: '0622622'
  slug: empire
  name: Empire
  state: ca
  kind: cdp
  geo: {lat: 37.64306, lng: -120.90704}
- id: 0622678
  slug: encinitas
  name: Encinitas
  state: ca
  kind: city
  geo: {lat: 33.05063, lng: -117.26362}
- id: 0622790
  slug: escalon
  name: Escalon
  state: ca
  kind: city
  geo: {lat: 37.79134, lng: -120.99964}
- id: 0622804
  slug: escondido
  name: Escondido
  state: ca
  kind: city
  geo: {lat: 33.13305, lng: -117.07404}
- id: 0622846
  slug: esparto
  name: Esparto
  state: ca
  kind: cdp
  geo: {lat: 38.69341, lng: -122.02405}
- id: 0622972
  slug: etna
  name: Etna
  state: ca
  kind: city
  geo: {lat: 41.4582, lng: -122.89582}
- id: '0623000'
  slug: eucalyptus-hills
  name: Eucalyptus Hills
  state: ca
  kind: cdp
  geo: {lat: 32.88518, lng: -116.94498}
- id: '0623042'
  slug: eureka
  name: Eureka
  state: ca
  kind: city
  geo: {lat: 40.79759, lng: -124.15419}
- id: '0623126'
  slug: exeter
  name: Exeter
  state: ca
  kind: city
  geo: {lat: 36.29414, lng: -119.14595}
- id: 0623294
  slug: fair-oaks
  name: Fair Oaks
  state: ca
  kind: cdp
  geo: {lat: 38.65015, lng: -121.25097}
- id: '0623150'
  slug: fairbanks-ranch
  name: Fairbanks Ranch
  state: ca
  kind: cdp
  geo: {lat: 32.9916, lng: -117.18661}
- id: 0623158
  slug: fairfax-3158
  name: Fairfax
  state: ca
  kind: cdp
  geo: {lat: 35.34689, lng: -118.93381}
- id: 0623168
  slug: fairfax-3168
  name: Fairfax
  state: ca
  kind: town
  geo: {lat: 37.98853, lng: -122.59521}
- id: 0623182
  slug: fairfield
  name: Fairfield
  state: ca
  kind: city
  geo: {lat: 38.26196, lng: -122.03239}
- id: 0623196
  slug: fairhaven
  name: Fairhaven
  state: ca
  kind: cdp
  geo: {lat: 40.78829, lng: -124.20142}
- id: '0623210'
  slug: fairmead
  name: Fairmead
  state: ca
  kind: cdp
  geo: {lat: 37.0774, lng: -120.19391}
- id: '0623350'
  slug: fairview
  name: Fairview
  state: ca
  kind: cdp
  geo: {lat: 37.67767, lng: -122.04443}
- id: '0623532'
  slug: fall-river-mills
  name: Fall River Mills
  state: ca
  kind: cdp
  geo: {lat: 41.00724, lng: -121.44113}
- id: '0623462'
  slug: fallbrook
  name: Fallbrook
  state: ca
  kind: cdp
  geo: {lat: 33.37423, lng: -117.22038}
- id: '0623616'
  slug: farmersville
  name: Farmersville
  state: ca
  kind: city
  geo: {lat: 36.30474, lng: -119.20861}
- id: '0623630'
  slug: farmington
  name: Farmington
  state: ca
  kind: cdp
  geo: {lat: 37.92987, lng: -121.00437}
- id: 0623812
  slug: fellows
  name: Fellows
  state: ca
  kind: cdp
  geo: {lat: 35.17793, lng: -119.54721}
- id: 0623826
  slug: felton
  name: Felton
  state: ca
  kind: cdp
  geo: {lat: 37.03922, lng: -122.08076}
- id: 0623910
  slug: ferndale
  name: Ferndale
  state: ca
  kind: city
  geo: {lat: 40.57814, lng: -124.26125}
- id: 0623973
  slug: fetters-hot-springs-agua-caliente
  name: Fetters Hot Springs-Agua Caliente
  state: ca
  kind: cdp
  geo: {lat: 38.3275, lng: -122.48714}
- id: 0623980
  slug: fiddletown
  name: Fiddletown
  state: ca
  kind: cdp
  geo: {lat: 38.50686, lng: -120.76015}
- id: 0624008
  slug: fieldbrook
  name: Fieldbrook
  state: ca
  kind: cdp
  geo: {lat: 40.97296, lng: -124.02859}
- id: '0624022'
  slug: fields-landing
  name: Fields Landing
  state: ca
  kind: cdp
  geo: {lat: 40.72424, lng: -124.2186}
- id: 0624092
  slug: fillmore
  name: Fillmore
  state: ca
  kind: city
  geo: {lat: 34.39896, lng: -118.91746}
- id: '0624134'
  slug: firebaugh
  name: Firebaugh
  state: ca
  kind: city
  geo: {lat: 36.85375, lng: -120.45375}
- id: 0624218
  slug: fish-camp
  name: Fish Camp
  state: ca
  kind: cdp
  geo: {lat: 37.4799, lng: -119.64091}
- id: '0624477'
  slug: florence-graham
  name: Florence-Graham
  state: ca
  kind: cdp
  geo: {lat: 33.96816, lng: -118.24467}
- id: 0624498
  slug: florin
  name: Florin
  state: ca
  kind: cdp
  geo: {lat: 38.48315, lng: -121.40433}
- id: '0624526'
  slug: floriston
  name: Floriston
  state: ca
  kind: cdp
  geo: {lat: 39.39293, lng: -120.01511}
- id: 0624568
  slug: flournoy
  name: Flournoy
  state: ca
  kind: cdp
  geo: {lat: 39.92834, lng: -122.44579}
- id: 0624638
  slug: folsom
  name: Folsom
  state: ca
  kind: city
  geo: {lat: 38.6666, lng: -121.14163}
- id: 0624680
  slug: fontana
  name: Fontana
  state: ca
  kind: city
  geo: {lat: 34.10969, lng: -117.46289}
- id: '0624722'
  slug: foothill-farms
  name: Foothill Farms
  state: ca
  kind: cdp
  geo: {lat: 38.68673, lng: -121.34748}
- id: '0624750'
  slug: forbestown
  name: Forbestown
  state: ca
  kind: cdp
  geo: {lat: 39.52758, lng: -121.26622}
- id: '0624764'
  slug: ford-city
  name: Ford City
  state: ca
  kind: cdp
  geo: {lat: 35.16474, lng: -119.4584}
- id: 0624897
  slug: forest-meadows
  name: Forest Meadows
  state: ca
  kind: cdp
  geo: {lat: 38.1718, lng: -120.39774}
- id: 0624918
  slug: forest-ranch
  name: Forest Ranch
  state: ca
  kind: cdp
  geo: {lat: 39.8952, lng: -121.67045}
- id: 0624792
  slug: foresta
  name: Foresta
  state: ca
  kind: cdp
  geo: {lat: 37.69878, lng: -119.74827}
- id: 0624834
  slug: foresthill
  name: Foresthill
  state: ca
  kind: cdp
  geo: {lat: 39.00529, lng: -120.83136}
- id: 0624960
  slug: forestville
  name: Forestville
  state: ca
  kind: cdp
  geo: {lat: 38.48249, lng: -122.88988}
- id: '0625030'
  slug: fort-bidwell
  name: Fort Bidwell
  state: ca
  kind: cdp
  geo: {lat: 41.8633, lng: -120.1594}
- id: 0625058
  slug: fort-bragg
  name: Fort Bragg
  state: ca
  kind: city
  geo: {lat: 39.4398, lng: -123.80176}
- id: 0625086
  slug: fort-dick
  name: Fort Dick
  state: ca
  kind: cdp
  geo: {lat: 41.86953, lng: -124.16721}
- id: 0625093
  slug: fort-hunter-liggett
  name: Fort Hunter Liggett
  state: ca
  kind: cdp
  geo: {lat: 35.99233, lng: -121.23487}
- id: '0625114'
  slug: fort-irwin
  name: Fort Irwin
  state: ca
  kind: cdp
  geo: {lat: 35.2477, lng: -116.68341}
- id: 0625128
  slug: fort-jones
  name: Fort Jones
  state: ca
  kind: city
  geo: {lat: 41.60845, lng: -122.84107}
- id: '0625300'
  slug: fort-washington
  name: Fort Washington
  state: ca
  kind: cdp
  geo: {lat: 36.87934, lng: -119.76122}
- id: 0625296
  slug: fortuna
  name: Fortuna
  state: ca
  kind: city
  geo: {lat: 40.58708, lng: -124.14216}
- id: 0625338
  slug: foster-city
  name: Foster City
  state: ca
  kind: city
  geo: {lat: 37.56482, lng: -122.25078}
- id: 0625380
  slug: fountain-valley
  name: Fountain Valley
  state: ca
  kind: city
  geo: {lat: 33.71058, lng: -117.95113}
- id: '0625436'
  slug: fowler
  name: Fowler
  state: ca
  kind: city
  geo: {lat: 36.62446, lng: -119.67468}
- id: 0625488
  slug: franklin-5488
  name: Franklin
  state: ca
  kind: cdp
  geo: {lat: 37.32753, lng: -120.53209}
- id: '0625506'
  slug: franklin-5506
  name: Franklin
  state: ca
  kind: cdp
  geo: {lat: 38.36752, lng: -121.46163}
- id: '0625534'
  slug: frazier-park
  name: Frazier Park
  state: ca
  kind: cdp
  geo: {lat: 34.81419, lng: -118.95496}
- id: '0625576'
  slug: freedom
  name: Freedom
  state: ca
  kind: cdp
  geo: {lat: 36.94025, lng: -121.79525}
- id: 0625590
  slug: freeport
  name: Freeport
  state: ca
  kind: cdp
  geo: {lat: 38.46294, lng: -121.50211}
- id: '0626000'
  slug: fremont
  name: Fremont
  state: ca
  kind: city
  geo: {lat: 37.49446, lng: -121.94115}
- id: 0626028
  slug: french-camp
  name: French Camp
  state: ca
  kind: cdp
  geo: {lat: 37.86602, lng: -121.27415}
- id: '0626056'
  slug: french-gulch
  name: French Gulch
  state: ca
  kind: cdp
  geo: {lat: 40.71879, lng: -122.62936}
- id: '0626067'
  slug: french-valley
  name: French Valley
  state: ca
  kind: cdp
  geo: {lat: 33.59946, lng: -117.10649}
- id: '0627000'
  slug: fresno
  name: Fresno
  state: ca
  kind: city
  geo: {lat: 36.78268, lng: -119.79336}
- id: '0627014'
  slug: friant
  name: Friant
  state: ca
  kind: cdp
  geo: {lat: 36.98401, lng: -119.70806}
- id: 0627080
  slug: fruitdale
  name: Fruitdale
  state: ca
  kind: cdp
  geo: {lat: 37.31171, lng: -121.93577}
- id: '0627130'
  slug: fruitridge-pocket
  name: Fruitridge Pocket
  state: ca
  kind: cdp
  geo: {lat: 38.53261, lng: -121.45581}
- id: 0627190
  slug: fuller-acres
  name: Fuller Acres
  state: ca
  kind: cdp
  geo: {lat: 35.30225, lng: -118.91429}
- id: 0628000
  slug: fullerton
  name: Fullerton
  state: ca
  kind: city
  geo: {lat: 33.88572, lng: -117.92803}
- id: 0628014
  slug: fulton
  name: Fulton
  state: ca
  kind: cdp
  geo: {lat: 38.49371, lng: -122.77342}
- id: 0628021
  slug: furnace-creek
  name: Furnace Creek
  state: ca
  kind: cdp
  geo: {lat: 36.42767, lng: -116.87469}
- id: 0628112
  slug: galt
  name: Galt
  state: ca
  kind: city
  geo: {lat: 38.26846, lng: -121.29895}
- id: 0628154
  slug: garberville
  name: Garberville
  state: ca
  kind: cdp
  geo: {lat: 40.10031, lng: -123.79431}
- id: 0628182
  slug: garden-acres
  name: Garden Acres
  state: ca
  kind: cdp
  geo: {lat: 37.9637, lng: -121.22961}
- id: 0628210
  slug: garden-farms
  name: Garden Farms
  state: ca
  kind: cdp
  geo: {lat: 35.41578, lng: -120.61403}
- id: 0629000
  slug: garden-grove
  name: Garden Grove
  state: ca
  kind: city
  geo: {lat: 33.77878, lng: -117.96047}
- id: 0628168
  slug: gardena
  name: Gardena
  state: ca
  kind: city
  geo: {lat: 33.89442, lng: -118.30752}
- id: 0629070
  slug: garey
  name: Garey
  state: ca
  kind: cdp
  geo: {lat: 34.88582, lng: -120.31375}
- id: 0629112
  slug: garnet
  name: Garnet
  state: ca
  kind: cdp
  geo: {lat: 33.91789, lng: -116.47961}
- id: 0629154
  slug: gasquet
  name: Gasquet
  state: ca
  kind: cdp
  geo: {lat: 41.83608, lng: -123.97603}
- id: 0629252
  slug: gazelle
  name: Gazelle
  state: ca
  kind: cdp
  geo: {lat: 41.51187, lng: -122.52195}
- id: 0629350
  slug: georgetown
  name: Georgetown
  state: ca
  kind: cdp
  geo: {lat: 38.91135, lng: -120.83462}
- id: 0629392
  slug: gerber
  name: Gerber
  state: ca
  kind: cdp
  geo: {lat: 40.06142, lng: -122.1482}
- id: 0629420
  slug: geyserville
  name: Geyserville
  state: ca
  kind: cdp
  geo: {lat: 38.71731, lng: -122.90342}
- id: 0629504
  slug: gilroy
  name: Gilroy
  state: ca
  kind: city
  geo: {lat: 37.00641, lng: -121.58532}
- id: 0630028
  slug: glen-ellen
  name: Glen Ellen
  state: ca
  kind: cdp
  geo: {lat: 38.35532, lng: -122.54331}
- id: 0629714
  slug: glencoe
  name: Glencoe
  state: ca
  kind: cdp
  geo: {lat: 38.35304, lng: -120.57329}
- id: '0630000'
  slug: glendale
  name: Glendale
  state: ca
  kind: city
  geo: {lat: 34.18139, lng: -118.24583}
- id: '0630014'
  slug: glendora
  name: Glendora
  state: ca
  kind: city
  geo: {lat: 34.14496, lng: -117.8478}
- id: '0630126'
  slug: glennville
  name: Glennville
  state: ca
  kind: cdp
  geo: {lat: 35.72419, lng: -118.71522}
- id: 0630339
  slug: gold-mountain
  name: Gold Mountain
  state: ca
  kind: cdp
  geo: {lat: 39.76132, lng: -120.51905}
- id: '0630345'
  slug: gold-river
  name: Gold River
  state: ca
  kind: cdp
  geo: {lat: 38.62685, lng: -121.24916}
- id: 0630282
  slug: golden-hills
  name: Golden Hills
  state: ca
  kind: cdp
  geo: {lat: 35.13642, lng: -118.49759}
- id: 0630378
  slug: goleta
  name: Goleta
  state: ca
  kind: city
  geo: {lat: 34.43544, lng: -119.85895}
- id: 0630392
  slug: gonzales
  name: Gonzales
  state: ca
  kind: city
  geo: {lat: 36.50524, lng: -121.44202}
- id: '0630410'
  slug: good-hope
  name: Good Hope
  state: ca
  kind: cdp
  geo: {lat: 33.77063, lng: -117.2772}
- id: '0630412'
  slug: goodmanville
  name: Goodmanville
  state: ca
  kind: cdp
  geo: {lat: 35.42899, lng: -118.94372}
- id: '0630420'
  slug: goodyears-bar
  name: Goodyears Bar
  state: ca
  kind: cdp
  geo: {lat: 39.55235, lng: -120.8931}
- id: '0630476'
  slug: goshen
  name: Goshen
  state: ca
  kind: cdp
  geo: {lat: 36.34927, lng: -119.42062}
- id: '0630560'
  slug: graeagle
  name: Graeagle
  state: ca
  kind: cdp
  geo: {lat: 39.75248, lng: -120.64545}
- id: 0630658
  slug: grand-terrace
  name: Grand Terrace
  state: ca
  kind: city
  geo: {lat: 34.03116, lng: -117.31319}
- id: 0630686
  slug: grangeville
  name: Grangeville
  state: ca
  kind: cdp
  geo: {lat: 36.3439, lng: -119.70747}
- id: 0630693
  slug: granite-bay
  name: Granite Bay
  state: ca
  kind: cdp
  geo: {lat: 38.76044, lng: -121.1682}
- id: '0630703'
  slug: granite-hills
  name: Granite Hills
  state: ca
  kind: cdp
  geo: {lat: 32.80328, lng: -116.90561}
- id: '0630714'
  slug: graniteville
  name: Graniteville
  state: ca
  kind: cdp
  geo: {lat: 39.44437, lng: -120.73603}
- id: 0630798
  slug: grass-valley
  name: Grass Valley
  state: ca
  kind: city
  geo: {lat: 39.22031, lng: -121.05265}
- id: 0630812
  slug: graton
  name: Graton
  state: ca
  kind: cdp
  geo: {lat: 38.43752, lng: -122.86599}
- id: 0630882
  slug: grayson
  name: Grayson
  state: ca
  kind: cdp
  geo: {lat: 37.56458, lng: -121.18005}
- id: 0630900
  slug: greeley-hill
  name: Greeley Hill
  state: ca
  kind: cdp
  geo: {lat: 37.75704, lng: -120.13076}
- id: 0630944
  slug: green-acres
  name: Green Acres
  state: ca
  kind: cdp
  geo: {lat: 33.73497, lng: -117.07824}
- id: 0631092
  slug: green-valley-1092
  name: Green Valley
  state: ca
  kind: cdp
  geo: {lat: 34.61742, lng: -118.40502}
- id: 0631099
  slug: green-valley-1099
  name: Green Valley
  state: ca
  kind: cdp
  geo: {lat: 38.26384, lng: -122.1625}
- id: 0630938
  slug: greenacres
  name: Greenacres
  state: ca
  kind: cdp
  geo: {lat: 35.38316, lng: -119.11838}
- id: 0630987
  slug: greenfield-0987
  name: Greenfield
  state: ca
  kind: cdp
  geo: {lat: 35.26949, lng: -119.00949}
- id: 0630994
  slug: greenfield-0994
  name: Greenfield
  state: ca
  kind: city
  geo: {lat: 36.32398, lng: -121.2437}
- id: 0631029
  slug: greenhorn
  name: Greenhorn
  state: ca
  kind: cdp
  geo: {lat: 39.90297, lng: -120.75898}
- id: '0631134'
  slug: greenview
  name: Greenview
  state: ca
  kind: cdp
  geo: {lat: 41.54492, lng: -122.92096}
- id: '0631162'
  slug: greenville
  name: Greenville
  state: ca
  kind: cdp
  geo: {lat: 40.1336, lng: -120.94533}
- id: '0631246'
  slug: grenada
  name: Grenada
  state: ca
  kind: cdp
  geo: {lat: 41.6401, lng: -122.52663}
- id: '0631260'
  slug: gridley
  name: Gridley
  state: ca
  kind: city
  geo: {lat: 39.36288, lng: -121.69754}
- id: 0631288
  slug: grimes
  name: Grimes
  state: ca
  kind: cdp
  geo: {lat: 39.07415, lng: -121.89878}
- id: '0631302'
  slug: grizzly-flats
  name: Grizzly Flats
  state: ca
  kind: cdp
  geo: {lat: 38.6357, lng: -120.53544}
- id: '0631372'
  slug: groveland
  name: Groveland
  state: ca
  kind: cdp
  geo: {lat: 37.83197, lng: -120.24158}
- id: 0631393
  slug: grover-beach
  name: Grover Beach
  state: ca
  kind: city
  geo: {lat: 35.12089, lng: -120.61966}
- id: '0631414'
  slug: guadalupe
  name: Guadalupe
  state: ca
  kind: city
  geo: {lat: 34.96493, lng: -120.57313}
- id: '0631470'
  slug: guerneville
  name: Guerneville
  state: ca
  kind: cdp
  geo: {lat: 38.51716, lng: -122.9899}
- id: '0631540'
  slug: guinda
  name: Guinda
  state: ca
  kind: cdp
  geo: {lat: 38.82737, lng: -122.19836}
- id: 0631568
  slug: gustine
  name: Gustine
  state: ca
  kind: city
  geo: {lat: 37.25255, lng: -120.99551}
- id: 0631596
  slug: hacienda-heights
  name: Hacienda Heights
  state: ca
  kind: cdp
  geo: {lat: 33.99585, lng: -117.97302}
- id: 0631708
  slug: half-moon-bay
  name: Half Moon Bay
  state: ca
  kind: city
  geo: {lat: 37.46732, lng: -122.44048}
- id: 0631883
  slug: hamilton-branch
  name: Hamilton Branch
  state: ca
  kind: cdp
  geo: {lat: 40.27725, lng: -121.09609}
- id: 0631890
  slug: hamilton-city
  name: Hamilton City
  state: ca
  kind: cdp
  geo: {lat: 39.74268, lng: -122.01095}
- id: 0631960
  slug: hanford
  name: Hanford
  state: ca
  kind: city
  geo: {lat: 36.32814, lng: -119.65477}
- id: '0632030'
  slug: happy-camp
  name: Happy Camp
  state: ca
  kind: cdp
  geo: {lat: 41.81589, lng: -123.3928}
- id: '0632036'
  slug: happy-valley
  name: Happy Valley
  state: ca
  kind: cdp
  geo: {lat: 40.46614, lng: -122.41797}
- id: '0632044'
  slug: harbison-canyon
  name: Harbison Canyon
  state: ca
  kind: cdp
  geo: {lat: 32.82727, lng: -116.83807}
- id: '0632156'
  slug: hardwick
  name: Hardwick
  state: ca
  kind: cdp
  geo: {lat: 36.4026, lng: -119.72077}
- id: '0632212'
  slug: harmony-grove
  name: Harmony Grove
  state: ca
  kind: cdp
  geo: {lat: 33.10072, lng: -117.13799}
- id: '0632324'
  slug: hartland
  name: Hartland
  state: ca
  kind: cdp
  geo: {lat: 36.65387, lng: -118.95881}
- id: '0632340'
  slug: hartley
  name: Hartley
  state: ca
  kind: cdp
  geo: {lat: 38.42039, lng: -121.95084}
- id: 0632385
  slug: hasley-canyon
  name: Hasley Canyon
  state: ca
  kind: cdp
  geo: {lat: 34.4816, lng: -118.66669}
- id: 0632408
  slug: hat-creek
  name: Hat Creek
  state: ca
  kind: cdp
  geo: {lat: 40.78981, lng: -121.47451}
- id: '0632436'
  slug: hathaway-pines
  name: Hathaway Pines
  state: ca
  kind: cdp
  geo: {lat: 38.19006, lng: -120.3615}
- id: '0632506'
  slug: hawaiian-gardens
  name: Hawaiian Gardens
  state: ca
  kind: city
  geo: {lat: 33.83048, lng: -118.07345}
- id: 0632548
  slug: hawthorne
  name: Hawthorne
  state: ca
  kind: city
  geo: {lat: 33.91477, lng: -118.34808}
- id: '0632562'
  slug: hayfork
  name: Hayfork
  state: ca
  kind: cdp
  geo: {lat: 40.57587, lng: -123.12363}
- id: '0633000'
  slug: hayward
  name: Hayward
  state: ca
  kind: city
  geo: {lat: 37.62683, lng: -122.10402}
- id: '0633056'
  slug: healdsburg
  name: Healdsburg
  state: ca
  kind: city
  geo: {lat: 38.62253, lng: -122.86513}
- id: 0633084
  slug: heber
  name: Heber
  state: ca
  kind: cdp
  geo: {lat: 32.73249, lng: -115.5294}
- id: 0633182
  slug: hemet
  name: Hemet
  state: ca
  kind: city
  geo: {lat: 33.73407, lng: -116.99681}
- id: 0633294
  slug: herald
  name: Herald
  state: ca
  kind: cdp
  geo: {lat: 38.2884, lng: -121.23107}
- id: 0633308
  slug: hercules
  name: Hercules
  state: ca
  kind: city
  geo: {lat: 38.02143, lng: -122.28893}
- id: '0633336'
  slug: herlong
  name: Herlong
  state: ca
  kind: cdp
  geo: {lat: 40.14172, lng: -120.13966}
- id: '0633364'
  slug: hermosa-beach
  name: Hermosa Beach
  state: ca
  kind: city
  geo: {lat: 33.86982, lng: -118.4053}
- id: '0633434'
  slug: hesperia
  name: Hesperia
  state: ca
  kind: city
  geo: {lat: 34.39704, lng: -117.3152}
- id: '0633504'
  slug: hickman
  name: Hickman
  state: ca
  kind: cdp
  geo: {lat: 37.61932, lng: -120.75122}
- id: 0633518
  slug: hidden-hills
  name: Hidden Hills
  state: ca
  kind: city
  geo: {lat: 34.16374, lng: -118.66121}
- id: '0633532'
  slug: hidden-meadows
  name: Hidden Meadows
  state: ca
  kind: cdp
  geo: {lat: 33.22363, lng: -117.11983}
- id: 0633549
  slug: hidden-valley-lake
  name: Hidden Valley Lake
  state: ca
  kind: cdp
  geo: {lat: 38.8015, lng: -122.55142}
- id: '0633574'
  slug: highgrove
  name: Highgrove
  state: ca
  kind: cdp
  geo: {lat: 34.01058, lng: -117.30982}
- id: 0633588
  slug: highland
  name: Highland
  state: ca
  kind: city
  geo: {lat: 34.11347, lng: -117.16573}
- id: '0633632'
  slug: highlands
  name: Highlands
  state: ca
  kind: cdp
  geo: {lat: 37.52002, lng: -122.3459}
- id: 0633689
  slug: hillcrest
  name: Hillcrest
  state: ca
  kind: cdp
  geo: {lat: 35.37897, lng: -118.95785}
- id: 0633798
  slug: hillsborough
  name: Hillsborough
  state: ca
  kind: town
  geo: {lat: 37.55721, lng: -122.35854}
- id: 0633861
  slug: hilmar-irwin
  name: Hilmar-Irwin
  state: ca
  kind: cdp
  geo: {lat: 37.40454, lng: -120.85043}
- id: 0633935
  slug: hiouchi
  name: Hiouchi
  state: ca
  kind: cdp
  geo: {lat: 41.79366, lng: -124.06611}
- id: '0634120'
  slug: hollister
  name: Hollister
  state: ca
  kind: city
  geo: {lat: 36.85562, lng: -121.39954}
- id: '0634246'
  slug: holtville
  name: Holtville
  state: ca
  kind: city
  geo: {lat: 32.81378, lng: -115.37832}
- id: 0634281
  slug: home-garden
  name: Home Garden
  state: ca
  kind: cdp
  geo: {lat: 36.30283, lng: -119.63707}
- id: '0634302'
  slug: home-gardens
  name: Home Gardens
  state: ca
  kind: cdp
  geo: {lat: 33.87833, lng: -117.51153}
- id: '0634316'
  slug: homeland
  name: Homeland
  state: ca
  kind: cdp
  geo: {lat: 33.74588, lng: -117.11324}
- id: 0634392
  slug: homestead-valley
  name: Homestead Valley
  state: ca
  kind: cdp
  geo: {lat: 34.273, lng: -116.41455}
- id: '0634405'
  slug: homewood-canyon
  name: Homewood Canyon
  state: ca
  kind: cdp
  geo: {lat: 35.89004, lng: -117.38641}
- id: 0634428
  slug: honcut
  name: Honcut
  state: ca
  kind: cdp
  geo: {lat: 39.33259, lng: -121.53876}
- id: 0634484
  slug: hood
  name: Hood
  state: ca
  kind: cdp
  geo: {lat: 38.36929, lng: -121.51549}
- id: '0634540'
  slug: hoopa
  name: Hoopa
  state: ca
  kind: cdp
  geo: {lat: 41.07964, lng: -123.69766}
- id: '0634652'
  slug: hopland
  name: Hopland
  state: ca
  kind: cdp
  geo: {lat: 38.96883, lng: -123.1169}
- id: 0634694
  slug: hornbrook
  name: Hornbrook
  state: ca
  kind: cdp
  geo: {lat: 41.90451, lng: -122.55832}
- id: 0634708
  slug: hornitos
  name: Hornitos
  state: ca
  kind: cdp
  geo: {lat: 37.50252, lng: -120.23886}
- id: 0634904
  slug: hughson
  name: Hughson
  state: ca
  kind: city
  geo: {lat: 37.60213, lng: -120.866}
- id: 0634928
  slug: humboldt-hill
  name: Humboldt Hill
  state: ca
  kind: cdp
  geo: {lat: 40.72232, lng: -124.19738}
- id: '0636000'
  slug: huntington-beach
  name: Huntington Beach
  state: ca
  kind: city
  geo: {lat: 33.69801, lng: -118.00383}
- id: '0636056'
  slug: huntington-park
  name: Huntington Park
  state: ca
  kind: city
  geo: {lat: 33.97925, lng: -118.21744}
- id: 0636084
  slug: huron
  name: Huron
  state: ca
  kind: city
  geo: {lat: 36.20438, lng: -120.09512}
- id: 0636098
  slug: hyampom
  name: Hyampom
  state: ca
  kind: cdp
  geo: {lat: 40.62618, lng: -123.46883}
- id: '0636126'
  slug: hydesville
  name: Hydesville
  state: ca
  kind: cdp
  geo: {lat: 40.55788, lng: -124.08225}
- id: '0636135'
  slug: hypericum
  name: Hypericum
  state: ca
  kind: cdp
  geo: {lat: 36.25617, lng: -119.21693}
- id: 0636168
  slug: idlewild
  name: Idlewild
  state: ca
  kind: cdp
  geo: {lat: 35.80959, lng: -118.67046}
- id: '0636203'
  slug: idyllwild-pine-cove
  name: Idyllwild-Pine Cove
  state: ca
  kind: cdp
  geo: {lat: 33.74421, lng: -116.73069}
- id: '0636252'
  slug: igo
  name: Igo
  state: ca
  kind: cdp
  geo: {lat: 40.49774, lng: -122.54962}
- id: 0636280
  slug: imperial
  name: Imperial
  state: ca
  kind: city
  geo: {lat: 32.8388, lng: -115.57201}
- id: 0636294
  slug: imperial-beach
  name: Imperial Beach
  state: ca
  kind: city
  geo: {lat: 32.56535, lng: -117.11457}
- id: '0636350'
  slug: independence
  name: Independence
  state: ca
  kind: cdp
  geo: {lat: 36.83031, lng: -118.20785}
- id: '0636364'
  slug: indian-falls
  name: Indian Falls
  state: ca
  kind: cdp
  geo: {lat: 40.05875, lng: -120.98031}
- id: '0636434'
  slug: indian-wells
  name: Indian Wells
  state: ca
  kind: city
  geo: {lat: 33.69989, lng: -116.32955}
- id: '0636420'
  slug: indianola
  name: Indianola
  state: ca
  kind: cdp
  geo: {lat: 40.80996, lng: -124.07845}
- id: 0636448
  slug: indio
  name: Indio
  state: ca
  kind: city
  geo: {lat: 33.73164, lng: -116.23597}
- id: '0636452'
  slug: indio-hills
  name: Indio Hills
  state: ca
  kind: cdp
  geo: {lat: 33.84106, lng: -116.24847}
- id: 0636490
  slug: industry
  name: Industry
  state: ca
  kind: city
  geo: {lat: 34.02623, lng: -117.94033}
- id: '0636546'
  slug: inglewood
  name: Inglewood
  state: ca
  kind: city
  geo: {lat: 33.95607, lng: -118.34427}
- id: '0636613'
  slug: interlaken
  name: Interlaken
  state: ca
  kind: cdp
  geo: {lat: 36.9506, lng: -121.73752}
- id: '0636616'
  slug: inverness
  name: Inverness
  state: ca
  kind: cdp
  geo: {lat: 38.0828, lng: -122.85494}
- id: 0636658
  slug: inyokern
  name: Inyokern
  state: ca
  kind: cdp
  geo: {lat: 35.65439, lng: -117.81948}
- id: '0636672'
  slug: ione
  name: Ione
  state: ca
  kind: city
  geo: {lat: 38.36286, lng: -120.94769}
- id: '0636735'
  slug: iron-horse
  name: Iron Horse
  state: ca
  kind: cdp
  geo: {lat: 39.78048, lng: -120.48229}
- id: '0636770'
  slug: irvine
  name: Irvine
  state: ca
  kind: city
  geo: {lat: 33.6784, lng: -117.77125}
- id: 0636826
  slug: irwindale
  name: Irwindale
  state: ca
  kind: city
  geo: {lat: 34.11185, lng: -117.96361}
- id: 0636868
  slug: isla-vista
  name: Isla Vista
  state: ca
  kind: cdp
  geo: {lat: 34.41218, lng: -119.86066}
- id: 0636882
  slug: isleton
  name: Isleton
  state: ca
  kind: city
  geo: {lat: 38.16125, lng: -121.60496}
- id: 0636910
  slug: ivanhoe
  name: Ivanhoe
  state: ca
  kind: cdp
  geo: {lat: 36.38344, lng: -119.22009}
- id: 0636980
  slug: jackson
  name: Jackson
  state: ca
  kind: city
  geo: {lat: 38.34849, lng: -120.77282}
- id: '0637022'
  slug: jacumba
  name: Jacumba
  state: ca
  kind: cdp
  geo: {lat: 32.63648, lng: -116.19071}
- id: '0637106'
  slug: jamestown
  name: Jamestown
  state: ca
  kind: cdp
  geo: {lat: 37.95821, lng: -120.40706}
- id: '0637120'
  slug: jamul
  name: Jamul
  state: ca
  kind: cdp
  geo: {lat: 32.71841, lng: -116.87086}
- id: '0637134'
  slug: janesville
  name: Janesville
  state: ca
  kind: cdp
  geo: {lat: 40.3011, lng: -120.49032}
- id: '0637274'
  slug: jenner
  name: Jenner
  state: ca
  kind: cdp
  geo: {lat: 38.45903, lng: -123.12747}
- id: '0637400'
  slug: johannesburg
  name: Johannesburg
  state: ca
  kind: cdp
  geo: {lat: 35.37188, lng: -117.6418}
- id: '0637442'
  slug: johnson-park
  name: Johnson Park
  state: ca
  kind: cdp
  geo: {lat: 40.92118, lng: -121.62953}
- id: 0637484
  slug: johnstonville
  name: Johnstonville
  state: ca
  kind: cdp
  geo: {lat: 40.3802, lng: -120.58613}
- id: '0637512'
  slug: johnsville
  name: Johnsville
  state: ca
  kind: cdp
  geo: {lat: 39.76971, lng: -120.69978}
- id: '0637533'
  slug: jones-valley
  name: Jones Valley
  state: ca
  kind: cdp
  geo: {lat: 40.70132, lng: -122.242}
- id: '0637554'
  slug: joshua-tree
  name: Joshua Tree
  state: ca
  kind: cdp
  geo: {lat: 34.12363, lng: -116.31286}
- id: 0637568
  slug: jovista
  name: Jovista
  state: ca
  kind: cdp
  geo: {lat: 35.79401, lng: -119.18957}
- id: 0637582
  slug: julian
  name: Julian
  state: ca
  kind: cdp
  geo: {lat: 33.0735, lng: -116.58888}
- id: 0637596
  slug: junction-city
  name: Junction City
  state: ca
  kind: cdp
  geo: {lat: 40.73602, lng: -123.08464}
- id: '0637624'
  slug: june-lake
  name: June Lake
  state: ca
  kind: cdp
  geo: {lat: 37.76178, lng: -119.11473}
- id: 0637692
  slug: jurupa-valley
  name: Jurupa Valley
  state: ca
  kind: city
  geo: {lat: 34.00259, lng: -117.46761}
- id: 0637904
  slug: keddie
  name: Keddie
  state: ca
  kind: cdp
  geo: {lat: 40.00594, lng: -120.95242}
- id: 0637918
  slug: keeler
  name: Keeler
  state: ca
  kind: cdp
  geo: {lat: 36.48672, lng: -117.87333}
- id: 0637946
  slug: keene
  name: Keene
  state: ca
  kind: cdp
  geo: {lat: 35.23178, lng: -118.61307}
- id: 0638024
  slug: kelly-ridge
  name: Kelly Ridge
  state: ca
  kind: cdp
  geo: {lat: 39.5288, lng: -121.46626}
- id: 0638044
  slug: kelseyville
  name: Kelseyville
  state: ca
  kind: cdp
  geo: {lat: 38.97018, lng: -122.83138}
- id: 0638065
  slug: kennedy
  name: Kennedy
  state: ca
  kind: cdp
  geo: {lat: 37.92904, lng: -121.24578}
- id: 0638076
  slug: kennedy-meadows
  name: Kennedy Meadows
  state: ca
  kind: cdp
  geo: {lat: 36.00764, lng: -118.10995}
- id: 0638086
  slug: kensington
  name: Kensington
  state: ca
  kind: cdp
  geo: {lat: 37.90514, lng: -122.28423}
- id: 0638114
  slug: kentfield
  name: Kentfield
  state: ca
  kind: cdp
  geo: {lat: 37.93587, lng: -122.559}
- id: 0638156
  slug: kenwood
  name: Kenwood
  state: ca
  kind: cdp
  geo: {lat: 38.41541, lng: -122.53875}
- id: 0638177
  slug: kep-el
  name: Kep'el
  state: ca
  kind: cdp
  geo: {lat: 41.28414, lng: -123.81901}
- id: 0638226
  slug: kerman
  name: Kerman
  state: ca
  kind: city
  geo: {lat: 36.72491, lng: -120.06258}
- id: 0638310
  slug: kernville
  name: Kernville
  state: ca
  kind: cdp
  geo: {lat: 35.75502, lng: -118.43091}
- id: 0638352
  slug: keswick
  name: Keswick
  state: ca
  kind: cdp
  geo: {lat: 40.61376, lng: -122.46873}
- id: 0638394
  slug: kettleman-city
  name: Kettleman City
  state: ca
  kind: cdp
  geo: {lat: 36.00899, lng: -119.96285}
- id: 0638422
  slug: keyes
  name: Keyes
  state: ca
  kind: cdp
  geo: {lat: 37.55731, lng: -120.91138}
- id: 0638520
  slug: king-city
  name: King City
  state: ca
  kind: city
  geo: {lat: 36.21628, lng: -121.13196}
- id: 0638548
  slug: kings-beach
  name: Kings Beach
  state: ca
  kind: cdp
  geo: {lat: 39.24753, lng: -120.0199}
- id: 0638562
  slug: kingsburg
  name: Kingsburg
  state: ca
  kind: city
  geo: {lat: 36.52519, lng: -119.5664}
- id: 0638604
  slug: kingvale
  name: Kingvale
  state: ca
  kind: cdp
  geo: {lat: 39.321, lng: -120.43831}
- id: 0638646
  slug: kirkwood
  name: Kirkwood
  state: ca
  kind: cdp
  geo: {lat: 38.68926, lng: -120.05498}
- id: 0638702
  slug: klamath
  name: Klamath
  state: ca
  kind: cdp
  geo: {lat: 41.57286, lng: -124.05561}
- id: 0638786
  slug: knights-ferry
  name: Knights Ferry
  state: ca
  kind: cdp
  geo: {lat: 37.82115, lng: -120.66909}
- id: 0638800
  slug: knights-landing
  name: Knights Landing
  state: ca
  kind: cdp
  geo: {lat: 38.79797, lng: -121.71745}
- id: 0638772
  slug: knightsen
  name: Knightsen
  state: ca
  kind: cdp
  geo: {lat: 37.96243, lng: -121.64858}
- id: 0639003
  slug: la-canada-flintridge
  name: La Cañada Flintridge
  state: ca
  kind: city
  geo: {lat: 34.20969, lng: -118.20014}
- id: 0639045
  slug: la-crescenta-montrose
  name: La Crescenta-Montrose
  state: ca
  kind: cdp
  geo: {lat: 34.23302, lng: -118.23577}
- id: 0639052
  slug: la-cresta
  name: La Cresta
  state: ca
  kind: cdp
  geo: {lat: 35.39721, lng: -118.9893}
- id: 0639164
  slug: la-grange
  name: La Grange
  state: ca
  kind: cdp
  geo: {lat: 37.66346, lng: -120.46315}
- id: 0639290
  slug: la-habra
  name: La Habra
  state: ca
  kind: city
  geo: {lat: 33.92793, lng: -117.95155}
- id: 0639304
  slug: la-habra-heights
  name: La Habra Heights
  state: ca
  kind: city
  geo: {lat: 33.95896, lng: -117.94897}
- id: 0639318
  slug: la-honda
  name: La Honda
  state: ca
  kind: cdp
  geo: {lat: 37.3177, lng: -122.25843}
- id: '0640004'
  slug: la-mesa
  name: La Mesa
  state: ca
  kind: city
  geo: {lat: 32.76949, lng: -117.02192}
- id: '0640032'
  slug: la-mirada
  name: La Mirada
  state: ca
  kind: city
  geo: {lat: 33.90205, lng: -118.00896}
- id: '0640256'
  slug: la-palma
  name: La Palma
  state: ca
  kind: city
  geo: {lat: 33.85062, lng: -118.03956}
- id: '0640312'
  slug: la-porte
  name: La Porte
  state: ca
  kind: cdp
  geo: {lat: 39.67251, lng: -120.98524}
- id: '0640326'
  slug: la-presa
  name: La Presa
  state: ca
  kind: cdp
  geo: {lat: 32.71231, lng: -117.00371}
- id: '0640340'
  slug: la-puente
  name: La Puente
  state: ca
  kind: city
  geo: {lat: 34.03233, lng: -117.95352}
- id: '0640354'
  slug: la-quinta
  name: La Quinta
  state: ca
  kind: city
  geo: {lat: 33.64177, lng: -116.27394}
- id: '0640410'
  slug: la-riviera
  name: La Riviera
  state: ca
  kind: cdp
  geo: {lat: 38.56854, lng: -121.35496}
- id: 0640508
  slug: la-selva-beach
  name: La Selva Beach
  state: ca
  kind: cdp
  geo: {lat: 36.92737, lng: -121.8444}
- id: 0640830
  slug: la-verne
  name: La Verne
  state: ca
  kind: city
  geo: {lat: 34.12052, lng: -117.76993}
- id: 0640872
  slug: la-vina
  name: La Vina
  state: ca
  kind: cdp
  geo: {lat: 36.87987, lng: -120.1148}
- id: 0639094
  slug: ladera
  name: Ladera
  state: ca
  kind: cdp
  geo: {lat: 37.39988, lng: -122.19897}
- id: 0639108
  slug: ladera-heights
  name: Ladera Heights
  state: ca
  kind: cdp
  geo: {lat: 33.99678, lng: -118.37003}
- id: 0639114
  slug: ladera-ranch
  name: Ladera Ranch
  state: ca
  kind: cdp
  geo: {lat: 33.54915, lng: -117.64174}
- id: 0639122
  slug: lafayette
  name: Lafayette
  state: ca
  kind: city
  geo: {lat: 37.891, lng: -122.11953}
- id: 0639178
  slug: laguna-beach
  name: Laguna Beach
  state: ca
  kind: city
  geo: {lat: 33.54337, lng: -117.7618}
- id: 0639220
  slug: laguna-hills
  name: Laguna Hills
  state: ca
  kind: city
  geo: {lat: 33.59122, lng: -117.69762}
- id: 0639248
  slug: laguna-niguel
  name: Laguna Niguel
  state: ca
  kind: city
  geo: {lat: 33.52865, lng: -117.70125}
- id: 0639259
  slug: laguna-woods
  name: Laguna Woods
  state: ca
  kind: city
  geo: {lat: 33.61206, lng: -117.73032}
- id: 0639283
  slug: lagunitas-forest-knolls
  name: Lagunitas-Forest Knolls
  state: ca
  kind: cdp
  geo: {lat: 38.01803, lng: -122.6913}
- id: 0639411
  slug: lake-almanor-country-club
  name: Lake Almanor Country Club
  state: ca
  kind: cdp
  geo: {lat: 40.25777, lng: -121.14696}
- id: 0639420
  slug: lake-almanor-peninsula
  name: Lake Almanor Peninsula
  state: ca
  kind: cdp
  geo: {lat: 40.28121, lng: -121.13445}
- id: 0639425
  slug: lake-almanor-west
  name: Lake Almanor West
  state: ca
  kind: cdp
  geo: {lat: 40.23357, lng: -121.20207}
- id: 0639444
  slug: lake-arrowhead
  name: Lake Arrowhead
  state: ca
  kind: cdp
  geo: {lat: 34.25403, lng: -117.17809}
- id: 0639460
  slug: lake-california
  name: Lake California
  state: ca
  kind: cdp
  geo: {lat: 40.35836, lng: -122.20884}
- id: 0639472
  slug: lake-city
  name: Lake City
  state: ca
  kind: cdp
  geo: {lat: 41.64532, lng: -120.2221}
- id: 0639483
  slug: lake-davis
  name: Lake Davis
  state: ca
  kind: cdp
  geo: {lat: 39.85243, lng: -120.45841}
- id: 0639484
  slug: lake-don-pedro
  name: Lake Don Pedro
  state: ca
  kind: cdp
  geo: {lat: 37.64142, lng: -120.36436}
- id: 0639486
  slug: lake-elsinore
  name: Lake Elsinore
  state: ca
  kind: city
  geo: {lat: 33.68596, lng: -117.3354}
- id: 0639496
  slug: lake-forest
  name: Lake Forest
  state: ca
  kind: city
  geo: {lat: 33.65495, lng: -117.67585}
- id: 0639556
  slug: lake-hughes
  name: Lake Hughes
  state: ca
  kind: cdp
  geo: {lat: 34.68241, lng: -118.45194}
- id: 0639570
  slug: lake-isabella
  name: Lake Isabella
  state: ca
  kind: cdp
  geo: {lat: 35.6371, lng: -118.48261}
- id: 0639612
  slug: lake-los-angeles
  name: Lake Los Angeles
  state: ca
  kind: cdp
  geo: {lat: 34.60984, lng: -117.83034}
- id: 0639645
  slug: lake-mathews
  name: Lake Mathews
  state: ca
  kind: cdp
  geo: {lat: 33.82497, lng: -117.36834}
- id: 0639670
  slug: lake-nacimiento
  name: Lake Nacimiento
  state: ca
  kind: cdp
  geo: {lat: 35.73096, lng: -120.86952}
- id: 0639690
  slug: lake-of-the-pines
  name: Lake of the Pines
  state: ca
  kind: cdp
  geo: {lat: 39.03875, lng: -121.06134}
- id: 0639696
  slug: lake-of-the-woods
  name: Lake of the Woods
  state: ca
  kind: cdp
  geo: {lat: 34.82714, lng: -118.9973}
- id: 0639715
  slug: lake-riverside
  name: Lake Riverside
  state: ca
  kind: cdp
  geo: {lat: 33.51873, lng: -116.8121}
- id: 0639724
  slug: lake-san-marcos
  name: Lake San Marcos
  state: ca
  kind: cdp
  geo: {lat: 33.12236, lng: -117.20858}
- id: 0639728
  slug: lake-shastina
  name: Lake Shastina
  state: ca
  kind: cdp
  geo: {lat: 41.52313, lng: -122.37637}
- id: 0639735
  slug: lake-sherwood
  name: Lake Sherwood
  state: ca
  kind: cdp
  geo: {lat: 34.1318, lng: -118.88471}
- id: 0639885
  slug: lake-wildwood
  name: Lake Wildwood
  state: ca
  kind: cdp
  geo: {lat: 39.23324, lng: -121.19773}
- id: 0639514
  slug: lakehead
  name: Lakehead
  state: ca
  kind: cdp
  geo: {lat: 40.90344, lng: -122.39966}
- id: 0639598
  slug: lakeland-village
  name: Lakeland Village
  state: ca
  kind: cdp
  geo: {lat: 33.64896, lng: -117.36682}
- id: 0639710
  slug: lakeport
  name: Lakeport
  state: ca
  kind: city
  geo: {lat: 39.03833, lng: -122.92263}
- id: 0639759
  slug: lakeside-9759
  name: Lakeside
  state: ca
  kind: cdp
  geo: {lat: 35.23467, lng: -119.08286}
- id: 0639766
  slug: lakeside-9766
  name: Lakeside
  state: ca
  kind: cdp
  geo: {lat: 32.85662, lng: -116.90424}
- id: 0639836
  slug: lakeview
  name: Lakeview
  state: ca
  kind: cdp
  geo: {lat: 33.82847, lng: -117.12333}
- id: 0639892
  slug: lakewood
  name: Lakewood
  state: ca
  kind: city
  geo: {lat: 33.84714, lng: -118.12189}
- id: 0640088
  slug: lamont
  name: Lamont
  state: ca
  kind: cdp
  geo: {lat: 35.26514, lng: -118.91604}
- id: '0640116'
  slug: lanare
  name: Lanare
  state: ca
  kind: cdp
  geo: {lat: 36.43772, lng: -119.9322}
- id: '0640130'
  slug: lancaster
  name: Lancaster
  state: ca
  kind: city
  geo: {lat: 34.69356, lng: -118.1753}
- id: '0640426'
  slug: larkfield-wikiup
  name: Larkfield-Wikiup
  state: ca
  kind: cdp
  geo: {lat: 38.51297, lng: -122.7536}
- id: 0640438
  slug: larkspur
  name: Larkspur
  state: ca
  kind: city
  geo: {lat: 37.94054, lng: -122.53023}
- id: '0640526'
  slug: las-flores-0526
  name: Las Flores
  state: ca
  kind: cdp
  geo: {lat: 33.5838, lng: -117.62375}
- id: '0640536'
  slug: las-flores-0536
  name: Las Flores
  state: ca
  kind: cdp
  geo: {lat: 40.07214, lng: -122.15731}
- id: 0640592
  slug: las-lomas
  name: Las Lomas
  state: ca
  kind: cdp
  geo: {lat: 36.86881, lng: -121.73161}
- id: '0640704'
  slug: lathrop
  name: Lathrop
  state: ca
  kind: city
  geo: {lat: 37.80867, lng: -121.31776}
- id: '0640746'
  slug: laton
  name: Laton
  state: ca
  kind: cdp
  geo: {lat: 36.43141, lng: -119.6976}
- id: 0640886
  slug: lawndale
  name: Lawndale
  state: ca
  kind: city
  geo: {lat: 33.88844, lng: -118.35314}
- id: 0640928
  slug: laytonville
  name: Laytonville
  state: ca
  kind: cdp
  geo: {lat: 39.66226, lng: -123.49501}
- id: '0641040'
  slug: le-grand
  name: Le Grand
  state: ca
  kind: cdp
  geo: {lat: 37.22881, lng: -120.254}
- id: 0640956
  slug: lebec
  name: Lebec
  state: ca
  kind: cdp
  geo: {lat: 34.84461, lng: -118.89924}
- id: 0640998
  slug: lee-vining
  name: Lee Vining
  state: ca
  kind: cdp
  geo: {lat: 37.9549, lng: -119.12201}
- id: '0641026'
  slug: leggett
  name: Leggett
  state: ca
  kind: cdp
  geo: {lat: 39.86354, lng: -123.72518}
- id: '0641110'
  slug: lemon-cove
  name: Lemon Cove
  state: ca
  kind: cdp
  geo: {lat: 36.38088, lng: -119.02846}
- id: '0641124'
  slug: lemon-grove
  name: Lemon Grove
  state: ca
  kind: city
  geo: {lat: 32.73307, lng: -117.03441}
- id: '0641142'
  slug: lemon-hill
  name: Lemon Hill
  state: ca
  kind: cdp
  geo: {lat: 38.51723, lng: -121.45728}
- id: '0641152'
  slug: lemoore
  name: Lemoore
  state: ca
  kind: city
  geo: {lat: 36.29528, lng: -119.79727}
- id: '0641166'
  slug: lemoore-station
  name: Lemoore Station
  state: ca
  kind: cdp
  geo: {lat: 36.26328, lng: -119.90484}
- id: 0641180
  slug: lennox
  name: Lennox
  state: ca
  kind: cdp
  geo: {lat: 33.93807, lng: -118.35854}
- id: 0641194
  slug: lenwood
  name: Lenwood
  state: ca
  kind: cdp
  geo: {lat: 34.88604, lng: -117.10778}
- id: 0641208
  slug: leona-valley
  name: Leona Valley
  state: ca
  kind: cdp
  geo: {lat: 34.60815, lng: -118.30132}
- id: 0641278
  slug: lewiston
  name: Lewiston
  state: ca
  kind: cdp
  geo: {lat: 40.69693, lng: -122.82251}
- id: 0641282
  slug: lexington-hills
  name: Lexington Hills
  state: ca
  kind: cdp
  geo: {lat: 37.15902, lng: -121.98879}
- id: 0641390
  slug: likely
  name: Likely
  state: ca
  kind: cdp
  geo: {lat: 41.22683, lng: -120.50124}
- id: '0641474'
  slug: lincoln
  name: Lincoln
  state: ca
  kind: city
  geo: {lat: 38.87446, lng: -121.29289}
- id: 0641558
  slug: lincoln-village
  name: Lincoln Village
  state: ca
  kind: cdp
  geo: {lat: 38.00547, lng: -121.33384}
- id: '0641572'
  slug: linda
  name: Linda
  state: ca
  kind: cdp
  geo: {lat: 39.12414, lng: -121.54217}
- id: '0641656'
  slug: lindcove
  name: Lindcove
  state: ca
  kind: cdp
  geo: {lat: 36.35803, lng: -119.06458}
- id: '0641670'
  slug: linden
  name: Linden
  state: ca
  kind: cdp
  geo: {lat: 38.01814, lng: -121.10156}
- id: '0641712'
  slug: lindsay
  name: Lindsay
  state: ca
  kind: city
  geo: {lat: 36.2091, lng: -119.09326}
- id: '0641740'
  slug: linnell-camp
  name: Linnell Camp
  state: ca
  kind: cdp
  geo: {lat: 36.30889, lng: -119.22258}
- id: 0641782
  slug: litchfield
  name: Litchfield
  state: ca
  kind: cdp
  geo: {lat: 40.3877, lng: -120.38071}
- id: 0641789
  slug: little-grass-valley
  name: Little Grass Valley
  state: ca
  kind: cdp
  geo: {lat: 39.72525, lng: -120.95907}
- id: 0641866
  slug: little-river
  name: Little River
  state: ca
  kind: cdp
  geo: {lat: 39.27029, lng: -123.78175}
- id: 0641908
  slug: little-valley
  name: Little Valley
  state: ca
  kind: cdp
  geo: {lat: 40.89305, lng: -121.17804}
- id: 0641880
  slug: littlerock
  name: Littlerock
  state: ca
  kind: cdp
  geo: {lat: 34.52513, lng: -117.98163}
- id: 0641922
  slug: live-oak-1922
  name: Live Oak
  state: ca
  kind: cdp
  geo: {lat: 36.98602, lng: -121.98041}
- id: 0641936
  slug: live-oak-1936
  name: Live Oak
  state: ca
  kind: city
  geo: {lat: 39.2788, lng: -121.66244}
- id: 0641992
  slug: livermore
  name: Livermore
  state: ca
  kind: city
  geo: {lat: 37.68698, lng: -121.75978}
- id: '0642006'
  slug: livingston
  name: Livingston
  state: ca
  kind: city
  geo: {lat: 37.38728, lng: -120.72494}
- id: '0642104'
  slug: lockeford
  name: Lockeford
  state: ca
  kind: cdp
  geo: {lat: 38.14913, lng: -121.15431}
- id: '0642142'
  slug: lockwood-2142
  name: Lockwood
  state: ca
  kind: cdp
  geo: {lat: 38.48669, lng: -120.60343}
- id: '0642146'
  slug: lockwood-2146
  name: Lockwood
  state: ca
  kind: cdp
  geo: {lat: 35.94008, lng: -121.07828}
- id: '0642202'
  slug: lodi
  name: Lodi
  state: ca
  kind: city
  geo: {lat: 38.12161, lng: -121.29076}
- id: '0642230'
  slug: lodoga
  name: Lodoga
  state: ca
  kind: cdp
  geo: {lat: 39.30427, lng: -122.50594}
- id: 0642328
  slug: loleta
  name: Loleta
  state: ca
  kind: cdp
  geo: {lat: 40.64088, lng: -124.22256}
- id: '0642370'
  slug: loma-linda
  name: Loma Linda
  state: ca
  kind: city
  geo: {lat: 34.04329, lng: -117.24665}
- id: 0642384
  slug: loma-mar
  name: Loma Mar
  state: ca
  kind: cdp
  geo: {lat: 37.26578, lng: -122.30069}
- id: '0642412'
  slug: loma-rica
  name: Loma Rica
  state: ca
  kind: cdp
  geo: {lat: 39.32032, lng: -121.40383}
- id: 0642468
  slug: lomita
  name: Lomita
  state: ca
  kind: city
  geo: {lat: 33.79331, lng: -118.31745}
- id: '0642510'
  slug: lompico
  name: Lompico
  state: ca
  kind: cdp
  geo: {lat: 37.11462, lng: -122.05277}
- id: '0642524'
  slug: lompoc
  name: Lompoc
  state: ca
  kind: city
  geo: {lat: 34.66269, lng: -120.47084}
- id: '0642566'
  slug: london
  name: London
  state: ca
  kind: cdp
  geo: {lat: 36.48048, lng: -119.44494}
- id: 0642580
  slug: lone-pine
  name: Lone Pine
  state: ca
  kind: cdp
  geo: {lat: 36.57445, lng: -118.08061}
- id: '0642622'
  slug: long-barn
  name: Long Barn
  state: ca
  kind: cdp
  geo: {lat: 38.09326, lng: -120.13469}
- id: '0643000'
  slug: long-beach
  name: Long Beach
  state: ca
  kind: city
  geo: {lat: 33.78079, lng: -118.16818}
- id: '0643126'
  slug: lookout
  name: Lookout
  state: ca
  kind: cdp
  geo: {lat: 41.2104, lng: -121.15296}
- id: '0643140'
  slug: loomis
  name: Loomis
  state: ca
  kind: town
  geo: {lat: 38.80936, lng: -121.19538}
- id: '0643224'
  slug: los-alamitos
  name: Los Alamitos
  state: ca
  kind: city
  geo: {lat: 33.79691, lng: -118.06123}
- id: '0643252'
  slug: los-alamos
  name: Los Alamos
  state: ca
  kind: cdp
  geo: {lat: 34.7418, lng: -120.2746}
- id: 0643280
  slug: los-altos
  name: Los Altos
  state: ca
  kind: city
  geo: {lat: 37.36843, lng: -122.09657}
- id: 0643294
  slug: los-altos-hills
  name: Los Altos Hills
  state: ca
  kind: town
  geo: {lat: 37.36681, lng: -122.13865}
- id: '0644000'
  slug: los-angeles
  name: Los Angeles
  state: ca
  kind: city
  geo: {lat: 34.01939, lng: -118.41083}
- id: 0644028
  slug: los-banos
  name: Los Banos
  state: ca
  kind: city
  geo: {lat: 37.06318, lng: -120.8403}
- id: '0644042'
  slug: los-berros
  name: Los Berros
  state: ca
  kind: cdp
  geo: {lat: 35.08091, lng: -120.54504}
- id: '0644112'
  slug: los-gatos
  name: Los Gatos
  state: ca
  kind: town
  geo: {lat: 37.22994, lng: -121.95687}
- id: '0644140'
  slug: los-molinos
  name: Los Molinos
  state: ca
  kind: cdp
  geo: {lat: 40.02707, lng: -122.09797}
- id: 0644168
  slug: los-olivos
  name: Los Olivos
  state: ca
  kind: cdp
  geo: {lat: 34.66151, lng: -120.11744}
- id: 0644182
  slug: los-osos
  name: Los Osos
  state: ca
  kind: cdp
  geo: {lat: 35.30708, lng: -120.82452}
- id: '0644242'
  slug: los-ranchos
  name: Los Ranchos
  state: ca
  kind: cdp
  geo: {lat: 35.2127, lng: -120.62803}
- id: 0644280
  slug: lost-hills
  name: Lost Hills
  state: ca
  kind: cdp
  geo: {lat: 35.63272, lng: -119.67789}
- id: '0644350'
  slug: lower-lake
  name: Lower Lake
  state: ca
  kind: cdp
  geo: {lat: 38.91303, lng: -122.60699}
- id: '0644364'
  slug: loyalton
  name: Loyalton
  state: ca
  kind: city
  geo: {lat: 39.67686, lng: -120.24481}
