- id: '2100298'
  slug: adairville
  name: Adairville
  state: ky
  kind: city
  geo: {lat: 36.67504, lng: -86.8582}
- id: '2100514'
  slug: ages
  name: Ages
  state: ky
  kind: cdp
  geo: {lat: 36.85936, lng: -83.24159}
- id: '2100694'
  slug: albany
  name: Albany
  state: ky
  kind: city
  geo: {lat: 36.69055, lng: -85.13549}
- id: '2100802'
  slug: alexandria
  name: Alexandria
  state: ky
  kind: city
  geo: {lat: 38.96782, lng: -84.3846}
- id: '2100946'
  slug: allen
  name: Allen
  state: ky
  kind: city
  geo: {lat: 37.61157, lng: -82.72906}
- id: '2101000'
  slug: allensville
  name: Allensville
  state: ky
  kind: cdp
  geo: {lat: 36.71703, lng: -87.06859}
- id: '2101504'
  slug: anchorage
  name: Anchorage
  state: ky
  kind: city
  geo: {lat: 38.26979, lng: -85.53763}
- id: '2101648'
  slug: annville
  name: Annville
  state: ky
  kind: cdp
  geo: {lat: 37.33165, lng: -83.96276}
- id: '2101720'
  slug: anthoston
  name: Anthoston
  state: ky
  kind: cdp
  geo: {lat: 37.75512, lng: -87.5284}
- id: '2101972'
  slug: arjay
  name: Arjay
  state: ky
  kind: cdp
  geo: {lat: 36.80614, lng: -83.64208}
- id: '2102044'
  slug: arlington
  name: Arlington
  state: ky
  kind: city
  geo: {lat: 36.78981, lng: -89.01315}
- id: '2102188'
  slug: artemus
  name: Artemus
  state: ky
  kind: cdp
  geo: {lat: 36.83751, lng: -83.84}
- id: '2102368'
  slug: ashland
  name: Ashland
  state: ky
  kind: city
  geo: {lat: 38.45949, lng: -82.64508}
- id: '2102638'
  slug: auburn
  name: Auburn
  state: ky
  kind: city
  geo: {lat: 36.86453, lng: -86.70965}
- id: '2102656'
  slug: audubon-park
  name: Audubon Park
  state: ky
  kind: city
  geo: {lat: 38.20504, lng: -85.727}
- id: '2102674'
  slug: augusta
  name: Augusta
  state: ky
  kind: city
  geo: {lat: 38.77262, lng: -84.0002}
- id: '2102764'
  slug: auxier
  name: Auxier
  state: ky
  kind: cdp
  geo: {lat: 37.73499, lng: -82.76763}
- id: '2103376'
  slug: bancroft
  name: Bancroft
  state: ky
  kind: city
  geo: {lat: 38.28642, lng: -85.6104}
- id: '2103412'
  slug: bandana
  name: Bandana
  state: ky
  kind: cdp
  geo: {lat: 37.1449, lng: -88.94212}
- id: '2103556'
  slug: barbourmeade
  name: Barbourmeade
  state: ky
  kind: city
  geo: {lat: 38.29858, lng: -85.60091}
- id: '2103574'
  slug: barbourville
  name: Barbourville
  state: ky
  kind: city
  geo: {lat: 36.86574, lng: -83.88322}
- id: '2103628'
  slug: bardstown
  name: Bardstown
  state: ky
  kind: city
  geo: {lat: 37.81766, lng: -85.45534}
- id: '2103664'
  slug: bardwell
  name: Bardwell
  state: ky
  kind: city
  geo: {lat: 36.87535, lng: -89.00894}
- id: '2103718'
  slug: barlow
  name: Barlow
  state: ky
  kind: city
  geo: {lat: 37.05079, lng: -89.04499}
- id: '2104546'
  slug: beattyville
  name: Beattyville
  state: ky
  kind: city
  geo: {lat: 37.58681, lng: -83.70688}
- id: '2104654'
  slug: beaver-dam
  name: Beaver Dam
  state: ky
  kind: city
  geo: {lat: 37.40376, lng: -86.87361}
- id: '2104816'
  slug: bedford
  name: Bedford
  state: ky
  kind: city
  geo: {lat: 38.59423, lng: -85.31744}
- id: '2104978'
  slug: beech-grove
  name: Beech Grove
  state: ky
  kind: cdp
  geo: {lat: 37.62126, lng: -87.38726}
- id: '2105014'
  slug: beechmont
  name: Beechmont
  state: ky
  kind: cdp
  geo: {lat: 37.16931, lng: -87.03914}
- id: '2105068'
  slug: beechwood-village
  name: Beechwood Village
  state: ky
  kind: city
  geo: {lat: 38.25668, lng: -85.62955}
- id: '2105266'
  slug: belfry
  name: Belfry
  state: ky
  kind: cdp
  geo: {lat: 37.61941, lng: -82.26843}
- id: '2105374'
  slug: bellefonte
  name: Bellefonte
  state: ky
  kind: city
  geo: {lat: 38.49868, lng: -82.69032}
- id: '2105392'
  slug: bellemeade
  name: Bellemeade
  state: ky
  kind: city
  geo: {lat: 38.25098, lng: -85.59103}
- id: '2105428'
  slug: belleview
  name: Belleview
  state: ky
  kind: cdp
  geo: {lat: 38.98132, lng: -84.82685}
- id: '2105446'
  slug: bellevue
  name: Bellevue
  state: ky
  kind: city
  geo: {lat: 39.10125, lng: -84.47749}
- id: '2105464'
  slug: bellewood
  name: Bellewood
  state: ky
  kind: city
  geo: {lat: 38.26082, lng: -85.65938}
- id: '2105662'
  slug: benham
  name: Benham
  state: ky
  kind: city
  geo: {lat: 36.9642, lng: -82.95176}
- id: '2105824'
  slug: benton
  name: Benton
  state: ky
  kind: city
  geo: {lat: 36.848, lng: -88.36165}
- id: '2105842'
  slug: berea
  name: Berea
  state: ky
  kind: city
  geo: {lat: 37.5893, lng: -84.2945}
- id: '2105968'
  slug: berry
  name: Berry
  state: ky
  kind: city
  geo: {lat: 38.51841, lng: -84.38166}
- id: '2106220'
  slug: betsy-layne
  name: Betsy Layne
  state: ky
  kind: cdp
  geo: {lat: 37.55201, lng: -82.62473}
- id: '2106508'
  slug: big-clifty
  name: Big Clifty
  state: ky
  kind: cdp
  geo: {lat: 37.545, lng: -86.15097}
- id: '2107012'
  slug: blackey
  name: Blackey
  state: ky
  kind: cdp
  geo: {lat: 37.13716, lng: -82.9856}
- id: '2107264'
  slug: blaine
  name: Blaine
  state: ky
  kind: city
  geo: {lat: 38.02521, lng: -82.84324}
- id: '2107390'
  slug: blandville
  name: Blandville
  state: ky
  kind: city
  geo: {lat: 36.94595, lng: -88.96357}
- id: '2107516'
  slug: bloomfield
  name: Bloomfield
  state: ky
  kind: city
  geo: {lat: 37.91364, lng: -85.31555}
- id: '2107858'
  slug: blue-ridge-manor
  name: Blue Ridge Manor
  state: ky
  kind: city
  geo: {lat: 38.24341, lng: -85.5647}
- id: '2108488'
  slug: bonnieville
  name: Bonnieville
  state: ky
  kind: city
  geo: {lat: 37.37769, lng: -85.90151}
- id: '2108614'
  slug: booneville
  name: Booneville
  state: ky
  kind: city
  geo: {lat: 37.47346, lng: -83.68277}
- id: '2108722'
  slug: boston
  name: Boston
  state: ky
  kind: cdp
  geo: {lat: 37.78119, lng: -85.68724}
- id: '2108902'
  slug: bowling-green
  name: Bowling Green
  state: ky
  kind: city
  geo: {lat: 36.97683, lng: -86.43366}
- id: '2109100'
  slug: bradfordsville
  name: Bradfordsville
  state: ky
  kind: city
  geo: {lat: 37.49473, lng: -85.14504}
- id: '2109226'
  slug: brandenburg
  name: Brandenburg
  state: ky
  kind: city
  geo: {lat: 37.99695, lng: -86.18033}
- id: '2109379'
  slug: breckinridge-center
  name: Breckinridge Center
  state: ky
  kind: cdp
  geo: {lat: 37.6833, lng: -87.86542}
- id: '2109406'
  slug: bremen
  name: Bremen
  state: ky
  kind: city
  geo: {lat: 37.36373, lng: -87.2222}
- id: '2109532'
  slug: briarwood
  name: Briarwood
  state: ky
  kind: city
  geo: {lat: 38.27809, lng: -85.59248}
- id: '2109838'
  slug: brodhead
  name: Brodhead
  state: ky
  kind: city
  geo: {lat: 37.40654, lng: -84.41662}
- id: '2109847'
  slug: broeck-pointe
  name: Broeck Pointe
  state: ky
  kind: city
  geo: {lat: 38.29591, lng: -85.58514}
- id: '2109856'
  slug: bromley
  name: Bromley
  state: ky
  kind: city
  geo: {lat: 39.07771, lng: -84.56133}
- id: '2109964'
  slug: brooks
  name: Brooks
  state: ky
  kind: cdp
  geo: {lat: 38.06653, lng: -85.7165}
- id: '2110000'
  slug: brooksville
  name: Brooksville
  state: ky
  kind: city
  geo: {lat: 38.67943, lng: -84.06532}
- id: '2110162'
  slug: brownsboro-farm
  name: Brownsboro Farm
  state: ky
  kind: city
  geo: {lat: 38.30362, lng: -85.59302}
- id: '2110198'
  slug: brownsboro-village
  name: Brownsboro Village
  state: ky
  kind: city
  geo: {lat: 38.26292, lng: -85.66585}
- id: '2110324'
  slug: brownsville
  name: Brownsville
  state: ky
  kind: city
  geo: {lat: 37.19491, lng: -86.26525}
- id: '2110612'
  slug: buckhorn
  name: Buckhorn
  state: ky
  kind: city
  geo: {lat: 37.34661, lng: -83.4698}
- id: '2110648'
  slug: buckner
  name: Buckner
  state: ky
  kind: cdp
  geo: {lat: 38.38992, lng: -85.45256}
- id: '2110774'
  slug: buffalo
  name: Buffalo
  state: ky
  kind: cdp
  geo: {lat: 37.507, lng: -85.69899}
- id: '2111044'
  slug: burgin
  name: Burgin
  state: ky
  kind: city
  geo: {lat: 37.75749, lng: -84.76065}
- id: '2111098'
  slug: burkesville
  name: Burkesville
  state: ky
  kind: city
  geo: {lat: 36.79007, lng: -85.36461}
- id: '2111170'
  slug: burlington
  name: Burlington
  state: ky
  kind: cdp
  geo: {lat: 39.02229, lng: -84.72165}
- id: '2111188'
  slug: burna
  name: Burna
  state: ky
  kind: cdp
  geo: {lat: 37.24481, lng: -88.35788}
- id: '2111278'
  slug: burnside
  name: Burnside
  state: ky
  kind: city
  geo: {lat: 37.00431, lng: -84.64367}
- id: '2111530'
  slug: butler
  name: Butler
  state: ky
  kind: city
  geo: {lat: 38.78748, lng: -84.37124}
- id: '2111692'
  slug: cadiz
  name: Cadiz
  state: ky
  kind: city
  geo: {lat: 36.86154, lng: -87.81721}
- id: '2111854'
  slug: calhoun
  name: Calhoun
  state: ky
  kind: city
  geo: {lat: 37.54031, lng: -87.25904}
- id: '2111872'
  slug: california
  name: California
  state: ky
  kind: city
  geo: {lat: 38.91842, lng: -84.26356}
- id: '2112016'
  slug: calvert-city
  name: Calvert City
  state: ky
  kind: city
  geo: {lat: 37.04642, lng: -88.39554}
- id: '2112052'
  slug: camargo
  name: Camargo
  state: ky
  kind: city
  geo: {lat: 37.99969, lng: -83.88849}
- id: '2112066'
  slug: cambridge
  name: Cambridge
  state: ky
  kind: city
  geo: {lat: 38.22174, lng: -85.61697}
- id: '2112142'
  slug: campbellsburg
  name: Campbellsburg
  state: ky
  kind: city
  geo: {lat: 38.51371, lng: -85.23171}
- id: '2112160'
  slug: campbellsville
  name: Campbellsville
  state: ky
  kind: city
  geo: {lat: 37.34392, lng: -85.35224}
- id: '2112358'
  slug: campton
  name: Campton
  state: ky
  kind: city
  geo: {lat: 37.73516, lng: -83.54724}
- id: '2112538'
  slug: caneyville
  name: Caneyville
  state: ky
  kind: city
  geo: {lat: 37.42298, lng: -86.49973}
- id: '2112610'
  slug: cannonsburg
  name: Cannonsburg
  state: ky
  kind: cdp
  geo: {lat: 38.38084, lng: -82.69643}
- id: '2112898'
  slug: carlisle
  name: Carlisle
  state: ky
  kind: city
  geo: {lat: 38.31579, lng: -84.03337}
- id: '2113024'
  slug: carrollton
  name: Carrollton
  state: ky
  kind: city
  geo: {lat: 38.67962, lng: -85.16576}
- id: '2113060'
  slug: carrsville
  name: Carrsville
  state: ky
  kind: city
  geo: {lat: 37.39804, lng: -88.37536}
- id: '2113420'
  slug: catlettsburg
  name: Catlettsburg
  state: ky
  kind: city
  geo: {lat: 38.41704, lng: -82.60302}
- id: '2113492'
  slug: cave-city
  name: Cave City
  state: ky
  kind: city
  geo: {lat: 37.13843, lng: -85.96588}
- id: '2113582'
  slug: cawood
  name: Cawood
  state: ky
  kind: cdp
  geo: {lat: 36.79156, lng: -83.23252}
- id: '2113600'
  slug: cayce
  name: Cayce
  state: ky
  kind: cdp
  geo: {lat: 36.5592, lng: -89.03425}
- id: '2113636'
  slug: cecilia
  name: Cecilia
  state: ky
  kind: cdp
  geo: {lat: 37.66174, lng: -85.94885}
- id: '2113870'
  slug: centertown
  name: Centertown
  state: ky
  kind: city
  geo: {lat: 37.41776, lng: -86.99596}
- id: '2113978'
  slug: central-city
  name: Central City
  state: ky
  kind: city
  geo: {lat: 37.29678, lng: -87.12899}
- id: '2114068'
  slug: cerulean
  name: Cerulean
  state: ky
  kind: cdp
  geo: {lat: 36.95137, lng: -87.71452}
- id: '2114266'
  slug: chaplin
  name: Chaplin
  state: ky
  kind: cdp
  geo: {lat: 37.89912, lng: -85.22098}
- id: '2115148'
  slug: clarkson
  name: Clarkson
  state: ky
  kind: city
  geo: {lat: 37.4929, lng: -86.22705}
- id: '2115166'
  slug: claryville
  name: Claryville
  state: ky
  kind: cdp
  geo: {lat: 38.914, lng: -84.40952}
- id: '2115202'
  slug: clay
  name: Clay
  state: ky
  kind: city
  geo: {lat: 37.47586, lng: -87.82031}
- id: '2115238'
  slug: clay-city
  name: Clay City
  state: ky
  kind: city
  geo: {lat: 37.86076, lng: -83.9297}
- id: '2115490'
  slug: cleaton
  name: Cleaton
  state: ky
  kind: cdp
  geo: {lat: 37.25142, lng: -87.09063}
- id: '2115742'
  slug: clinton
  name: Clinton
  state: ky
  kind: city
  geo: {lat: 36.66579, lng: -88.99409}
- id: '2115904'
  slug: cloverport
  name: Cloverport
  state: ky
  kind: city
  geo: {lat: 37.83209, lng: -86.63144}
- id: '2116110'
  slug: coal-run-village
  name: Coal Run Village
  state: ky
  kind: city
  geo: {lat: 37.53297, lng: -82.5544}
- id: '2116372'
  slug: cold-spring
  name: Cold Spring
  state: ky
  kind: city
  geo: {lat: 39.01563, lng: -84.43445}
- id: '2116354'
  slug: coldiron
  name: Coldiron
  state: ky
  kind: cdp
  geo: {lat: 36.82829, lng: -83.45288}
- id: '2116395'
  slug: coldstream
  name: Coldstream
  state: ky
  kind: city
  geo: {lat: 38.31428, lng: -85.52632}
- id: '2116750'
  slug: columbia
  name: Columbia
  state: ky
  kind: city
  geo: {lat: 37.10344, lng: -85.30754}
- id: '2116768'
  slug: columbus
  name: Columbus
  state: ky
  kind: city
  geo: {lat: 36.75975, lng: -89.10191}
- id: '2116822'
  slug: combs
  name: Combs
  state: ky
  kind: cdp
  geo: {lat: 37.26921, lng: -83.21571}
- id: '2116894'
  slug: concord
  name: Concord
  state: ky
  kind: city
  geo: {lat: 38.68815, lng: -83.49208}
- id: '2117362'
  slug: corbin
  name: Corbin
  state: ky
  kind: city
  geo: {lat: 36.93158, lng: -84.10079}
- id: '2117434'
  slug: corinth
  name: Corinth
  state: ky
  kind: city
  geo: {lat: 38.49963, lng: -84.60819}
- id: '2117686'
  slug: corydon
  name: Corydon
  state: ky
  kind: city
  geo: {lat: 37.73961, lng: -87.70665}
- id: '2117848'
  slug: covington
  name: Covington
  state: ky
  kind: city
  geo: {lat: 39.03511, lng: -84.51965}
- id: '2117938'
  slug: coxton
  name: Coxton
  state: ky
  kind: cdp
  geo: {lat: 36.85863, lng: -83.27091}
- id: '2117956'
  slug: crab-orchard
  name: Crab Orchard
  state: ky
  kind: city
  geo: {lat: 37.46231, lng: -84.50702}
- id: '2118190'
  slug: crayne
  name: Crayne
  state: ky
  kind: cdp
  geo: {lat: 37.28263, lng: -88.08616}
- id: '2118270'
  slug: creekside
  name: Creekside
  state: ky
  kind: city
  geo: {lat: 38.29152, lng: -85.57002}
- id: '2118352'
  slug: crescent-springs
  name: Crescent Springs
  state: ky
  kind: city
  geo: {lat: 39.05616, lng: -84.57982}
- id: '2118424'
  slug: crestview
  name: Crestview
  state: ky
  kind: city
  geo: {lat: 39.02461, lng: -84.41562}
- id: '2118442'
  slug: crestview-hills
  name: Crestview Hills
  state: ky
  kind: city
  geo: {lat: 39.02434, lng: -84.56991}
- id: '2118496'
  slug: crestwood
  name: Crestwood
  state: ky
  kind: city
  geo: {lat: 38.34367, lng: -85.47766}
- id: '2118568'
  slug: crittenden
  name: Crittenden
  state: ky
  kind: city
  geo: {lat: 38.7885, lng: -84.60192}
- id: '2118658'
  slug: crofton
  name: Crofton
  state: ky
  kind: city
  geo: {lat: 37.04793, lng: -87.4835}
- id: '2118766'
  slug: crossgate
  name: Crossgate
  state: ky
  kind: city
  geo: {lat: 38.27927, lng: -85.62961}
- id: '2119108'
  slug: cumberland
  name: Cumberland
  state: ky
  kind: city
  geo: {lat: 36.98697, lng: -82.9961}
- id: '2119234'
  slug: cunningham
  name: Cunningham
  state: ky
  kind: cdp
  geo: {lat: 36.91229, lng: -88.8872}
- id: '2119288'
  slug: curdsville
  name: Curdsville
  state: ky
  kind: cdp
  geo: {lat: 37.73607, lng: -87.33244}
- id: '2119432'
  slug: cynthiana
  name: Cynthiana
  state: ky
  kind: city
  geo: {lat: 38.38295, lng: -84.30175}
- id: '2119882'
  slug: danville
  name: Danville
  state: ky
  kind: city
  geo: {lat: 37.63926, lng: -84.77601}
- id: '2120224'
  slug: dawson-springs
  name: Dawson Springs
  state: ky
  kind: city
  geo: {lat: 37.17424, lng: -87.6886}
- id: '2120350'
  slug: dayton
  name: Dayton
  state: ky
  kind: city
  geo: {lat: 39.11231, lng: -84.46284}
- id: '2121322'
  slug: dexter
  name: Dexter
  state: ky
  kind: cdp
  geo: {lat: 36.7394, lng: -88.296}
- id: '2121358'
  slug: diablock
  name: Diablock
  state: ky
  kind: cdp
  geo: {lat: 37.22855, lng: -83.17096}
- id: '2121682'
  slug: dixon
  name: Dixon
  state: ky
  kind: city
  geo: {lat: 37.51368, lng: -87.68843}
- id: '2121844'
  slug: doe-valley
  name: Doe Valley
  state: ky
  kind: cdp
  geo: {lat: 37.97626, lng: -86.10792}
- id: '2122204'
  slug: douglass-hills
  name: Douglass Hills
  state: ky
  kind: city
  geo: {lat: 38.23609, lng: -85.5532}
- id: '2122222'
  slug: dover
  name: Dover
  state: ky
  kind: city
  geo: {lat: 38.75669, lng: -83.88835}
- id: '2122348'
  slug: drakesboro
  name: Drakesboro
  state: ky
  kind: city
  geo: {lat: 37.2173, lng: -87.04994}
- id: '2122474'
  slug: druid-hills
  name: Druid Hills
  state: ky
  kind: city
  geo: {lat: 38.26494, lng: -85.66177}
- id: '2122582'
  slug: dry-ridge
  name: Dry Ridge
  state: ky
  kind: city
  geo: {lat: 38.68541, lng: -84.60022}
- id: '2123014'
  slug: dunmor
  name: Dunmor
  state: ky
  kind: cdp
  geo: {lat: 37.07618, lng: -86.98602}
- id: '2123104'
  slug: dwale
  name: Dwale
  state: ky
  kind: cdp
  geo: {lat: 37.62667, lng: -82.7313}
- id: '2123230'
  slug: earlington
  name: Earlington
  state: ky
  kind: city
  geo: {lat: 37.27516, lng: -87.50614}
- id: '2123284'
  slug: east-bernstadt
  name: East Bernstadt
  state: ky
  kind: cdp
  geo: {lat: 37.19268, lng: -84.12921}
- id: '2123824'
  slug: eddyville
  name: Eddyville
  state: ky
  kind: city
  geo: {lat: 37.07741, lng: -88.07494}
- id: '2123932'
  slug: edgewood
  name: Edgewood
  state: ky
  kind: city
  geo: {lat: 39.00872, lng: -84.55988}
- id: '2123968'
  slug: edmonton
  name: Edmonton
  state: ky
  kind: city
  geo: {lat: 36.98524, lng: -85.62228}
- id: '2124094'
  slug: ekron
  name: Ekron
  state: ky
  kind: city
  geo: {lat: 37.93025, lng: -86.17639}
- id: '2124274'
  slug: elizabethtown
  name: Elizabethtown
  state: ky
  kind: city
  geo: {lat: 37.70374, lng: -85.87987}
- id: '2124292'
  slug: elizaville
  name: Elizaville
  state: ky
  kind: cdp
  geo: {lat: 38.41498, lng: -83.82015}
- id: '2124328'
  slug: elk-creek
  name: Elk Creek
  state: ky
  kind: cdp
  geo: {lat: 38.11519, lng: -85.37163}
- id: '2124382'
  slug: elkhorn-city
  name: Elkhorn City
  state: ky
  kind: city
  geo: {lat: 37.3203, lng: -82.35233}
- id: '2124400'
  slug: elkton
  name: Elkton
  state: ky
  kind: city
  geo: {lat: 36.81608, lng: -87.16114}
- id: '2124778'
  slug: elsmere
  name: Elsmere
  state: ky
  kind: city
  geo: {lat: 38.99367, lng: -84.60188}
- id: '2124904'
  slug: eminence
  name: Eminence
  state: ky
  kind: city
  geo: {lat: 38.36369, lng: -85.1769}
- id: '2124922'
  slug: emlyn
  name: Emlyn
  state: ky
  kind: cdp
  geo: {lat: 36.69927, lng: -84.14192}
- id: '2125300'
  slug: erlanger
  name: Erlanger
  state: ky
  kind: city
  geo: {lat: 39.03943, lng: -84.60013}
- id: '2125552'
  slug: eubank
  name: Eubank
  state: ky
  kind: city
  geo: {lat: 37.27841, lng: -84.65257}
- id: '2125606'
  slug: evarts
  name: Evarts
  state: ky
  kind: city
  geo: {lat: 36.86507, lng: -83.19251}
- id: '2125786'
  slug: ewing
  name: Ewing
  state: ky
  kind: city
  geo: {lat: 38.42775, lng: -83.86207}
- id: '2125876'
  slug: ezel
  name: Ezel
  state: ky
  kind: cdp
  geo: {lat: 37.8914, lng: -83.44353}
- id: '2126020'
  slug: fairfield
  name: Fairfield
  state: ky
  kind: city
  geo: {lat: 37.93121, lng: -85.38612}
- id: '2126182'
  slug: fairview-6182
  name: Fairview
  state: ky
  kind: cdp
  geo: {lat: 36.84223, lng: -87.31077}
- id: '2126236'
  slug: fairview-6236
  name: Fairview
  state: ky
  kind: city
  geo: {lat: 38.99913, lng: -84.48335}
- id: '2126434'
  slug: falmouth
  name: Falmouth
  state: ky
  kind: city
  geo: {lat: 38.6718, lng: -84.33085}
- id: '2126452'
  slug: fancy-farm
  name: Fancy Farm
  state: ky
  kind: cdp
  geo: {lat: 36.80073, lng: -88.79367}
- id: '2126528'
  slug: farley
  name: Farley
  state: ky
  kind: cdp
  geo: {lat: 37.04, lng: -88.5729}
- id: '2126560'
  slug: farmers
  name: Farmers
  state: ky
  kind: cdp
  geo: {lat: 38.13721, lng: -83.54295}
- id: '2126614'
  slug: farmington
  name: Farmington
  state: ky
  kind: cdp
  geo: {lat: 36.66925, lng: -88.52857}
- id: '2127010'
  slug: ferguson
  name: Ferguson
  state: ky
  kind: city
  geo: {lat: 37.06276, lng: -84.59864}
- id: '2127262'
  slug: fincastle
  name: Fincastle
  state: ky
  kind: city
  geo: {lat: 38.30819, lng: -85.54147}
- id: '2127730'
  slug: flat-lick
  name: Flat Lick
  state: ky
  kind: cdp
  geo: {lat: 36.83446, lng: -83.76161}
- id: '2127802'
  slug: flatwoods
  name: Flatwoods
  state: ky
  kind: city
  geo: {lat: 38.52534, lng: -82.72757}
- id: '2127846'
  slug: fleming-neon
  name: Fleming-Neon
  state: ky
  kind: city
  geo: {lat: 37.19902, lng: -82.70332}
- id: '2127856'
  slug: flemingsburg
  name: Flemingsburg
  state: ky
  kind: city
  geo: {lat: 38.42457, lng: -83.74049}
- id: '2127982'
  slug: florence
  name: Florence
  state: ky
  kind: city
  geo: {lat: 38.99341, lng: -84.64819}
- id: '2128270'
  slug: fordsville
  name: Fordsville
  state: ky
  kind: city
  geo: {lat: 37.63484, lng: -86.71834}
- id: '2128342'
  slug: forest-hills
  name: Forest Hills
  state: ky
  kind: city
  geo: {lat: 38.21677, lng: -85.58564}
- id: '2128486'
  slug: fort-campbell-north
  name: Fort Campbell North
  state: ky
  kind: cdp
  geo: {lat: 36.6632, lng: -87.47648}
- id: '2128540'
  slug: fort-knox
  name: Fort Knox
  state: ky
  kind: cdp
  geo: {lat: 37.89164, lng: -85.96715}
- id: '2128558'
  slug: fort-mitchell
  name: Fort Mitchell
  state: ky
  kind: city
  geo: {lat: 39.04555, lng: -84.55615}
- id: '2128594'
  slug: fort-thomas
  name: Fort Thomas
  state: ky
  kind: city
  geo: {lat: 39.08244, lng: -84.45711}
- id: '2128612'
  slug: fort-wright
  name: Fort Wright
  state: ky
  kind: city
  geo: {lat: 39.04575, lng: -84.53607}
- id: '2128666'
  slug: fountain-run
  name: Fountain Run
  state: ky
  kind: city
  geo: {lat: 36.72605, lng: -85.95623}
- id: '2128785'
  slug: fox-chase
  name: Fox Chase
  state: ky
  kind: city
  geo: {lat: 38.04503, lng: -85.69063}
- id: '2128882'
  slug: francisville
  name: Francisville
  state: ky
  kind: cdp
  geo: {lat: 39.10675, lng: -84.72771}
- id: '2128900'
  slug: frankfort
  name: Frankfort
  state: ky
  kind: city
  geo: {lat: 38.19497, lng: -84.86588}
- id: '2128918'
  slug: franklin
  name: Franklin
  state: ky
  kind: city
  geo: {lat: 36.71803, lng: -86.55758}
- id: '2129080'
  slug: fredonia
  name: Fredonia
  state: ky
  kind: city
  geo: {lat: 37.20783, lng: -88.06172}
- id: '2129134'
  slug: freeburn
  name: Freeburn
  state: ky
  kind: cdp
  geo: {lat: 37.56196, lng: -82.15137}
- id: '2129260'
  slug: frenchburg
  name: Frenchburg
  state: ky
  kind: city
  geo: {lat: 37.95341, lng: -83.62285}
- id: '2129566'
  slug: fulton
  name: Fulton
  state: ky
  kind: city
  geo: {lat: 36.51448, lng: -88.88239}
- id: '2129872'
  slug: gamaliel
  name: Gamaliel
  state: ky
  kind: city
  geo: {lat: 36.6403, lng: -85.79352}
- id: '2130232'
  slug: garrison
  name: Garrison
  state: ky
  kind: cdp
  geo: {lat: 38.60672, lng: -83.18191}
- id: '2130700'
  slug: georgetown
  name: Georgetown
  state: ky
  kind: city
  geo: {lat: 38.26018, lng: -84.53492}
- id: '2130718'
  slug: germantown
  name: Germantown
  state: ky
  kind: city
  geo: {lat: 38.65592, lng: -83.96416}
- id: '2130808'
  slug: ghent
  name: Ghent
  state: ky
  kind: city
  geo: {lat: 38.73248, lng: -85.06373}
- id: '2130880'
  slug: gilbertsville
  name: Gilbertsville
  state: ky
  kind: cdp
  geo: {lat: 37.02478, lng: -88.31097}
- id: '2131114'
  slug: glasgow
  name: Glasgow
  state: ky
  kind: city
  geo: {lat: 37.00484, lng: -85.92588}
- id: '2131204'
  slug: glencoe
  name: Glencoe
  state: ky
  kind: city
  geo: {lat: 38.72499, lng: -84.82328}
- id: '2131348'
  slug: glenview
  name: Glenview
  state: ky
  kind: city
  geo: {lat: 38.30162, lng: -85.65213}
- id: '2131402'
  slug: glenview-hills
  name: Glenview Hills
  state: ky
  kind: city
  geo: {lat: 38.29517, lng: -85.63833}
- id: '2131420'
  slug: glenview-manor
  name: Glenview Manor
  state: ky
  kind: city
  geo: {lat: 38.29072, lng: -85.6332}
- id: '2131870'
  slug: goose-creek
  name: Goose Creek
  state: ky
  kind: city
  geo: {lat: 38.29341, lng: -85.58956}
- id: '2131960'
  slug: goshen
  name: Goshen
  state: ky
  kind: city
  geo: {lat: 38.40343, lng: -85.58372}
- id: '2132032'
  slug: gracey
  name: Gracey
  state: ky
  kind: cdp
  geo: {lat: 36.87941, lng: -87.6637}
- id: '2132212'
  slug: grand-rivers
  name: Grand Rivers
  state: ky
  kind: city
  geo: {lat: 37.00723, lng: -88.23528}
- id: '2132428'
  slug: gratz
  name: Gratz
  state: ky
  kind: city
  geo: {lat: 38.47342, lng: -84.94645}
- id: '2132523'
  slug: graymoor-devondale
  name: Graymoor-Devondale
  state: ky
  kind: city
  geo: {lat: 38.27324, lng: -85.61665}
- id: '2132572'
  slug: grayson
  name: Grayson
  state: ky
  kind: city
  geo: {lat: 38.33389, lng: -82.93581}
- id: '2132986'
  slug: green-spring
  name: Green Spring
  state: ky
  kind: city
  geo: {lat: 38.31669, lng: -85.61455}
- id: '2132968'
  slug: greensburg
  name: Greensburg
  state: ky
  kind: city
  geo: {lat: 37.2595, lng: -85.49335}
- id: '2133004'
  slug: greenup
  name: Greenup
  state: ky
  kind: city
  geo: {lat: 38.5665, lng: -82.82362}
- id: '2133022'
  slug: greenville
  name: Greenville
  state: ky
  kind: city
  geo: {lat: 37.21049, lng: -87.17757}
- id: '2133562'
  slug: guthrie
  name: Guthrie
  state: ky
  kind: city
  geo: {lat: 36.64855, lng: -87.16478}
- id: '2134390'
  slug: hanson
  name: Hanson
  state: ky
  kind: city
  geo: {lat: 37.41801, lng: -87.47896}
- id: '2134534'
  slug: hardin
  name: Hardin
  state: ky
  kind: city
  geo: {lat: 36.76506, lng: -88.30218}
- id: '2134552'
  slug: hardinsburg
  name: Hardinsburg
  state: ky
  kind: city
  geo: {lat: 37.77144, lng: -86.45084}
- id: '2134660'
  slug: hardyville
  name: Hardyville
  state: ky
  kind: cdp
  geo: {lat: 37.25416, lng: -85.79334}
- id: '2134732'
  slug: harlan
  name: Harlan
  state: ky
  kind: city
  geo: {lat: 36.84127, lng: -83.31948}
- id: '2134966'
  slug: harrodsburg
  name: Harrodsburg
  state: ky
  kind: city
  geo: {lat: 37.76807, lng: -84.84878}
- id: '2135020'
  slug: hartford
  name: Hartford
  state: ky
  kind: city
  geo: {lat: 37.45338, lng: -86.88985}
- id: '2135200'
  slug: hawesville
  name: Hawesville
  state: ky
  kind: city
  geo: {lat: 37.89212, lng: -86.75553}
- id: '2135362'
  slug: hazard
  name: Hazard
  state: ky
  kind: city
  geo: {lat: 37.26051, lng: -83.19823}
- id: '2135380'
  slug: hazel
  name: Hazel
  state: ky
  kind: city
  geo: {lat: 36.50547, lng: -88.32525}
- id: '2135398'
  slug: hazel-green
  name: Hazel Green
  state: ky
  kind: cdp
  geo: {lat: 37.80279, lng: -83.41979}
- id: '2135542'
  slug: hebron
  name: Hebron
  state: ky
  kind: cdp
  geo: {lat: 39.06382, lng: -84.70828}
- id: '2135545'
  slug: hebron-estates
  name: Hebron Estates
  state: ky
  kind: city
  geo: {lat: 38.05005, lng: -85.66813}
- id: '2135866'
  slug: henderson
  name: Henderson
  state: ky
  kind: city
  geo: {lat: 37.83842, lng: -87.58097}
- id: '2135902'
  slug: hendron
  name: Hendron
  state: ky
  kind: cdp
  geo: {lat: 37.03309, lng: -88.6456}
- id: '2136102'
  slug: heritage-creek
  name: Heritage Creek
  state: ky
  kind: city
  geo: {lat: 38.09074, lng: -85.60921}
- id: '2136298'
  slug: hickman
  name: Hickman
  state: ky
  kind: city
  geo: {lat: 36.56664, lng: -89.18403}
- id: '2136316'
  slug: hickory
  name: Hickory
  state: ky
  kind: cdp
  geo: {lat: 36.81737, lng: -88.64791}
- id: '2136374'
  slug: hickory-hill
  name: Hickory Hill
  state: ky
  kind: city
  geo: {lat: 38.28771, lng: -85.56788}
- id: '2136460'
  slug: high-bridge
  name: High Bridge
  state: ky
  kind: cdp
  geo: {lat: 37.83188, lng: -84.70437}
- id: '2136604'
  slug: highland-heights
  name: Highland Heights
  state: ky
  kind: city
  geo: {lat: 39.03552, lng: -84.45658}
- id: '2136865'
  slug: hills-and-dales
  name: Hills and Dales
  state: ky
  kind: city
  geo: {lat: 38.30024, lng: -85.62398}
- id: '2136982'
  slug: hillview
  name: Hillview
  state: ky
  kind: city
  geo: {lat: 38.06198, lng: -85.69652}
- id: '2137108'
  slug: hindman
  name: Hindman
  state: ky
  kind: city
  geo: {lat: 37.335, lng: -82.9819}
- id: '2137234'
  slug: hiseville
  name: Hiseville
  state: ky
  kind: cdp
  geo: {lat: 37.10007, lng: -85.81543}
- id: '2137396'
  slug: hodgenville
  name: Hodgenville
  state: ky
  kind: city
  geo: {lat: 37.56337, lng: -85.73116}
- id: '2137576'
  slug: hollow-creek
  name: Hollow Creek
  state: ky
  kind: city
  geo: {lat: 38.15264, lng: -85.62447}
- id: '2137630'
  slug: hollyvilla
  name: Hollyvilla
  state: ky
  kind: city
  geo: {lat: 38.09277, lng: -85.74811}
- id: '2137918'
  slug: hopkinsville
  name: Hopkinsville
  state: ky
  kind: city
  geo: {lat: 36.83928, lng: -87.47354}
- id: '2138008'
  slug: horse-cave
  name: Horse Cave
  state: ky
  kind: city
  geo: {lat: 37.16989, lng: -85.91719}
- id: '2138170'
  slug: houston-acres
  name: Houston Acres
  state: ky
  kind: city
  geo: {lat: 38.21483, lng: -85.61448}
- id: '2138670'
  slug: hunters-hollow
  name: Hunters Hollow
  state: ky
  kind: city
  geo: {lat: 38.07836, lng: -85.6933}
- id: '2138814'
  slug: hurstbourne
  name: Hurstbourne
  state: ky
  kind: city
  geo: {lat: 38.23938, lng: -85.59144}
- id: '2138818'
  slug: hurstbourne-acres
  name: Hurstbourne Acres
  state: ky
  kind: city
  geo: {lat: 38.2202, lng: -85.59065}
- id: '2138836'
  slug: hustonville
  name: Hustonville
  state: ky
  kind: city
  geo: {lat: 37.47995, lng: -84.81411}
- id: '2138908'
  slug: hyden
  name: Hyden
  state: ky
  kind: city
  geo: {lat: 37.15679, lng: -83.37575}
- id: '2139142'
  slug: independence
  name: Independence
  state: ky
  kind: city
  geo: {lat: 38.95744, lng: -84.54737}
- id: '2139304'
  slug: indian-hills
  name: Indian Hills
  state: ky
  kind: city
  geo: {lat: 38.28822, lng: -85.67088}
- id: '2139430'
  slug: inez
  name: Inez
  state: ky
  kind: city
  geo: {lat: 37.86934, lng: -82.5398}
- id: '2139592'
  slug: ironville
  name: Ironville
  state: ky
  kind: cdp
  geo: {lat: 38.45747, lng: -82.6986}
- id: '2139646'
  slug: irvine
  name: Irvine
  state: ky
  kind: city
  geo: {lat: 37.69643, lng: -83.96834}
- id: '2139664'
  slug: irvington
  name: Irvington
  state: ky
  kind: city
  geo: {lat: 37.87807, lng: -86.28553}
- id: '2139700'
  slug: island
  name: Island
  state: ky
  kind: city
  geo: {lat: 37.44258, lng: -87.1472}
- id: '2139952'
  slug: jackson
  name: Jackson
  state: ky
  kind: city
  geo: {lat: 37.56545, lng: -83.37624}
- id: '2140114'
  slug: jamestown
  name: Jamestown
  state: ky
  kind: city
  geo: {lat: 36.99059, lng: -85.06443}
- id: '2140204'
  slug: jeff
  name: Jeff
  state: ky
  kind: cdp
  geo: {lat: 37.21078, lng: -83.13846}
- id: '2140222'
  slug: jeffersontown
  name: Jeffersontown
  state: ky
  kind: city
  geo: {lat: 38.20555, lng: -85.56966}
- id: '2140240'
  slug: jeffersonville
  name: Jeffersonville
  state: ky
  kind: city
  geo: {lat: 37.95633, lng: -83.82925}
- id: '2140312'
  slug: jenkins
  name: Jenkins
  state: ky
  kind: city
  geo: {lat: 37.16949, lng: -82.64797}
- id: '2141338'
  slug: junction-city
  name: Junction City
  state: ky
  kind: city
  geo: {lat: 37.58525, lng: -84.78929}
- id: '2141716'
  slug: keene
  name: Keene
  state: ky
  kind: city
  geo: {lat: 37.94217, lng: -84.6428}
- id: '2142094'
  slug: kenton-vale
  name: Kenton Vale
  state: ky
  kind: city
  geo: {lat: 39.05144, lng: -84.51989}
- id: '2142112'
  slug: kenvir
  name: Kenvir
  state: ky
  kind: cdp
  geo: {lat: 36.85313, lng: -83.15382}
- id: '2142292'
  slug: kevil
  name: Kevil
  state: ky
  kind: city
  geo: {lat: 37.08421, lng: -88.88292}
- id: '2142598'
  slug: kingsley
  name: Kingsley
  state: ky
  kind: city
  geo: {lat: 38.22193, lng: -85.67266}
- id: '2143030'
  slug: knottsville
  name: Knottsville
  state: ky
  kind: cdp
  geo: {lat: 37.77297, lng: -86.9115}
- id: '2143264'
  slug: kuttawa
  name: Kuttawa
  state: ky
  kind: city
  geo: {lat: 37.06047, lng: -88.11439}
- id: '2143336'
  slug: la-center
  name: La Center
  state: ky
  kind: city
  geo: {lat: 37.07492, lng: -88.97506}
- id: '2143480'
  slug: la-grange
  name: La Grange
  state: ky
  kind: city
  geo: {lat: 38.39725, lng: -85.3768}
- id: '2143444'
  slug: lafayette
  name: LaFayette
  state: ky
  kind: city
  geo: {lat: 36.66021, lng: -87.65813}
- id: '2143606'
  slug: lakeside-park
  name: Lakeside Park
  state: ky
  kind: city
  geo: {lat: 39.0342, lng: -84.56676}
- id: '2143668'
  slug: lakeview-heights
  name: Lakeview Heights
  state: ky
  kind: city
  geo: {lat: 38.15203, lng: -83.50431}
- id: '2143840'
  slug: lancaster
  name: Lancaster
  state: ky
  kind: city
  geo: {lat: 37.61696, lng: -84.58182}
- id: '2143900'
  slug: langdon-place
  name: Langdon Place
  state: ky
  kind: city
  geo: {lat: 38.28655, lng: -85.58492}
- id: '2144146'
  slug: lawrenceburg
  name: Lawrenceburg
  state: ky
  kind: city
  geo: {lat: 38.03387, lng: -84.9047}
- id: '2144344'
  slug: lebanon
  name: Lebanon
  state: ky
  kind: city
  geo: {lat: 37.57016, lng: -85.26013}
- id: '2144362'
  slug: lebanon-junction
  name: Lebanon Junction
  state: ky
  kind: city
  geo: {lat: 37.83524, lng: -85.72235}
- id: '2144434'
  slug: ledbetter
  name: Ledbetter
  state: ky
  kind: cdp
  geo: {lat: 37.05241, lng: -88.49681}
- id: '2144686'
  slug: leitchfield
  name: Leitchfield
  state: ky
  kind: city
  geo: {lat: 37.48624, lng: -86.28469}
- id: '2145064'
  slug: lewisburg
  name: Lewisburg
  state: ky
  kind: city
  geo: {lat: 36.98723, lng: -86.95019}
- id: '2145136'
  slug: lewisport
  name: Lewisport
  state: ky
  kind: city
  geo: {lat: 37.93067, lng: -86.90282}
- id: '2146027'
  slug: lexington-fayette-urban-county
  name: Lexington-Fayette urban county
  state: ky
  kind: other
  geo: {lat: 38.04068, lng: -84.45827}
- id: '2146072'
  slug: liberty
  name: Liberty
  state: ky
  kind: city
  geo: {lat: 37.31799, lng: -84.93049}
- id: '2146540'
  slug: lincolnshire
  name: Lincolnshire
  state: ky
  kind: city
  geo: {lat: 38.22378, lng: -85.62156}
- id: '2147062'
  slug: livermore
  name: Livermore
  state: ky
  kind: city
  geo: {lat: 37.49204, lng: -87.13414}
- id: '2147098'
  slug: livingston
  name: Livingston
  state: ky
  kind: city
  geo: {lat: 37.29718, lng: -84.21509}
- id: '2147476'
  slug: london
  name: London
  state: ky
  kind: city
  geo: {lat: 37.11678, lng: -84.07635}
- id: '2147710'
  slug: loretto
  name: Loretto
  state: ky
  kind: city
  geo: {lat: 37.64204, lng: -85.39315}
- id: '2147854'
  slug: louisa
  name: Louisa
  state: ky
  kind: city
  geo: {lat: 38.11161, lng: -82.61517}
- id: '2148000'
  slug: louisville
  name: Louisville
  state: ky
  kind: city
  geo: {lat: 38.22473, lng: -85.74061}
- id: '2148072'
  slug: lovelaceville
  name: Lovelaceville
  state: ky
  kind: cdp
  geo: {lat: 36.96743, lng: -88.83245}
- id: '2148234'
  slug: lowes
  name: Lowes
  state: ky
  kind: cdp
  geo: {lat: 36.88284, lng: -88.76637}
- id: '2148288'
  slug: loyall
  name: Loyall
  state: ky
  kind: city
  geo: {lat: 36.85194, lng: -83.34901}
- id: '2148378'
  slug: ludlow
  name: Ludlow
  state: ky
  kind: city
  geo: {lat: 39.08875, lng: -84.54848}
- id: '2148540'
  slug: lynch
  name: Lynch
  state: ky
  kind: city
  geo: {lat: 36.96418, lng: -82.91426}
- id: '2148558'
  slug: lyndon
  name: Lyndon
  state: ky
  kind: city
  geo: {lat: 38.263, lng: -85.58787}
- id: '2148648'
  slug: lynnview
  name: Lynnview
  state: ky
  kind: city
  geo: {lat: 38.17914, lng: -85.71121}
- id: '2149026'
  slug: maceo
  name: Maceo
  state: ky
  kind: cdp
  geo: {lat: 37.85631, lng: -86.99364}
- id: '2149206'
  slug: mackville
  name: Mackville
  state: ky
  kind: city
  geo: {lat: 37.73408, lng: -85.06965}
- id: '2149368'
  slug: madisonville
  name: Madisonville
  state: ky
  kind: city
  geo: {lat: 37.33933, lng: -87.50373}
- id: '2149476'
  slug: magnolia
  name: Magnolia
  state: ky
  kind: cdp
  geo: {lat: 37.45654, lng: -85.73469}
- id: '2149656'
  slug: manchester
  name: Manchester
  state: ky
  kind: city
  geo: {lat: 37.14807, lng: -83.76379}
- id: '2149746'
  slug: manitou
  name: Manitou
  state: ky
  kind: cdp
  geo: {lat: 37.37395, lng: -87.57554}
- id: '2149800'
  slug: manor-creek
  name: Manor Creek
  state: ky
  kind: city
  geo: {lat: 38.29791, lng: -85.5882}
- id: '2150034'
  slug: marion
  name: Marion
  state: ky
  kind: city
  geo: {lat: 37.33167, lng: -88.08124}
- id: '2150124'
  slug: marrowbone
  name: Marrowbone
  state: ky
  kind: cdp
  geo: {lat: 36.8348, lng: -85.50312}
- id: '2150286'
  slug: martin
  name: Martin
  state: ky
  kind: city
  geo: {lat: 37.56676, lng: -82.76034}
- id: '2150412'
  slug: maryhill-estates
  name: Maryhill Estates
  state: ky
  kind: city
  geo: {lat: 38.26638, lng: -85.65323}
- id: '2150520'
  slug: masonville
  name: Masonville
  state: ky
  kind: cdp
  geo: {lat: 37.67211, lng: -87.05609}
- id: '2150556'
  slug: massac
  name: Massac
  state: ky
  kind: cdp
  geo: {lat: 37.03207, lng: -88.68615}
- id: '2150898'
  slug: mayfield
  name: Mayfield
  state: ky
  kind: city
  geo: {lat: 36.73746, lng: -88.64449}
- id: '2150952'
  slug: mayking
  name: Mayking
  state: ky
  kind: cdp
  geo: {lat: 37.13625, lng: -82.77461}
- id: '2151006'
  slug: mays-lick
  name: Mays Lick
  state: ky
  kind: cdp
  geo: {lat: 38.51977, lng: -83.84614}
- id: '2151024'
  slug: maysville
  name: Maysville
  state: ky
  kind: city
  geo: {lat: 38.65002, lng: -83.79296}
- id: '2151042'
  slug: maytown
  name: Maytown
  state: ky
  kind: cdp
  geo: {lat: 37.5335, lng: -82.80148}
- id: '2148810'
  slug: mccarr
  name: McCarr
  state: ky
  kind: cdp
  geo: {lat: 37.61778, lng: -82.17057}
- id: '2148954'
  slug: mcdowell
  name: McDowell
  state: ky
  kind: cdp
  geo: {lat: 37.46006, lng: -82.72822}
- id: '2149098'
  slug: mchenry
  name: McHenry
  state: ky
  kind: city
  geo: {lat: 37.37783, lng: -86.92269}
- id: '2149116'
  slug: mckee
  name: McKee
  state: ky
  kind: city
  geo: {lat: 37.4302, lng: -83.98563}
- id: '2149134'
  slug: mckinney
  name: McKinney
  state: ky
  kind: cdp
  geo: {lat: 37.45332, lng: -84.75865}
- id: '2149278'
  slug: mcroberts
  name: McRoberts
  state: ky
  kind: cdp
  geo: {lat: 37.22108, lng: -82.66798}
- id: '2151258'
  slug: meadow-vale
  name: Meadow Vale
  state: ky
  kind: city
  geo: {lat: 38.28332, lng: -85.57251}
- id: '2151193'
  slug: meadowbrook-farm
  name: Meadowbrook Farm
  state: ky
  kind: city
  geo: {lat: 38.27827, lng: -85.57431}
- id: '2151294'
  slug: meadowview-estates
  name: Meadowview Estates
  state: ky
  kind: city
  geo: {lat: 38.22305, lng: -85.63569}
- id: '2151438'
  slug: melbourne
  name: Melbourne
  state: ky
  kind: city
  geo: {lat: 39.03193, lng: -84.37071}
- id: '2151564'
  slug: mentor
  name: Mentor
  state: ky
  kind: city
  geo: {lat: 38.89085, lng: -84.2482}
- id: '2151924'
  slug: middlesborough
  name: Middlesborough
  state: ky
  kind: city
  geo: {lat: 36.61347, lng: -83.72245}
- id: '2151978'
  slug: middletown
  name: Middletown
  state: ky
  kind: city
  geo: {lat: 38.24208, lng: -85.52074}
- id: '2152140'
  slug: midway
  name: Midway
  state: ky
  kind: city
  geo: {lat: 38.14646, lng: -84.68614}
- id: '2152302'
  slug: millersburg
  name: Millersburg
  state: ky
  kind: city
  geo: {lat: 38.30515, lng: -84.14315}
- id: '2152464'
  slug: millstone
  name: Millstone
  state: ky
  kind: cdp
  geo: {lat: 37.16337, lng: -82.74975}
- id: '2152590'
  slug: milton
  name: Milton
  state: ky
  kind: city
  geo: {lat: 38.72226, lng: -85.38032}
- id: '2152842'
  slug: mockingbird-valley
  name: Mockingbird Valley
  state: ky
  kind: city
  geo: {lat: 38.27039, lng: -85.67931}
- id: '2153076'
  slug: monterey
  name: Monterey
  state: ky
  kind: city
  geo: {lat: 38.4248, lng: -84.87144}
- id: '2153130'
  slug: monticello
  name: Monticello
  state: ky
  kind: city
  geo: {lat: 36.84114, lng: -84.85133}
- id: '2153328'
  slug: moorland
  name: Moorland
  state: ky
  kind: city
  geo: {lat: 38.2724, lng: -85.58025}
- id: '2153418'
  slug: morehead
  name: Morehead
  state: ky
  kind: city
  geo: {lat: 38.19003, lng: -83.44907}
- id: '2153472'
  slug: morganfield
  name: Morganfield
  state: ky
  kind: city
  geo: {lat: 37.6889, lng: -87.88139}
- id: '2153490'
  slug: morgantown
  name: Morgantown
  state: ky
  kind: city
  geo: {lat: 37.21741, lng: -86.70015}
- id: '2153616'
  slug: mortons-gap
  name: Mortons Gap
  state: ky
  kind: city
  geo: {lat: 37.24071, lng: -87.46461}
- id: '2153670'
  slug: moseleyville
  name: Moseleyville
  state: ky
  kind: cdp
  geo: {lat: 37.67949, lng: -87.19565}
- id: '2153976'
  slug: mount-olivet
  name: Mount Olivet
  state: ky
  kind: city
  geo: {lat: 38.53087, lng: -84.03387}
- id: '2154084'
  slug: mount-sterling
  name: Mount Sterling
  state: ky
  kind: city
  geo: {lat: 38.06547, lng: -83.94882}
- id: '2154174'
  slug: mount-vernon
  name: Mount Vernon
  state: ky
  kind: city
  geo: {lat: 37.35707, lng: -84.33287}
- id: '2154228'
  slug: mount-washington
  name: Mount Washington
  state: ky
  kind: city
  geo: {lat: 38.04262, lng: -85.55602}
- id: '2154480'
  slug: muldraugh
  name: Muldraugh
  state: ky
  kind: city
  geo: {lat: 37.93657, lng: -85.99152}
- id: '2154570'
  slug: munfordville
  name: Munfordville
  state: ky
  kind: city
  geo: {lat: 37.27887, lng: -85.8987}
- id: '2154642'
  slug: murray
  name: Murray
  state: ky
  kind: city
  geo: {lat: 36.6142, lng: -88.32207}
- id: '2154660'
  slug: murray-hill
  name: Murray Hill
  state: ky
  kind: city
  geo: {lat: 38.29089, lng: -85.58764}
- id: '2155092'
  slug: nebo
  name: Nebo
  state: ky
  kind: city
  geo: {lat: 37.38321, lng: -87.64157}
- id: '2155596'
  slug: new-castle
  name: New Castle
  state: ky
  kind: city
  geo: {lat: 38.43356, lng: -85.16924}
- id: '2155758'
  slug: new-haven
  name: New Haven
  state: ky
  kind: city
  geo: {lat: 37.65919, lng: -85.58913}
- id: '2155794'
  slug: new-hope
  name: New Hope
  state: ky
  kind: cdp
  geo: {lat: 37.62605, lng: -85.50395}
- id: '2155884'
  slug: newport
  name: Newport
  state: ky
  kind: city
  geo: {lat: 39.0861, lng: -84.48693}
- id: '2156136'
  slug: nicholasville
  name: Nicholasville
  state: ky
  kind: city
  geo: {lat: 37.89164, lng: -84.56602}
- id: '2156550'
  slug: norbourne-estates
  name: Norbourne Estates
  state: ky
  kind: city
  geo: {lat: 38.24655, lng: -85.64652}
- id: '2156694'
  slug: north-corbin
  name: North Corbin
  state: ky
  kind: cdp
  geo: {lat: 36.96563, lng: -84.09557}
- id: '2156820'
  slug: north-middletown
  name: North Middletown
  state: ky
  kind: city
  geo: {lat: 38.14254, lng: -84.1102}
- id: '2156730'
  slug: northfield
  name: Northfield
  state: ky
  kind: city
  geo: {lat: 38.28576, lng: -85.63627}
- id: '2156910'
  slug: nortonville
  name: Nortonville
  state: ky
  kind: city
  geo: {lat: 37.18509, lng: -87.45545}
- id: '2156928'
  slug: norwood
  name: Norwood
  state: ky
  kind: city
  geo: {lat: 38.25218, lng: -85.61087}
- id: '2157090'
  slug: oak-grove
  name: Oak Grove
  state: ky
  kind: city
  geo: {lat: 36.67377, lng: -87.42251}
- id: '2157030'
  slug: oakbrook
  name: Oakbrook
  state: ky
  kind: cdp
  geo: {lat: 38.99673, lng: -84.68042}
- id: '2157144'
  slug: oakland
  name: Oakland
  state: ky
  kind: city
  geo: {lat: 37.0462, lng: -86.2469}
- id: '2157658'
  slug: old-brownsboro-place
  name: Old Brownsboro Place
  state: ky
  kind: city
  geo: {lat: 38.28928, lng: -85.61313}
- id: '2157918'
  slug: olive-hill
  name: Olive Hill
  state: ky
  kind: city
  geo: {lat: 38.30584, lng: -83.1682}
- id: '2158062'
  slug: oneida
  name: Oneida
  state: ky
  kind: cdp
  geo: {lat: 37.27288, lng: -83.64712}
- id: '2158116'
  slug: onton
  name: Onton
  state: ky
  kind: cdp
  geo: {lat: 37.56137, lng: -87.43933}
- id: '2158200'
  slug: orchard-grass-hills
  name: Orchard Grass Hills
  state: ky
  kind: city
  geo: {lat: 38.32171, lng: -85.52318}
- id: '2158620'
  slug: owensboro
  name: Owensboro
  state: ky
  kind: city
  geo: {lat: 37.75717, lng: -87.1174}
- id: '2158692'
  slug: owenton
  name: Owenton
  state: ky
  kind: city
  geo: {lat: 38.53903, lng: -84.83922}
- id: '2158710'
  slug: owingsville
  name: Owingsville
  state: ky
  kind: city
  geo: {lat: 38.13657, lng: -83.75535}
- id: '2158836'
  slug: paducah
  name: Paducah
  state: ky
  kind: city
  geo: {lat: 37.07089, lng: -88.64448}
- id: '2158962'
  slug: paintsville
  name: Paintsville
  state: ky
  kind: city
  geo: {lat: 37.8203, lng: -82.80597}
- id: '2159124'
  slug: panther
  name: Panther
  state: ky
  kind: cdp
  geo: {lat: 37.63947, lng: -87.22826}
- id: '2159196'
  slug: paris
  name: Paris
  state: ky
  kind: city
  geo: {lat: 38.20016, lng: -84.27269}
- id: '2159232'
  slug: park-city
  name: Park City
  state: ky
  kind: city
  geo: {lat: 37.0935, lng: -86.04808}
- id: '2159255'
  slug: park-hills
  name: Park Hills
  state: ky
  kind: city
  geo: {lat: 39.06713, lng: -84.53267}
- id: '2159322'
  slug: parkway-village
  name: Parkway Village
  state: ky
  kind: city
  geo: {lat: 38.21131, lng: -85.73811}
- id: '2159466'
  slug: pathfork
  name: Pathfork
  state: ky
  kind: cdp
  geo: {lat: 36.76222, lng: -83.47426}
- id: '2159592'
  slug: payne-gap
  name: Payne Gap
  state: ky
  kind: cdp
  geo: {lat: 37.14772, lng: -82.67111}
- id: '2159934'
  slug: pembroke
  name: Pembroke
  state: ky
  kind: city
  geo: {lat: 36.77455, lng: -87.35949}
- id: '2160258'
  slug: perryville
  name: Perryville
  state: ky
  kind: city
  geo: {lat: 37.65018, lng: -84.95077}
- id: '2160312'
  slug: petersburg
  name: Petersburg
  state: ky
  kind: cdp
  geo: {lat: 39.04762, lng: -84.85372}
- id: '2160492'
  slug: pewee-valley
  name: Pewee Valley
  state: ky
  kind: city
  geo: {lat: 38.31218, lng: -85.48957}
- id: '2160600'
  slug: phelps
  name: Phelps
  state: ky
  kind: cdp
  geo: {lat: 37.50906, lng: -82.16056}
- id: '2160654'
  slug: philpot
  name: Philpot
  state: ky
  kind: cdp
  geo: {lat: 37.73518, lng: -87.00036}
- id: '2160852'
  slug: pikeville
  name: Pikeville
  state: ky
  kind: city
  geo: {lat: 37.47689, lng: -82.5288}
- id: '2161122'
  slug: pine-knot
  name: Pine Knot
  state: ky
  kind: cdp
  geo: {lat: 36.6656, lng: -84.43975}
- id: '2161248'
  slug: pineville
  name: Pineville
  state: ky
  kind: city
  geo: {lat: 36.74751, lng: -83.70685}
- id: '2161356'
  slug: pioneer-village
  name: Pioneer Village
  state: ky
  kind: city
  geo: {lat: 38.05626, lng: -85.67933}
- id: '2161374'
  slug: pippa-passes
  name: Pippa Passes
  state: ky
  kind: city
  geo: {lat: 37.33424, lng: -82.87335}
- id: '2161536'
  slug: plano
  name: Plano
  state: ky
  kind: cdp
  geo: {lat: 36.87718, lng: -86.41653}
- id: '2161554'
  slug: plantation
  name: Plantation
  state: ky
  kind: city
  geo: {lat: 38.28338, lng: -85.59358}
- id: '2161680'
  slug: pleasant-ridge
  name: Pleasant Ridge
  state: ky
  kind: cdp
  geo: {lat: 37.5954, lng: -86.99249}
- id: '2161734'
  slug: pleasant-view
  name: Pleasant View
  state: ky
  kind: cdp
  geo: {lat: 36.67919, lng: -84.12799}
- id: '2161788'
  slug: pleasureville
  name: Pleasureville
  state: ky
  kind: city
  geo: {lat: 38.35151, lng: -85.11116}
- id: '2161860'
  slug: plum-springs
  name: Plum Springs
  state: ky
  kind: city
  geo: {lat: 37.02281, lng: -86.38012}
- id: '2162202'
  slug: poole
  name: Poole
  state: ky
  kind: cdp
  geo: {lat: 37.63956, lng: -87.648}
- id: '2162370'
  slug: poplar-hills
  name: Poplar Hills
  state: ky
  kind: city
  geo: {lat: 38.17801, lng: -85.69301}
- id: '2162652'
  slug: powderly
  name: Powderly
  state: ky
  kind: city
  geo: {lat: 37.23941, lng: -87.15386}
- id: '2162940'
  slug: prestonsburg
  name: Prestonsburg
  state: ky
  kind: city
  geo: {lat: 37.68156, lng: -82.76587}
- id: '2162958'
  slug: prestonville
  name: Prestonville
  state: ky
  kind: city
  geo: {lat: 38.68205, lng: -85.19354}
- id: '2163138'
  slug: princeton
  name: Princeton
  state: ky
  kind: city
  geo: {lat: 37.10648, lng: -87.8849}
- id: '2163264'
  slug: prospect
  name: Prospect
  state: ky
  kind: city
  geo: {lat: 38.34689, lng: -85.60887}
- id: '2163372'
  slug: providence
  name: Providence
  state: ky
  kind: city
  geo: {lat: 37.39908, lng: -87.75167}
- id: '2163426'
  slug: pryorsburg
  name: Pryorsburg
  state: ky
  kind: cdp
  geo: {lat: 36.68984, lng: -88.70643}
- id: '2163804'
  slug: rabbit-hash
  name: Rabbit Hash
  state: ky
  kind: cdp
  geo: {lat: 38.92921, lng: -84.85207}
- id: '2163858'
  slug: raceland
  name: Raceland
  state: ky
  kind: city
  geo: {lat: 38.53737, lng: -82.73875}
- id: '2163912'
  slug: radcliff
  name: Radcliff
  state: ky
  kind: city
  geo: {lat: 37.82006, lng: -85.93637}
- id: '2164092'
  slug: ravenna
  name: Ravenna
  state: ky
  kind: city
  geo: {lat: 37.68699, lng: -83.95023}
- id: '2164146'
  slug: raywick
  name: Raywick
  state: ky
  kind: city
  geo: {lat: 37.56231, lng: -85.43629}
- id: '2164632'
  slug: reidland
  name: Reidland
  state: ky
  kind: cdp
  geo: {lat: 37.0082, lng: -88.527}
- id: '2165208'
  slug: richlawn
  name: Richlawn
  state: ky
  kind: city
  geo: {lat: 38.25467, lng: -85.6412}
- id: '2165226'
  slug: richmond
  name: Richmond
  state: ky
  kind: city
  geo: {lat: 37.72915, lng: -84.29936}
- id: '2165388'
  slug: rineyville
  name: Rineyville
  state: ky
  kind: cdp
  geo: {lat: 37.74225, lng: -85.96641}
- id: '2165559'
  slug: river-bluff
  name: River Bluff
  state: ky
  kind: city
  geo: {lat: 38.37192, lng: -85.60404}
- id: '2165766'
  slug: riverwood
  name: Riverwood
  state: ky
  kind: city
  geo: {lat: 38.28357, lng: -85.66187}
- id: '2165874'
  slug: robards
  name: Robards
  state: ky
  kind: city
  geo: {lat: 37.67858, lng: -87.53463}
- id: '2165982'
  slug: rochester
  name: Rochester
  state: ky
  kind: city
  geo: {lat: 37.20863, lng: -86.89237}
- id: '2166162'
  slug: rockholds
  name: Rockholds
  state: ky
  kind: cdp
  geo: {lat: 36.83156, lng: -84.10766}
- id: '2166216'
  slug: rockport
  name: Rockport
  state: ky
  kind: city
  geo: {lat: 37.33784, lng: -86.98898}
- id: '2166486'
  slug: rolling-fields
  name: Rolling Fields
  state: ky
  kind: city
  geo: {lat: 38.26893, lng: -85.67084}
- id: '2166504'
  slug: rolling-hills
  name: Rolling Hills
  state: ky
  kind: city
  geo: {lat: 38.28251, lng: -85.5784}
- id: '2166846'
  slug: rosine
  name: Rosine
  state: ky
  kind: cdp
  geo: {lat: 37.45498, lng: -86.73635}
- id: '2167458'
  slug: russell
  name: Russell
  state: ky
  kind: city
  geo: {lat: 38.51304, lng: -82.69605}
- id: '2167494'
  slug: russell-springs
  name: Russell Springs
  state: ky
  kind: city
  geo: {lat: 37.0507, lng: -85.08048}
- id: '2167512'
  slug: russellville
  name: Russellville
  state: ky
  kind: city
  geo: {lat: 36.83952, lng: -86.89558}
- id: '2167602'
  slug: ryland-heights
  name: Ryland Heights
  state: ky
  kind: city
  geo: {lat: 38.98027, lng: -84.43221}
- id: '2167638'
  slug: sacramento
  name: Sacramento
  state: ky
  kind: city
  geo: {lat: 37.4166, lng: -87.2679}
- id: '2167656'
  slug: sadieville
  name: Sadieville
  state: ky
  kind: city
  geo: {lat: 38.38777, lng: -84.55135}
- id: '2168052'
  slug: salem
  name: Salem
  state: ky
  kind: city
  geo: {lat: 37.26466, lng: -88.24119}
- id: '2168160'
  slug: salt-lick
  name: Salt Lick
  state: ky
  kind: city
  geo: {lat: 38.11948, lng: -83.61567}
- id: '2168214'
  slug: salvisa
  name: Salvisa
  state: ky
  kind: cdp
  geo: {lat: 37.92552, lng: -84.86319}
- id: '2168232'
  slug: salyersville
  name: Salyersville
  state: ky
  kind: city
  geo: {lat: 37.74189, lng: -83.06358}
- id: '2168358'
  slug: sanders
  name: Sanders
  state: ky
  kind: city
  geo: {lat: 38.65473, lng: -84.94673}
- id: '2168556'
  slug: sandy-hook
  name: Sandy Hook
  state: ky
  kind: city
  geo: {lat: 38.09337, lng: -83.12263}
- id: '2168646'
  slug: sardis
  name: Sardis
  state: ky
  kind: city
  geo: {lat: 38.53357, lng: -83.95169}
- id: '2168952'
  slug: science-hill
  name: Science Hill
  state: ky
  kind: city
  geo: {lat: 37.17322, lng: -84.63366}
- id: '2169114'
  slug: scottsville
  name: Scottsville
  state: ky
  kind: city
  geo: {lat: 36.74926, lng: -86.20762}
- id: '2169222'
  slug: sebree
  name: Sebree
  state: ky
  kind: city
  geo: {lat: 37.60122, lng: -87.51146}
- id: '2169258'
  slug: sedalia
  name: Sedalia
  state: ky
  kind: cdp
  geo: {lat: 36.64859, lng: -88.60139}
- id: '2169384'
  slug: seneca-gardens
  name: Seneca Gardens
  state: ky
  kind: city
  geo: {lat: 38.22804, lng: -85.67639}
- id: '2169852'
  slug: sharpsburg
  name: Sharpsburg
  state: ky
  kind: city
  geo: {lat: 38.20166, lng: -83.92511}
- id: '2170050'
  slug: shelbyville
  name: Shelbyville
  state: ky
  kind: city
  geo: {lat: 38.20626, lng: -85.2336}
- id: '2170086'
  slug: shepherdsville
  name: Shepherdsville
  state: ky
  kind: city
  geo: {lat: 37.98143, lng: -85.70201}
- id: '2170284'
  slug: shively
  name: Shively
  state: ky
  kind: city
  geo: {lat: 38.19884, lng: -85.81392}
- id: '2170644'
  slug: silver-grove
  name: Silver Grove
  state: ky
  kind: city
  geo: {lat: 39.04011, lng: -84.40032}
- id: '2170752'
  slug: simpsonville
  name: Simpsonville
  state: ky
  kind: city
  geo: {lat: 38.21525, lng: -85.34685}
- id: '2171130'
  slug: slaughters
  name: Slaughters
  state: ky
  kind: city
  geo: {lat: 37.48961, lng: -87.50528}
- id: '2171364'
  slug: smithfield
  name: Smithfield
  state: ky
  kind: city
  geo: {lat: 38.38659, lng: -85.25482}
- id: '2171382'
  slug: smithland
  name: Smithland
  state: ky
  kind: city
  geo: {lat: 37.13879, lng: -88.40481}
- id: '2171454'
  slug: smiths-grove
  name: Smiths Grove
  state: ky
  kind: city
  geo: {lat: 37.0502, lng: -86.20808}
- id: '2171688'
  slug: somerset
  name: Somerset
  state: ky
  kind: city
  geo: {lat: 37.08647, lng: -84.60535}
- id: '2171724'
  slug: sonora
  name: Sonora
  state: ky
  kind: city
  geo: {lat: 37.5254, lng: -85.89831}
- id: '2171760'
  slug: sorgho
  name: Sorgho
  state: ky
  kind: cdp
  geo: {lat: 37.74587, lng: -87.21285}
- id: '2171814'
  slug: south-carrollton
  name: South Carrollton
  state: ky
  kind: city
  geo: {lat: 37.33534, lng: -87.14017}
- id: '2172138'
  slug: south-park-view
  name: South Park View
  state: ky
  kind: city
  geo: {lat: 38.11842, lng: -85.71995}
- id: '2172210'
  slug: south-shore
  name: South Shore
  state: ky
  kind: city
  geo: {lat: 38.72194, lng: -82.96416}
- id: '2172255'
  slug: south-wallins
  name: South Wallins
  state: ky
  kind: cdp
  geo: {lat: 36.81091, lng: -83.40003}
- id: '2172264'
  slug: south-williamson
  name: South Williamson
  state: ky
  kind: cdp
  geo: {lat: 37.6632, lng: -82.28776}
- id: '2171976'
  slug: southgate
  name: Southgate
  state: ky
  kind: city
  geo: {lat: 39.06414, lng: -84.47058}
- id: '2172372'
  slug: sparta
  name: Sparta
  state: ky
  kind: city
  geo: {lat: 38.69544, lng: -84.90614}
- id: '2172570'
  slug: spottsville
  name: Spottsville
  state: ky
  kind: cdp
  geo: {lat: 37.85517, lng: -87.41934}
- id: '2172770'
  slug: spring-mill
  name: Spring Mill
  state: ky
  kind: city
  geo: {lat: 38.14361, lng: -85.63157}
- id: '2172790'
  slug: spring-valley
  name: Spring Valley
  state: ky
  kind: city
  geo: {lat: 38.29689, lng: -85.61015}
- id: '2172660'
  slug: springfield
  name: Springfield
  state: ky
  kind: city
  geo: {lat: 37.69466, lng: -85.21785}
- id: '2167710'
  slug: st-charles
  name: St. Charles
  state: ky
  kind: city
  geo: {lat: 37.19055, lng: -87.54966}
- id: '2167854'
  slug: st-joseph
  name: St. Joseph
  state: ky
  kind: cdp
  geo: {lat: 37.69229, lng: -87.32846}
- id: '2167890'
  slug: st-mary
  name: St. Mary
  state: ky
  kind: city
  geo: {lat: 37.57959, lng: -85.35035}
- id: '2167944'
  slug: st-matthews
  name: St. Matthews
  state: ky
  kind: city
  geo: {lat: 38.24933, lng: -85.63776}
- id: '2167998'
  slug: st-regis-park
  name: St. Regis Park
  state: ky
  kind: city
  geo: {lat: 38.2287, lng: -85.61683}
- id: '2173038'
  slug: stamping-ground
  name: Stamping Ground
  state: ky
  kind: city
  geo: {lat: 38.27088, lng: -84.67983}
- id: '2173110'
  slug: stanford
  name: Stanford
  state: ky
  kind: city
  geo: {lat: 37.53074, lng: -84.65703}
- id: '2173146'
  slug: stanley
  name: Stanley
  state: ky
  kind: cdp
  geo: {lat: 37.81881, lng: -87.24059}
- id: '2173164'
  slug: stanton
  name: Stanton
  state: ky
  kind: city
  geo: {lat: 37.8492, lng: -83.85561}
- id: '2173362'
  slug: stearns
  name: Stearns
  state: ky
  kind: cdp
  geo: {lat: 36.69591, lng: -84.47599}
- id: '2174064'
  slug: strathmoor-manor
  name: Strathmoor Manor
  state: ky
  kind: city
  geo: {lat: 38.21902, lng: -85.68358}
- id: '2174082'
  slug: strathmoor-village
  name: Strathmoor Village
  state: ky
  kind: city
  geo: {lat: 38.22079, lng: -85.67787}
- id: '2174316'
  slug: sturgis
  name: Sturgis
  state: ky
  kind: city
  geo: {lat: 37.54622, lng: -87.98744}
- id: '2174586'
  slug: summer-shade
  name: Summer Shade
  state: ky
  kind: cdp
  geo: {lat: 36.88393, lng: -85.71193}
- id: '2174604'
  slug: summersville
  name: Summersville
  state: ky
  kind: cdp
  geo: {lat: 37.32608, lng: -85.53679}
- id: '2175190'
  slug: sycamore
  name: Sycamore
  state: ky
  kind: city
  geo: {lat: 38.24683, lng: -85.56122}
- id: '2175270'
  slug: symsonia
  name: Symsonia
  state: ky
  kind: cdp
  geo: {lat: 36.91848, lng: -88.52553}
- id: '2175738'
  slug: taylor-mill
  name: Taylor Mill
  state: ky
  kind: city
  geo: {lat: 39.00883, lng: -84.49948}
- id: '2175810'
  slug: taylorsville
  name: Taylorsville
  state: ky
  kind: city
  geo: {lat: 38.03227, lng: -85.34949}
- id: '2175963'
  slug: ten-broeck
  name: Ten Broeck
  state: ky
  kind: city
  geo: {lat: 38.29765, lng: -85.57798}
- id: '2176380'
  slug: thornhill
  name: Thornhill
  state: ky
  kind: city
  geo: {lat: 38.28774, lng: -85.62499}
- id: '2176620'
  slug: thruston
  name: Thruston
  state: ky
  kind: cdp
  geo: {lat: 37.79298, lng: -87.0206}
- id: '2177124'
  slug: tolu
  name: Tolu
  state: ky
  kind: cdp
  geo: {lat: 37.43367, lng: -88.24482}
- id: '2177160'
  slug: tompkinsville
  name: Tompkinsville
  state: ky
  kind: city
  geo: {lat: 36.7013, lng: -85.69303}
- id: '2177592'
  slug: trenton
  name: Trenton
  state: ky
  kind: city
  geo: {lat: 36.72094, lng: -87.26216}
- id: '2178384'
  slug: union
  name: Union
  state: ky
  kind: city
  geo: {lat: 38.94752, lng: -84.67536}
- id: '2178492'
  slug: uniontown
  name: Uniontown
  state: ky
  kind: city
  geo: {lat: 37.77341, lng: -87.93223}
- id: '2178672'
  slug: upton
  name: Upton
  state: ky
  kind: city
  geo: {lat: 37.45867, lng: -85.9002}
- id: '2178708'
  slug: utica
  name: Utica
  state: ky
  kind: cdp
  geo: {lat: 37.60174, lng: -87.11238}
- id: '2179194'
  slug: van-lear
  name: Van Lear
  state: ky
  kind: cdp
  geo: {lat: 37.77662, lng: -82.74789}
- id: '2179068'
  slug: vanceburg
  name: Vanceburg
  state: ky
  kind: city
  geo: {lat: 38.59453, lng: -83.32361}
- id: '2179464'
  slug: verona
  name: Verona
  state: ky
  kind: cdp
  geo: {lat: 38.80521, lng: -84.66366}
- id: '2179482'
  slug: versailles
  name: Versailles
  state: ky
  kind: city
  geo: {lat: 38.04907, lng: -84.72497}
- id: '2179590'
  slug: vicco
  name: Vicco
  state: ky
  kind: city
  geo: {lat: 37.21609, lng: -83.06082}
- id: '2179698'
  slug: villa-hills
  name: Villa Hills
  state: ky
  kind: city
  geo: {lat: 39.06549, lng: -84.59803}
- id: '2179734'
  slug: vine-grove
  name: Vine Grove
  state: ky
  kind: city
  geo: {lat: 37.81186, lng: -85.98442}
- id: '2179860'
  slug: virgie
  name: Virgie
  state: ky
  kind: cdp
  geo: {lat: 37.33227, lng: -82.58242}
- id: '2180310'
  slug: wallins-creek
  name: Wallins Creek
  state: ky
  kind: cdp
  geo: {lat: 36.83001, lng: -83.41753}
- id: '2180490'
  slug: walton
  name: Walton
  state: ky
  kind: city
  geo: {lat: 38.86243, lng: -84.61504}
- id: '2180616'
  slug: warfield
  name: Warfield
  state: ky
  kind: city
  geo: {lat: 37.8391, lng: -82.42231}
- id: '2180706'
  slug: warsaw
  name: Warsaw
  state: ky
  kind: city
  geo: {lat: 38.78356, lng: -84.89253}
- id: '2180832'
  slug: water-valley
  name: Water Valley
  state: ky
  kind: cdp
  geo: {lat: 36.56874, lng: -88.81}
- id: '2180913'
  slug: watterson-park
  name: Watterson Park
  state: ky
  kind: city
  geo: {lat: 38.19528, lng: -85.68224}
- id: '2180958'
  slug: waverly
  name: Waverly
  state: ky
  kind: city
  geo: {lat: 37.70973, lng: -87.81511}
- id: '2181012'
  slug: wayland
  name: Wayland
  state: ky
  kind: city
  geo: {lat: 37.4559, lng: -82.8026}
- id: '2181372'
  slug: wellington
  name: Wellington
  state: ky
  kind: city
  geo: {lat: 38.21657, lng: -85.67034}
- id: '2181624'
  slug: west-buechel
  name: West Buechel
  state: ky
  kind: city
  geo: {lat: 38.1942, lng: -85.66757}
- id: '2181858'
  slug: west-liberty
  name: West Liberty
  state: ky
  kind: city
  geo: {lat: 37.91804, lng: -83.26741}
- id: '2181876'
  slug: west-louisville
  name: West Louisville
  state: ky
  kind: cdp
  geo: {lat: 37.69857, lng: -87.28635}
- id: '2181930'
  slug: west-point
  name: West Point
  state: ky
  kind: city
  geo: {lat: 37.9848, lng: -85.95495}
- id: '2182056'
  slug: west-van-lear
  name: West Van Lear
  state: ky
  kind: cdp
  geo: {lat: 37.78207, lng: -82.78724}
- id: '2181948'
  slug: westport
  name: Westport
  state: ky
  kind: cdp
  geo: {lat: 38.4918, lng: -85.47213}
- id: '2182146'
  slug: westwood-2146
  name: Westwood
  state: ky
  kind: cdp
  geo: {lat: 38.47882, lng: -82.6809}
- id: '2182164'
  slug: westwood-2164
  name: Westwood
  state: ky
  kind: city
  geo: {lat: 38.27958, lng: -85.58417}
- id: '2182200'
  slug: wheatcroft
  name: Wheatcroft
  state: ky
  kind: city
  geo: {lat: 37.48927, lng: -87.86119}
- id: '2182272'
  slug: wheelwright
  name: Wheelwright
  state: ky
  kind: city
  geo: {lat: 37.33922, lng: -82.71862}
- id: '2182722'
  slug: white-plains
  name: White Plains
  state: ky
  kind: city
  geo: {lat: 37.16943, lng: -87.37892}
- id: '2182776'
  slug: whitesburg
  name: Whitesburg
  state: ky
  kind: city
  geo: {lat: 37.11775, lng: -82.82302}
- id: '2182830'
  slug: whitesville
  name: Whitesville
  state: ky
  kind: city
  geo: {lat: 37.68314, lng: -86.86983}
- id: '2182938'
  slug: whitley-city
  name: Whitley City
  state: ky
  kind: cdp
  geo: {lat: 36.72279, lng: -84.47547}
- id: '2183064'
  slug: wickliffe
  name: Wickliffe
  state: ky
  kind: city
  geo: {lat: 36.96624, lng: -89.0819}
- id: '2183172'
  slug: wilder
  name: Wilder
  state: ky
  kind: city
  geo: {lat: 39.04132, lng: -84.48155}
- id: '2183208'
  slug: wildwood
  name: Wildwood
  state: ky
  kind: city
  geo: {lat: 38.24904, lng: -85.5747}
- id: '2183334'
  slug: williamsburg
  name: Williamsburg
  state: ky
  kind: city
  geo: {lat: 36.73871, lng: -84.16565}
- id: '2183406'
  slug: williamstown
  name: Williamstown
  state: ky
  kind: city
  geo: {lat: 38.63981, lng: -84.57252}
- id: '2183424'
  slug: willisburg
  name: Willisburg
  state: ky
  kind: city
  geo: {lat: 37.81032, lng: -85.11958}
- id: '2183550'
  slug: wilmore
  name: Wilmore
  state: ky
  kind: city
  geo: {lat: 37.87783, lng: -84.6639}
- id: '2183676'
  slug: winchester
  name: Winchester
  state: ky
  kind: city
  geo: {lat: 38.00236, lng: -84.19059}
- id: '2183784'
  slug: windy-hills
  name: Windy Hills
  state: ky
  kind: city
  geo: {lat: 38.2717, lng: -85.63961}
- id: '2183856'
  slug: wingo
  name: Wingo
  state: ky
  kind: city
  geo: {lat: 36.64145, lng: -88.74105}
- id: '2184414'
  slug: woodburn
  name: Woodburn
  state: ky
  kind: city
  geo: {lat: 36.84151, lng: -86.53106}
- id: '2184432'
  slug: woodbury
  name: Woodbury
  state: ky
  kind: city
  geo: {lat: 37.18323, lng: -86.63494}
- id: '2184486'
  slug: woodland-hills
  name: Woodland Hills
  state: ky
  kind: city
  geo: {lat: 38.23926, lng: -85.52976}
- id: '2184522'
  slug: woodlawn
  name: Woodlawn
  state: ky
  kind: city
  geo: {lat: 39.0909, lng: -84.47277}
- id: '2184576'
  slug: woodlawn-park
  name: Woodlawn Park
  state: ky
  kind: city
  geo: {lat: 38.26143, lng: -85.63073}
- id: '2184864'
  slug: worthington
  name: Worthington
  state: ky
  kind: city
  geo: {lat: 38.55111, lng: -82.73495}
- id: '2184891'
  slug: worthington-hills
  name: Worthington Hills
  state: ky
  kind: city
  geo: {lat: 38.30932, lng: -85.52696}
- id: '2184900'
  slug: worthville
  name: Worthville
  state: ky
  kind: city
  geo: {lat: 38.61013, lng: -85.06692}
- id: '2185008'
  slug: wurtland
  name: Wurtland
  state: ky
  kind: city
  geo: {lat: 38.5496, lng: -82.77902}
- id: '2185224'
  slug: yelvington
  name: Yelvington
  state: ky
  kind: cdp
  geo: {lat: 37.84914, lng: -86.97786}
