- id: '2400125'
  slug: aberdeen
  name: Aberdeen
  state: md
  kind: city
  geo: {lat: 39.5164, lng: -76.17452}
- id: '2400175'
  slug: aberdeen-proving-ground
  name: Aberdeen Proving Ground
  state: md
  kind: cdp
  geo: {lat: 39.45423, lng: -76.13354}
- id: '2400200'
  slug: abingdon
  name: Abingdon
  state: md
  kind: cdp
  geo: {lat: 39.46347, lng: -76.27314}
- id: '2400225'
  slug: accident
  name: Accident
  state: md
  kind: town
  geo: {lat: 39.62569, lng: -79.31996}
- id: '2400250'
  slug: accokeek
  name: Accokeek
  state: md
  kind: cdp
  geo: {lat: 38.67653, lng: -77.00052}
- id: '2400350'
  slug: adamstown
  name: Adamstown
  state: md
  kind: cdp
  geo: {lat: 39.307, lng: -77.4693}
- id: '2400400'
  slug: adelphi
  name: Adelphi
  state: md
  kind: cdp
  geo: {lat: 38.99707, lng: -76.96678}
- id: '2400712'
  slug: algonquin
  name: Algonquin
  state: md
  kind: cdp
  geo: {lat: 38.58985, lng: -76.09156}
- id: '2400800'
  slug: allen
  name: Allen
  state: md
  kind: cdp
  geo: {lat: 38.28839, lng: -75.69305}
- id: '2401450'
  slug: andrews-afb
  name: Andrews AFB
  state: md
  kind: cdp
  geo: {lat: 38.8098, lng: -76.86916}
- id: '2401600'
  slug: annapolis
  name: Annapolis
  state: md
  kind: city
  geo: {lat: 38.97215, lng: -76.50533}
- id: '2401635'
  slug: annapolis-neck
  name: Annapolis Neck
  state: md
  kind: cdp
  geo: {lat: 38.93656, lng: -76.49808}
- id: '2401750'
  slug: antietam
  name: Antietam
  state: md
  kind: cdp
  geo: {lat: 39.41508, lng: -77.73648}
- id: '2401925'
  slug: aquasco
  name: Aquasco
  state: md
  kind: cdp
  geo: {lat: 38.59153, lng: -76.69712}
- id: '2401975'
  slug: arbutus
  name: Arbutus
  state: md
  kind: cdp
  geo: {lat: 39.24267, lng: -76.69213}
- id: '2402025'
  slug: arden-on-the-severn
  name: Arden on the Severn
  state: md
  kind: cdp
  geo: {lat: 39.06771, lng: -76.59649}
- id: '2402275'
  slug: arnold
  name: Arnold
  state: md
  kind: cdp
  geo: {lat: 39.04323, lng: -76.50499}
- id: '2402762'
  slug: ashton-sandy-spring
  name: Ashton-Sandy Spring
  state: md
  kind: cdp
  geo: {lat: 39.14869, lng: -76.99908}
- id: '2402825'
  slug: aspen-hill
  name: Aspen Hill
  state: md
  kind: cdp
  geo: {lat: 39.09363, lng: -77.08199}
- id: '2403500'
  slug: baden
  name: Baden
  state: md
  kind: cdp
  geo: {lat: 38.66949, lng: -76.74422}
- id: '2403514'
  slug: bagtown
  name: Bagtown
  state: md
  kind: cdp
  geo: {lat: 39.58298, lng: -77.61388}
- id: '2403575'
  slug: bakersville
  name: Bakersville
  state: md
  kind: cdp
  geo: {lat: 39.51483, lng: -77.75705}
- id: '2403800'
  slug: ballenger-creek
  name: Ballenger Creek
  state: md
  kind: cdp
  geo: {lat: 39.38113, lng: -77.42018}
- id: '2404000'
  slug: baltimore
  name: Baltimore
  state: md
  kind: city
  geo: {lat: 39.30003, lng: -76.61048}
- id: '2404050'
  slug: baltimore-highlands
  name: Baltimore Highlands
  state: md
  kind: cdp
  geo: {lat: 39.23593, lng: -76.6374}
- id: '2404250'
  slug: barclay
  name: Barclay
  state: md
  kind: town
  geo: {lat: 39.14645, lng: -75.86443}
- id: '2404475'
  slug: barnesville
  name: Barnesville
  state: md
  kind: town
  geo: {lat: 39.2238, lng: -77.37617}
- id: '2404525'
  slug: barrelville
  name: Barrelville
  state: md
  kind: cdp
  geo: {lat: 39.70265, lng: -78.84245}
- id: '2404625'
  slug: barton
  name: Barton
  state: md
  kind: town
  geo: {lat: 39.53228, lng: -79.01678}
- id: '2404650'
  slug: bartonsville
  name: Bartonsville
  state: md
  kind: cdp
  geo: {lat: 39.3888, lng: -77.35296}
- id: '2405250'
  slug: beaver-creek
  name: Beaver Creek
  state: md
  kind: cdp
  geo: {lat: 39.58154, lng: -77.65134}
- id: '2405525'
  slug: bel-air-5525
  name: Bel Air
  state: md
  kind: cdp
  geo: {lat: 39.58126, lng: -78.85547}
- id: '2405550'
  slug: bel-air-5550
  name: Bel Air
  state: md
  kind: town
  geo: {lat: 39.53494, lng: -76.34632}
- id: '2405825'
  slug: bel-air-north
  name: Bel Air North
  state: md
  kind: cdp
  geo: {lat: 39.5534, lng: -76.37294}
- id: '2405950'
  slug: bel-air-south
  name: Bel Air South
  state: md
  kind: cdp
  geo: {lat: 39.50806, lng: -76.30936}
- id: '2406400'
  slug: beltsville
  name: Beltsville
  state: md
  kind: cdp
  geo: {lat: 39.0399, lng: -76.92044}
- id: '2406550'
  slug: benedict
  name: Benedict
  state: md
  kind: cdp
  geo: {lat: 38.51153, lng: -76.67967}
- id: '2406662'
  slug: bensville
  name: Bensville
  state: md
  kind: cdp
  geo: {lat: 38.61291, lng: -77.0049}
- id: '2406800'
  slug: berlin
  name: Berlin
  state: md
  kind: town
  geo: {lat: 38.33153, lng: -75.21543}
- id: '2406925'
  slug: berwyn-heights
  name: Berwyn Heights
  state: md
  kind: town
  geo: {lat: 38.99285, lng: -76.91345}
- id: '2407125'
  slug: bethesda
  name: Bethesda
  state: md
  kind: cdp
  geo: {lat: 38.98729, lng: -77.11861}
- id: '2407200'
  slug: betterton
  name: Betterton
  state: md
  kind: town
  geo: {lat: 39.36707, lng: -76.0725}
- id: '2407285'
  slug: bier
  name: Bier
  state: md
  kind: cdp
  geo: {lat: 39.55513, lng: -78.87112}
- id: '2407375'
  slug: big-pool
  name: Big Pool
  state: md
  kind: cdp
  geo: {lat: 39.62509, lng: -78.01617}
- id: '2407400'
  slug: big-spring
  name: Big Spring
  state: md
  kind: cdp
  geo: {lat: 39.6259, lng: -77.93963}
- id: '2407625'
  slug: bishopville
  name: Bishopville
  state: md
  kind: cdp
  geo: {lat: 38.43864, lng: -75.20951}
- id: '2407675'
  slug: bivalve
  name: Bivalve
  state: md
  kind: cdp
  geo: {lat: 38.3062, lng: -75.88063}
- id: '2407850'
  slug: bladensburg
  name: Bladensburg
  state: md
  kind: town
  geo: {lat: 38.94237, lng: -76.92591}
- id: '2408050'
  slug: bloomington
  name: Bloomington
  state: md
  kind: cdp
  geo: {lat: 39.48133, lng: -79.07851}
- id: '2408625'
  slug: boonsboro
  name: Boonsboro
  state: md
  kind: town
  geo: {lat: 39.5079, lng: -77.65861}
- id: '2408775'
  slug: bowie
  name: Bowie
  state: md
  kind: city
  geo: {lat: 38.9547, lng: -76.73883}
- id: '2408800'
  slug: bowleys-quarters
  name: Bowleys Quarters
  state: md
  kind: cdp
  geo: {lat: 39.31281, lng: -76.38227}
- id: '2408850'
  slug: bowling-green
  name: Bowling Green
  state: md
  kind: cdp
  geo: {lat: 39.62713, lng: -78.80505}
- id: '2408862'
  slug: bowmans-addition
  name: Bowmans Addition
  state: md
  kind: cdp
  geo: {lat: 39.68631, lng: -78.75503}
- id: '2409100'
  slug: braddock-heights
  name: Braddock Heights
  state: md
  kind: cdp
  geo: {lat: 39.40952, lng: -77.49356}
- id: '2409325'
  slug: brandywine
  name: Brandywine
  state: md
  kind: cdp
  geo: {lat: 38.68208, lng: -76.88531}
- id: '2409400'
  slug: breathedsville
  name: Breathedsville
  state: md
  kind: cdp
  geo: {lat: 39.54601, lng: -77.72455}
- id: '2409500'
  slug: brentwood
  name: Brentwood
  state: md
  kind: town
  geo: {lat: 38.94388, lng: -76.95705}
- id: '2410150'
  slug: brock-hall
  name: Brock Hall
  state: md
  kind: cdp
  geo: {lat: 38.85585, lng: -76.74244}
- id: '2410225'
  slug: brookeville
  name: Brookeville
  state: md
  kind: town
  geo: {lat: 39.18251, lng: -77.05973}
- id: '2410475'
  slug: brooklyn-park
  name: Brooklyn Park
  state: md
  kind: cdp
  geo: {lat: 39.2195, lng: -76.62092}
- id: '2410500'
  slug: brookmont
  name: Brookmont
  state: md
  kind: cdp
  geo: {lat: 38.95383, lng: -77.12902}
- id: '2410575'
  slug: brookview
  name: Brookview
  state: md
  kind: town
  geo: {lat: 38.57401, lng: -75.79296}
- id: '2410650'
  slug: broomes-island
  name: Broomes Island
  state: md
  kind: cdp
  geo: {lat: 38.41143, lng: -76.5488}
- id: '2410737'
  slug: brown-station
  name: Brown Station
  state: md
  kind: cdp
  geo: {lat: 38.85533, lng: -76.79707}
- id: '2410800'
  slug: brownsville
  name: Brownsville
  state: md
  kind: cdp
  geo: {lat: 39.37817, lng: -77.66156}
- id: '2410900'
  slug: brunswick
  name: Brunswick
  state: md
  kind: city
  geo: {lat: 39.31799, lng: -77.62528}
- id: '2410925'
  slug: bryans-road
  name: Bryans Road
  state: md
  kind: cdp
  geo: {lat: 38.6044, lng: -77.09228}
- id: '2410950'
  slug: bryantown
  name: Bryantown
  state: md
  kind: cdp
  geo: {lat: 38.54884, lng: -76.84218}
- id: '2411050'
  slug: buckeystown
  name: Buckeystown
  state: md
  kind: cdp
  geo: {lat: 39.32414, lng: -77.42813}
- id: '2411400'
  slug: burkittsville
  name: Burkittsville
  state: md
  kind: town
  geo: {lat: 39.3935, lng: -77.62779}
- id: '2411550'
  slug: burnt-mills
  name: Burnt Mills
  state: md
  kind: cdp
  geo: {lat: 39.03398, lng: -76.99827}
- id: '2411750'
  slug: burtonsville
  name: Burtonsville
  state: md
  kind: cdp
  geo: {lat: 39.12092, lng: -76.93667}
- id: '2411900'
  slug: butlertown
  name: Butlertown
  state: md
  kind: cdp
  geo: {lat: 39.28219, lng: -76.09916}
- id: '2412075'
  slug: cabin-john
  name: Cabin John
  state: md
  kind: cdp
  geo: {lat: 38.97401, lng: -77.16384}
- id: '2412150'
  slug: california
  name: California
  state: md
  kind: cdp
  geo: {lat: 38.2976, lng: -76.49214}
- id: '2412175'
  slug: callaway
  name: Callaway
  state: md
  kind: cdp
  geo: {lat: 38.23392, lng: -76.52893}
- id: '2412300'
  slug: calvert-beach
  name: Calvert Beach
  state: md
  kind: cdp
  geo: {lat: 38.4728, lng: -76.48968}
- id: '2412350'
  slug: calverton
  name: Calverton
  state: md
  kind: cdp
  geo: {lat: 39.05808, lng: -76.95085}
- id: '2412400'
  slug: cambridge
  name: Cambridge
  state: md
  kind: city
  geo: {lat: 38.55406, lng: -76.07712}
- id: '2412600'
  slug: camp-springs
  name: Camp Springs
  state: md
  kind: cdp
  geo: {lat: 38.80507, lng: -76.91857}
- id: '2412912'
  slug: cape-st-claire
  name: Cape St. Claire
  state: md
  kind: cdp
  geo: {lat: 39.04363, lng: -76.44534}
- id: '2413000'
  slug: capitol-heights
  name: Capitol Heights
  state: md
  kind: town
  geo: {lat: 38.87668, lng: -76.90756}
- id: '2413225'
  slug: carlos
  name: Carlos
  state: md
  kind: cdp
  geo: {lat: 39.62374, lng: -78.95668}
- id: '2413325'
  slug: carney
  name: Carney
  state: md
  kind: cdp
  geo: {lat: 39.4049, lng: -76.52272}
- id: '2414125'
  slug: catonsville
  name: Catonsville
  state: md
  kind: cdp
  geo: {lat: 39.26446, lng: -76.74169}
- id: '2414225'
  slug: cavetown
  name: Cavetown
  state: md
  kind: cdp
  geo: {lat: 39.64266, lng: -77.5932}
- id: '2414300'
  slug: cearfoss
  name: Cearfoss
  state: md
  kind: cdp
  geo: {lat: 39.69913, lng: -77.77634}
- id: '2414325'
  slug: cecilton
  name: Cecilton
  state: md
  kind: town
  geo: {lat: 39.40482, lng: -75.86741}
- id: '2414550'
  slug: cedar-heights
  name: Cedar Heights
  state: md
  kind: cdp
  geo: {lat: 38.90374, lng: -76.90588}
- id: '2414800'
  slug: cedarville
  name: Cedarville
  state: md
  kind: cdp
  geo: {lat: 38.65691, lng: -76.82201}
- id: '2414950'
  slug: centreville
  name: Centreville
  state: md
  kind: town
  geo: {lat: 39.04227, lng: -76.06254}
- id: '2415075'
  slug: chance
  name: Chance
  state: md
  kind: cdp
  geo: {lat: 38.17804, lng: -75.93879}
- id: '2415400'
  slug: charlestown
  name: Charlestown
  state: md
  kind: town
  geo: {lat: 39.58212, lng: -75.98671}
- id: '2415475'
  slug: charlotte-hall
  name: Charlotte Hall
  state: md
  kind: cdp
  geo: {lat: 38.46824, lng: -76.78265}
- id: '2415500'
  slug: charlton
  name: Charlton
  state: md
  kind: cdp
  geo: {lat: 39.6344, lng: -77.89436}
- id: '2415925'
  slug: chesapeake-beach
  name: Chesapeake Beach
  state: md
  kind: town
  geo: {lat: 38.68946, lng: -76.5544}
- id: '2415950'
  slug: chesapeake-city
  name: Chesapeake City
  state: md
  kind: town
  geo: {lat: 39.52721, lng: -75.81165}
- id: '2416025'
  slug: chesapeake-landing
  name: Chesapeake Landing
  state: md
  kind: cdp
  geo: {lat: 39.26935, lng: -76.15724}
- id: '2416050'
  slug: chesapeake-ranch-estates
  name: Chesapeake Ranch Estates
  state: md
  kind: cdp
  geo: {lat: 38.35762, lng: -76.41735}
- id: '2416125'
  slug: chester
  name: Chester
  state: md
  kind: cdp
  geo: {lat: 38.96009, lng: -76.28762}
- id: '2416225'
  slug: chestertown
  name: Chestertown
  state: md
  kind: town
  geo: {lat: 39.21838, lng: -76.07402}
- id: '2416550'
  slug: cheverly
  name: Cheverly
  state: md
  kind: town
  geo: {lat: 38.92593, lng: -76.91347}
- id: '2416620'
  slug: chevy-chase-6620
  name: Chevy Chase
  state: md
  kind: town
  geo: {lat: 38.98189, lng: -77.0832}
- id: '2416625'
  slug: chevy-chase-6625
  name: Chevy Chase
  state: md
  kind: cdp
  geo: {lat: 38.99254, lng: -77.07491}
- id: '2416720'
  slug: chevy-chase-section-five
  name: Chevy Chase Section Five
  state: md
  kind: village
  geo: {lat: 38.98391, lng: -77.07398}
- id: '2416730'
  slug: chevy-chase-section-three
  name: Chevy Chase Section Three
  state: md
  kind: village
  geo: {lat: 38.97926, lng: -77.07419}
- id: '2416775'
  slug: chevy-chase-view
  name: Chevy Chase View
  state: md
  kind: town
  geo: {lat: 39.01923, lng: -77.08117}
- id: '2416787'
  slug: chevy-chase-village
  name: Chevy Chase Village
  state: md
  kind: town
  geo: {lat: 38.96976, lng: -77.07928}
- id: '2416800'
  slug: chewsville
  name: Chewsville
  state: md
  kind: cdp
  geo: {lat: 39.64841, lng: -77.63124}
- id: '2416875'
  slug: chillum
  name: Chillum
  state: md
  kind: cdp
  geo: {lat: 38.96667, lng: -76.97889}
- id: '2417000'
  slug: choptank
  name: Choptank
  state: md
  kind: cdp
  geo: {lat: 38.68228, lng: -75.9494}
- id: '2417050'
  slug: church-creek
  name: Church Creek
  state: md
  kind: town
  geo: {lat: 38.50489, lng: -76.15403}
- id: '2417100'
  slug: church-hill
  name: Church Hill
  state: md
  kind: town
  geo: {lat: 39.145, lng: -75.98077}
- id: '2417350'
  slug: clarksburg
  name: Clarksburg
  state: md
  kind: cdp
  geo: {lat: 39.22289, lng: -77.26608}
- id: '2417475'
  slug: clarysville
  name: Clarysville
  state: md
  kind: cdp
  geo: {lat: 39.64203, lng: -78.88895}
- id: '2417600'
  slug: clear-spring
  name: Clear Spring
  state: md
  kind: town
  geo: {lat: 39.65605, lng: -77.93037}
- id: '2417900'
  slug: clinton
  name: Clinton
  state: md
  kind: cdp
  geo: {lat: 38.75092, lng: -76.90267}
- id: '2418150'
  slug: cloverly
  name: Cloverly
  state: md
  kind: cdp
  geo: {lat: 39.10395, lng: -76.99483}
- id: '2418200'
  slug: cobb-island
  name: Cobb Island
  state: md
  kind: cdp
  geo: {lat: 38.2637, lng: -76.84899}
- id: '2418250'
  slug: cockeysville
  name: Cockeysville
  state: md
  kind: cdp
  geo: {lat: 39.478, lng: -76.6308}
- id: '2418475'
  slug: colesville
  name: Colesville
  state: md
  kind: cdp
  geo: {lat: 39.07284, lng: -77.00058}
- id: '2418750'
  slug: college-park
  name: College Park
  state: md
  kind: city
  geo: {lat: 38.99628, lng: -76.93559}
- id: '2418850'
  slug: colmar-manor
  name: Colmar Manor
  state: md
  kind: town
  geo: {lat: 38.9268, lng: -76.94388}
- id: '2419125'
  slug: columbia
  name: Columbia
  state: md
  kind: cdp
  geo: {lat: 39.20115, lng: -76.85905}
- id: '2419825'
  slug: coral-hills
  name: Coral Hills
  state: md
  kind: cdp
  geo: {lat: 38.87231, lng: -76.92098}
- id: '2419900'
  slug: cordova
  name: Cordova
  state: md
  kind: cdp
  geo: {lat: 38.86801, lng: -75.99889}
- id: '2419975'
  slug: corriganville
  name: Corriganville
  state: md
  kind: cdp
  geo: {lat: 39.69465, lng: -78.79726}
- id: '2420050'
  slug: cottage-city
  name: Cottage City
  state: md
  kind: town
  geo: {lat: 38.9384, lng: -76.94944}
- id: '2420500'
  slug: crellin
  name: Crellin
  state: md
  kind: cdp
  geo: {lat: 39.38863, lng: -79.46847}
- id: '2420525'
  slug: cresaptown
  name: Cresaptown
  state: md
  kind: cdp
  geo: {lat: 39.59351, lng: -78.83505}
- id: '2420775'
  slug: crisfield
  name: Crisfield
  state: md
  kind: city
  geo: {lat: 37.97546, lng: -75.85454}
- id: '2420875'
  slug: crofton
  name: Crofton
  state: md
  kind: cdp
  geo: {lat: 39.01444, lng: -76.68001}
- id: '2420925'
  slug: croom
  name: Croom
  state: md
  kind: cdp
  geo: {lat: 38.7398, lng: -76.75519}
- id: '2421075'
  slug: crownsville
  name: Crownsville
  state: md
  kind: cdp
  geo: {lat: 39.02246, lng: -76.59038}
- id: '2421150'
  slug: crumpton
  name: Crumpton
  state: md
  kind: cdp
  geo: {lat: 39.23317, lng: -75.92205}
- id: '2421325'
  slug: cumberland
  name: Cumberland
  state: md
  kind: city
  geo: {lat: 39.65174, lng: -78.75795}
- id: '2421475'
  slug: damascus
  name: Damascus
  state: md
  kind: cdp
  geo: {lat: 39.27099, lng: -77.19683}
- id: '2421550'
  slug: dames-quarter
  name: Dames Quarter
  state: md
  kind: cdp
  geo: {lat: 38.17292, lng: -75.89002}
- id: '2421675'
  slug: danville
  name: Danville
  state: md
  kind: cdp
  geo: {lat: 39.51017, lng: -78.91755}
- id: '2421750'
  slug: dargan
  name: Dargan
  state: md
  kind: cdp
  geo: {lat: 39.37668, lng: -77.73404}
- id: '2421800'
  slug: darlington
  name: Darlington
  state: md
  kind: cdp
  geo: {lat: 39.64245, lng: -76.20352}
- id: '2421825'
  slug: darnestown
  name: Darnestown
  state: md
  kind: cdp
  geo: {lat: 39.08871, lng: -77.31178}
- id: '2421925'
  slug: dawson
  name: Dawson
  state: md
  kind: cdp
  geo: {lat: 39.47708, lng: -78.94521}
- id: '2422100'
  slug: deal-island
  name: Deal Island
  state: md
  kind: cdp
  geo: {lat: 38.15279, lng: -75.93995}
- id: '2422050'
  slug: deale
  name: Deale
  state: md
  kind: cdp
  geo: {lat: 38.78609, lng: -76.54071}
- id: '2422275'
  slug: deer-park
  name: Deer Park
  state: md
  kind: town
  geo: {lat: 39.42396, lng: -79.32599}
- id: '2422600'
  slug: delmar
  name: Delmar
  state: md
  kind: town
  geo: {lat: 38.44215, lng: -75.56042}
- id: '2422725'
  slug: denton
  name: Denton
  state: md
  kind: town
  geo: {lat: 38.87942, lng: -75.82445}
- id: '2422775'
  slug: derwood
  name: Derwood
  state: md
  kind: cdp
  geo: {lat: 39.11412, lng: -77.15023}
- id: '2422825'
  slug: detmold
  name: Detmold
  state: md
  kind: cdp
  geo: {lat: 39.55736, lng: -78.99114}
- id: '2423025'
  slug: district-heights
  name: District Heights
  state: md
  kind: city
  geo: {lat: 38.85887, lng: -76.88844}
- id: '2423500'
  slug: downsville
  name: Downsville
  state: md
  kind: cdp
  geo: {lat: 39.55482, lng: -77.80163}
- id: '2423700'
  slug: drum-point
  name: Drum Point
  state: md
  kind: cdp
  geo: {lat: 38.3304, lng: -76.43599}
- id: '2423975'
  slug: dundalk
  name: Dundalk
  state: md
  kind: cdp
  geo: {lat: 39.26682, lng: -76.49653}
- id: '2424050'
  slug: dunkirk
  name: Dunkirk
  state: md
  kind: cdp
  geo: {lat: 38.71819, lng: -76.67678}
- id: '2424200'
  slug: eagle-harbor
  name: Eagle Harbor
  state: md
  kind: town
  geo: {lat: 38.56758, lng: -76.68714}
- id: '2424250'
  slug: eakles-mill
  name: Eakles Mill
  state: md
  kind: cdp
  geo: {lat: 39.46707, lng: -77.68596}
- id: '2424450'
  slug: east-new-market
  name: East New Market
  state: md
  kind: town
  geo: {lat: 38.59703, lng: -75.92313}
- id: '2424650'
  slug: east-riverdale
  name: East Riverdale
  state: md
  kind: cdp
  geo: {lat: 38.95976, lng: -76.91102}
- id: '2424475'
  slug: easton
  name: Easton
  state: md
  kind: town
  geo: {lat: 38.77626, lng: -76.07048}
- id: '2424825'
  slug: eckhart-mines
  name: Eckhart Mines
  state: md
  kind: cdp
  geo: {lat: 39.65523, lng: -78.89411}
- id: '2424850'
  slug: eden
  name: Eden
  state: md
  kind: cdp
  geo: {lat: 38.27822, lng: -75.65478}
- id: '2424925'
  slug: edesville
  name: Edesville
  state: md
  kind: cdp
  geo: {lat: 39.15386, lng: -76.20723}
- id: '2424950'
  slug: edgemere
  name: Edgemere
  state: md
  kind: cdp
  geo: {lat: 39.22067, lng: -76.45637}
- id: '2425000'
  slug: edgemont
  name: Edgemont
  state: md
  kind: cdp
  geo: {lat: 39.67661, lng: -77.54695}
- id: '2425050'
  slug: edgewater
  name: Edgewater
  state: md
  kind: cdp
  geo: {lat: 38.93965, lng: -76.5514}
- id: '2425150'
  slug: edgewood
  name: Edgewood
  state: md
  kind: cdp
  geo: {lat: 39.42029, lng: -76.29685}
- id: '2425425'
  slug: edmonston
  name: Edmonston
  state: md
  kind: town
  geo: {lat: 38.94996, lng: -76.9322}
- id: '2425575'
  slug: eldersburg
  name: Eldersburg
  state: md
  kind: cdp
  geo: {lat: 39.40419, lng: -76.95258}
- id: '2425600'
  slug: eldorado
  name: Eldorado
  state: md
  kind: town
  geo: {lat: 38.58304, lng: -75.79028}
- id: '2425750'
  slug: elkridge
  name: Elkridge
  state: md
  kind: cdp
  geo: {lat: 39.19548, lng: -76.74108}
- id: '2425800'
  slug: elkton
  name: Elkton
  state: md
  kind: town
  geo: {lat: 39.60578, lng: -75.82169}
- id: '2425925'
  slug: ellerslie
  name: Ellerslie
  state: md
  kind: cdp
  geo: {lat: 39.71371, lng: -78.77618}
- id: '2426000'
  slug: ellicott-city
  name: Ellicott City
  state: md
  kind: cdp
  geo: {lat: 39.27669, lng: -76.83395}
- id: '2426025'
  slug: elliott
  name: Elliott
  state: md
  kind: cdp
  geo: {lat: 38.30814, lng: -76.01072}
- id: '2426200'
  slug: emmitsburg
  name: Emmitsburg
  state: md
  kind: town
  geo: {lat: 39.70519, lng: -77.3213}
- id: '2426550'
  slug: ernstville
  name: Ernstville
  state: md
  kind: cdp
  geo: {lat: 39.63039, lng: -78.02396}
- id: '2426600'
  slug: essex
  name: Essex
  state: md
  kind: cdp
  geo: {lat: 39.30136, lng: -76.44443}
- id: '2427250'
  slug: fairland
  name: Fairland
  state: md
  kind: cdp
  geo: {lat: 39.08085, lng: -76.95254}
- id: '2427325'
  slug: fairlee
  name: Fairlee
  state: md
  kind: cdp
  geo: {lat: 39.22587, lng: -76.16633}
- id: '2427375'
  slug: fairmount
  name: Fairmount
  state: md
  kind: cdp
  geo: {lat: 38.10977, lng: -75.82056}
- id: '2427400'
  slug: fairmount-heights
  name: Fairmount Heights
  state: md
  kind: town
  geo: {lat: 38.90159, lng: -76.91534}
- id: '2427425'
  slug: fairplay
  name: Fairplay
  state: md
  kind: cdp
  geo: {lat: 39.53567, lng: -77.74631}
- id: '2427500'
  slug: fairview
  name: Fairview
  state: md
  kind: cdp
  geo: {lat: 39.71108, lng: -77.84062}
- id: '2427580'
  slug: fairwood
  name: Fairwood
  state: md
  kind: cdp
  geo: {lat: 38.95471, lng: -76.77654}
- id: '2427700'
  slug: fallston
  name: Fallston
  state: md
  kind: cdp
  geo: {lat: 39.5338, lng: -76.43855}
- id: '2427900'
  slug: federalsburg
  name: Federalsburg
  state: md
  kind: town
  geo: {lat: 38.69226, lng: -75.77246}
- id: '2428075'
  slug: ferndale
  name: Ferndale
  state: md
  kind: cdp
  geo: {lat: 39.18696, lng: -76.63311}
- id: '2428275'
  slug: finzel
  name: Finzel
  state: md
  kind: cdp
  geo: {lat: 39.70172, lng: -78.952}
- id: '2428300'
  slug: fishing-creek
  name: Fishing Creek
  state: md
  kind: cdp
  geo: {lat: 38.33695, lng: -76.22168}
- id: '2428425'
  slug: flintstone
  name: Flintstone
  state: md
  kind: cdp
  geo: {lat: 39.70353, lng: -78.57579}
- id: '2428512'
  slug: flower-hill
  name: Flower Hill
  state: md
  kind: cdp
  geo: {lat: 39.16844, lng: -77.18444}
- id: '2428640'
  slug: forest-glen
  name: Forest Glen
  state: md
  kind: cdp
  geo: {lat: 39.01891, lng: -77.04509}
- id: '2428725'
  slug: forest-heights
  name: Forest Heights
  state: md
  kind: town
  geo: {lat: 38.80378, lng: -77.01169}
- id: '2429000'
  slug: forestville
  name: Forestville
  state: md
  kind: cdp
  geo: {lat: 38.85174, lng: -76.87077}
- id: '2429400'
  slug: fort-meade
  name: Fort Meade
  state: md
  kind: cdp
  geo: {lat: 39.1057, lng: -76.74328}
- id: '2429450'
  slug: fort-ritchie
  name: Fort Ritchie
  state: md
  kind: cdp
  geo: {lat: 39.70366, lng: -77.50639}
- id: '2429525'
  slug: fort-washington
  name: Fort Washington
  state: md
  kind: cdp
  geo: {lat: 38.73187, lng: -77.00866}
- id: '2429712'
  slug: fountainhead-orchard-hills
  name: Fountainhead-Orchard Hills
  state: md
  kind: cdp
  geo: {lat: 39.68784, lng: -77.7173}
- id: '2429790'
  slug: four-corners
  name: Four Corners
  state: md
  kind: cdp
  geo: {lat: 39.02331, lng: -77.0102}
- id: '2430100'
  slug: franklin
  name: Franklin
  state: md
  kind: cdp
  geo: {lat: 39.49893, lng: -79.05156}
- id: '2430325'
  slug: frederick
  name: Frederick
  state: md
  kind: city
  geo: {lat: 39.43689, lng: -77.41195}
- id: '2430567'
  slug: frenchtown-rumbly
  name: Frenchtown-Rumbly
  state: md
  kind: cdp
  geo: {lat: 38.07445, lng: -75.85332}
- id: '2430575'
  slug: friendly
  name: Friendly
  state: md
  kind: cdp
  geo: {lat: 38.76028, lng: -76.96695}
- id: '2430650'
  slug: friendship
  name: Friendship
  state: md
  kind: cdp
  geo: {lat: 38.73584, lng: -76.58782}
- id: '2430800'
  slug: friendship-heights-village
  name: Friendship Heights Village
  state: md
  kind: cdp
  geo: {lat: 38.96331, lng: -77.08979}
- id: '2430850'
  slug: friendsville
  name: Friendsville
  state: md
  kind: town
  geo: {lat: 39.66245, lng: -79.40441}
- id: '2430900'
  slug: frostburg
  name: Frostburg
  state: md
  kind: city
  geo: {lat: 39.65052, lng: -78.92679}
- id: '2430950'
  slug: fruitland
  name: Fruitland
  state: md
  kind: city
  geo: {lat: 38.32039, lng: -75.6265}
- id: '2431025'
  slug: fulton
  name: Fulton
  state: md
  kind: cdp
  geo: {lat: 39.15311, lng: -76.91163}
- id: '2431100'
  slug: funkstown
  name: Funkstown
  state: md
  kind: town
  geo: {lat: 39.60676, lng: -77.70511}
- id: '2431175'
  slug: gaithersburg
  name: Gaithersburg
  state: md
  kind: city
  geo: {lat: 39.1486, lng: -77.19513}
- id: '2431225'
  slug: galena
  name: Galena
  state: md
  kind: town
  geo: {lat: 39.34246, lng: -75.87887}
- id: '2431250'
  slug: galestown
  name: Galestown
  state: md
  kind: town
  geo: {lat: 38.5626, lng: -75.71582}
- id: '2431275'
  slug: galesville
  name: Galesville
  state: md
  kind: cdp
  geo: {lat: 38.84077, lng: -76.55437}
- id: '2431350'
  slug: gambrills
  name: Gambrills
  state: md
  kind: cdp
  geo: {lat: 39.09284, lng: -76.65113}
- id: '2431400'
  slug: gapland
  name: Gapland
  state: md
  kind: cdp
  geo: {lat: 39.40196, lng: -77.65829}
- id: '2431525'
  slug: garrett-park
  name: Garrett Park
  state: md
  kind: town
  geo: {lat: 39.0361, lng: -77.09354}
- id: '2431575'
  slug: garretts-mill
  name: Garretts Mill
  state: md
  kind: cdp
  geo: {lat: 39.35334, lng: -77.68891}
- id: '2431625'
  slug: garrison
  name: Garrison
  state: md
  kind: cdp
  geo: {lat: 39.40227, lng: -76.75185}
- id: '2431875'
  slug: georgetown
  name: Georgetown
  state: md
  kind: cdp
  geo: {lat: 39.22158, lng: -76.19177}
- id: '2432025'
  slug: germantown
  name: Germantown
  state: md
  kind: cdp
  geo: {lat: 39.17425, lng: -77.26375}
- id: '2432175'
  slug: gilmore
  name: Gilmore
  state: md
  kind: cdp
  geo: {lat: 39.58326, lng: -78.95113}
- id: '2432250'
  slug: girdletree
  name: Girdletree
  state: md
  kind: cdp
  geo: {lat: 38.09888, lng: -75.40026}
- id: '2432350'
  slug: glassmanor
  name: Glassmanor
  state: md
  kind: cdp
  geo: {lat: 38.81814, lng: -76.98315}
- id: '2432650'
  slug: glen-burnie
  name: Glen Burnie
  state: md
  kind: cdp
  geo: {lat: 39.15627, lng: -76.607}
- id: '2432900'
  slug: glen-echo
  name: Glen Echo
  state: md
  kind: town
  geo: {lat: 38.96882, lng: -77.14209}
- id: '2432500'
  slug: glenarden
  name: Glenarden
  state: md
  kind: city
  geo: {lat: 38.92929, lng: -76.85769}
- id: '2433250'
  slug: glenmont
  name: Glenmont
  state: md
  kind: cdp
  geo: {lat: 39.07041, lng: -77.04663}
- id: '2433400'
  slug: glenn-dale
  name: Glenn Dale
  state: md
  kind: cdp
  geo: {lat: 38.98439, lng: -76.80032}
- id: '2433850'
  slug: golden-beach
  name: Golden Beach
  state: md
  kind: cdp
  geo: {lat: 38.48973, lng: -76.70069}
- id: '2433950'
  slug: goldsboro
  name: Goldsboro
  state: md
  kind: town
  geo: {lat: 39.03, lng: -75.78096}
- id: '2434150'
  slug: gorman
  name: Gorman
  state: md
  kind: cdp
  geo: {lat: 39.2927, lng: -79.35275}
- id: '2434350'
  slug: graceham
  name: Graceham
  state: md
  kind: cdp
  geo: {lat: 39.61741, lng: -77.38707}
- id: '2434425'
  slug: grahamtown
  name: Grahamtown
  state: md
  kind: cdp
  geo: {lat: 39.64486, lng: -78.92229}
- id: '2434525'
  slug: grantsville
  name: Grantsville
  state: md
  kind: town
  geo: {lat: 39.69692, lng: -79.15285}
- id: '2434550'
  slug: grasonville
  name: Grasonville
  state: md
  kind: cdp
  geo: {lat: 38.95746, lng: -76.1978}
- id: '2435412'
  slug: green-valley
  name: Green Valley
  state: md
  kind: cdp
  geo: {lat: 39.34184, lng: -77.2403}
- id: '2434775'
  slug: greenbelt
  name: Greenbelt
  state: md
  kind: city
  geo: {lat: 38.99467, lng: -76.8854}
- id: '2435200'
  slug: greensboro
  name: Greensboro
  state: md
  kind: town
  geo: {lat: 38.97635, lng: -75.80808}
- id: '2435225'
  slug: greensburg
  name: Greensburg
  state: md
  kind: cdp
  geo: {lat: 39.68075, lng: -77.56154}
- id: '2436075'
  slug: hagerstown
  name: Hagerstown
  state: md
  kind: city
  geo: {lat: 39.63799, lng: -77.72325}
- id: '2436125'
  slug: halfway
  name: Halfway
  state: md
  kind: cdp
  geo: {lat: 39.61567, lng: -77.77107}
- id: '2436500'
  slug: hampstead
  name: Hampstead
  state: md
  kind: town
  geo: {lat: 39.6146, lng: -76.8548}
- id: '2436512'
  slug: hampton
  name: Hampton
  state: md
  kind: cdp
  geo: {lat: 39.42479, lng: -76.56647}
- id: '2436600'
  slug: hancock
  name: Hancock
  state: md
  kind: town
  geo: {lat: 39.70457, lng: -78.16326}
- id: '2437600'
  slug: havre-de-grace
  name: Havre de Grace
  state: md
  kind: city
  geo: {lat: 39.54657, lng: -76.11358}
- id: '2437875'
  slug: hebron
  name: Hebron
  state: md
  kind: town
  geo: {lat: 38.42425, lng: -75.68716}
- id: '2437925'
  slug: henderson
  name: Henderson
  state: md
  kind: town
  geo: {lat: 39.07494, lng: -75.76608}
- id: '2438025'
  slug: herald-harbor
  name: Herald Harbor
  state: md
  kind: cdp
  geo: {lat: 39.05127, lng: -76.57492}
- id: '2438437'
  slug: highfield-cascade
  name: Highfield-Cascade
  state: md
  kind: cdp
  geo: {lat: 39.71359, lng: -77.49457}
- id: '2438475'
  slug: highland
  name: Highland
  state: md
  kind: cdp
  geo: {lat: 39.18722, lng: -76.95673}
- id: '2438500'
  slug: highland-beach
  name: Highland Beach
  state: md
  kind: town
  geo: {lat: 38.93114, lng: -76.46702}
- id: '2438850'
  slug: hillandale
  name: Hillandale
  state: md
  kind: cdp
  geo: {lat: 39.02634, lng: -76.9752}
- id: '2438975'
  slug: hillcrest-heights
  name: Hillcrest Heights
  state: md
  kind: cdp
  geo: {lat: 38.83646, lng: -76.97058}
- id: '2439175'
  slug: hillsboro
  name: Hillsboro
  state: md
  kind: town
  geo: {lat: 38.91704, lng: -75.94178}
- id: '2440200'
  slug: honeygo
  name: Honeygo
  state: md
  kind: cdp
  geo: {lat: 39.40497, lng: -76.43002}
- id: '2440700'
  slug: hughesville
  name: Hughesville
  state: md
  kind: cdp
  geo: {lat: 38.53742, lng: -76.77279}
- id: '2441025'
  slug: huntingtown
  name: Huntingtown
  state: md
  kind: cdp
  geo: {lat: 38.61235, lng: -76.62154}
- id: '2441125'
  slug: hurlock
  name: Hurlock
  state: md
  kind: town
  geo: {lat: 38.62571, lng: -75.86719}
- id: '2441175'
  slug: hutton
  name: Hutton
  state: md
  kind: cdp
  geo: {lat: 39.41449, lng: -79.48004}
- id: '2441250'
  slug: hyattsville
  name: Hyattsville
  state: md
  kind: city
  geo: {lat: 38.9612, lng: -76.95494}
- id: '2441475'
  slug: ilchester
  name: Ilchester
  state: md
  kind: cdp
  geo: {lat: 39.21611, lng: -76.76206}
- id: '2441500'
  slug: indian-head
  name: Indian Head
  state: md
  kind: town
  geo: {lat: 38.59862, lng: -77.15565}
- id: '2441700'
  slug: indian-springs
  name: Indian Springs
  state: md
  kind: cdp
  geo: {lat: 39.64563, lng: -78.0074}
- id: '2442325'
  slug: jarrettsville
  name: Jarrettsville
  state: md
  kind: cdp
  geo: {lat: 39.60074, lng: -76.47241}
- id: '2442350'
  slug: jefferson
  name: Jefferson
  state: md
  kind: cdp
  geo: {lat: 39.36534, lng: -77.54067}
- id: '2442450'
  slug: jennings
  name: Jennings
  state: md
  kind: cdp
  geo: {lat: 39.64866, lng: -79.1835}
- id: '2442550'
  slug: jessup
  name: Jessup
  state: md
  kind: cdp
  geo: {lat: 39.14909, lng: -76.77639}
- id: '2442575'
  slug: jesterville
  name: Jesterville
  state: md
  kind: cdp
  geo: {lat: 38.29048, lng: -75.88993}
- id: '2442875'
  slug: joppatowne
  name: Joppatowne
  state: md
  kind: cdp
  geo: {lat: 39.41659, lng: -76.35217}
- id: '2442950'
  slug: jugtown
  name: Jugtown
  state: md
  kind: cdp
  geo: {lat: 39.61428, lng: -77.5943}
- id: '2443100'
  slug: keedysville
  name: Keedysville
  state: md
  kind: town
  geo: {lat: 39.48632, lng: -77.69773}
- id: '2443200'
  slug: kemp-mill
  name: Kemp Mill
  state: md
  kind: cdp
  geo: {lat: 39.0411, lng: -77.022}
- id: '2443280'
  slug: kemps-mill
  name: Kemps Mill
  state: md
  kind: cdp
  geo: {lat: 39.62687, lng: -77.8139}
- id: '2443475'
  slug: kennedyville
  name: Kennedyville
  state: md
  kind: cdp
  geo: {lat: 39.30321, lng: -75.99424}
- id: '2443500'
  slug: kensington
  name: Kensington
  state: md
  kind: town
  geo: {lat: 39.02683, lng: -77.07375}
- id: '2443725'
  slug: kent-narrows
  name: Kent Narrows
  state: md
  kind: cdp
  geo: {lat: 38.97648, lng: -76.24341}
- id: '2443900'
  slug: kettering
  name: Kettering
  state: md
  kind: cdp
  geo: {lat: 38.88966, lng: -76.7903}
- id: '2444325'
  slug: kingstown
  name: Kingstown
  state: md
  kind: cdp
  geo: {lat: 39.20763, lng: -76.04391}
- id: '2444350'
  slug: kingsville
  name: Kingsville
  state: md
  kind: cdp
  geo: {lat: 39.45191, lng: -76.43034}
- id: '2444450'
  slug: kitzmiller
  name: Kitzmiller
  state: md
  kind: town
  geo: {lat: 39.38916, lng: -79.18328}
- id: '2444525'
  slug: klondike
  name: Klondike
  state: md
  kind: cdp
  geo: {lat: 39.61025, lng: -78.96314}
- id: '2444715'
  slug: konterra
  name: Konterra
  state: md
  kind: cdp
  geo: {lat: 39.0808, lng: -76.89957}
- id: '2445750'
  slug: la-plata
  name: La Plata
  state: md
  kind: town
  geo: {lat: 38.54347, lng: -76.96979}
- id: '2446075'
  slug: la-vale
  name: La Vale
  state: md
  kind: cdp
  geo: {lat: 39.67164, lng: -78.82676}
- id: '2444817'
  slug: lake-arbor
  name: Lake Arbor
  state: md
  kind: cdp
  geo: {lat: 38.90957, lng: -76.83024}
- id: '2444975'
  slug: lake-shore
  name: Lake Shore
  state: md
  kind: cdp
  geo: {lat: 39.09198, lng: -76.48963}
- id: '2445325'
  slug: landover
  name: Landover
  state: md
  kind: cdp
  geo: {lat: 38.92439, lng: -76.8876}
- id: '2445400'
  slug: landover-hills
  name: Landover Hills
  state: md
  kind: town
  geo: {lat: 38.94278, lng: -76.89411}
- id: '2445525'
  slug: langley-park
  name: Langley Park
  state: md
  kind: cdp
  geo: {lat: 38.9895, lng: -76.98074}
- id: '2445550'
  slug: lanham
  name: Lanham
  state: md
  kind: cdp
  geo: {lat: 38.96212, lng: -76.83917}
- id: '2445650'
  slug: lansdowne
  name: Lansdowne
  state: md
  kind: cdp
  geo: {lat: 39.23557, lng: -76.66463}
- id: '2445825'
  slug: largo
  name: Largo
  state: md
  kind: cdp
  geo: {lat: 38.88035, lng: -76.82927}
- id: '2445900'
  slug: laurel
  name: Laurel
  state: md
  kind: city
  geo: {lat: 39.09508, lng: -76.86124}
- id: '2446150'
  slug: layhill
  name: Layhill
  state: md
  kind: cdp
  geo: {lat: 39.08965, lng: -77.03997}
- id: '2446250'
  slug: laytonsville
  name: Laytonsville
  state: md
  kind: town
  geo: {lat: 39.20873, lng: -77.13494}
- id: '2446375'
  slug: leisure-world
  name: Leisure World
  state: md
  kind: cdp
  geo: {lat: 39.10408, lng: -77.06894}
- id: '2446400'
  slug: leitersburg
  name: Leitersburg
  state: md
  kind: cdp
  geo: {lat: 39.69281, lng: -77.62064}
- id: '2446475'
  slug: leonardtown
  name: Leonardtown
  state: md
  kind: town
  geo: {lat: 38.30389, lng: -76.63965}
- id: '2446650'
  slug: lewistown
  name: Lewistown
  state: md
  kind: cdp
  geo: {lat: 39.54021, lng: -77.42055}
- id: '2446725'
  slug: lexington-park
  name: Lexington Park
  state: md
  kind: cdp
  geo: {lat: 38.24945, lng: -76.44352}
- id: '2446800'
  slug: libertytown
  name: Libertytown
  state: md
  kind: cdp
  geo: {lat: 39.48911, lng: -77.25692}
- id: '2447040'
  slug: linganore
  name: Linganore
  state: md
  kind: cdp
  geo: {lat: 39.41366, lng: -77.30123}
- id: '2447125'
  slug: linthicum
  name: Linthicum
  state: md
  kind: cdp
  geo: {lat: 39.20957, lng: -76.66474}
- id: '2447250'
  slug: lisbon
  name: Lisbon
  state: md
  kind: cdp
  geo: {lat: 39.33663, lng: -77.07049}
- id: '2447275'
  slug: little-orleans
  name: Little Orleans
  state: md
  kind: cdp
  geo: {lat: 39.63051, lng: -78.39584}
- id: '2447525'
  slug: loch-lynn-heights
  name: Loch Lynn Heights
  state: md
  kind: town
  geo: {lat: 39.39183, lng: -79.37267}
- id: '2447450'
  slug: lochearn
  name: Lochearn
  state: md
  kind: cdp
  geo: {lat: 39.34793, lng: -76.72721}
- id: '2447875'
  slug: lonaconing
  name: Lonaconing
  state: md
  kind: town
  geo: {lat: 39.56558, lng: -78.97879}
- id: '2448025'
  slug: long-beach
  name: Long Beach
  state: md
  kind: cdp
  geo: {lat: 38.45884, lng: -76.47364}
- id: '2448775'
  slug: luke
  name: Luke
  state: md
  kind: town
  geo: {lat: 39.47878, lng: -79.0589}
- id: '2448800'
  slug: lusby
  name: Lusby
  state: md
  kind: cdp
  geo: {lat: 38.36236, lng: -76.43792}
- id: '2448875'
  slug: lutherville
  name: Lutherville
  state: md
  kind: cdp
  geo: {lat: 39.42397, lng: -76.61767}
- id: '2449700'
  slug: madison
  name: Madison
  state: md
  kind: cdp
  geo: {lat: 38.50893, lng: -76.20422}
- id: '2449950'
  slug: manchester
  name: Manchester
  state: md
  kind: town
  geo: {lat: 39.65316, lng: -76.88674}
- id: '2450375'
  slug: mapleville
  name: Mapleville
  state: md
  kind: cdp
  geo: {lat: 39.5357, lng: -77.64624}
- id: '2450525'
  slug: mardela-springs
  name: Mardela Springs
  state: md
  kind: town
  geo: {lat: 38.45763, lng: -75.75548}
- id: '2450680'
  slug: marlboro-meadows
  name: Marlboro Meadows
  state: md
  kind: cdp
  geo: {lat: 38.84185, lng: -76.71196}
- id: '2450685'
  slug: marlboro-village
  name: Marlboro Village
  state: md
  kind: cdp
  geo: {lat: 38.8349, lng: -76.76882}
- id: '2450750'
  slug: marlow-heights
  name: Marlow Heights
  state: md
  kind: cdp
  geo: {lat: 38.82112, lng: -76.94429}
- id: '2450775'
  slug: marlton
  name: Marlton
  state: md
  kind: cdp
  geo: {lat: 38.76109, lng: -76.78654}
- id: '2450965'
  slug: martin-s-additions
  name: Martin's Additions
  state: md
  kind: village
  geo: {lat: 38.97937, lng: -77.06928}
- id: '2451025'
  slug: marydel
  name: Marydel
  state: md
  kind: town
  geo: {lat: 39.11307, lng: -75.74951}
- id: '2451075'
  slug: maryland-city
  name: Maryland City
  state: md
  kind: cdp
  geo: {lat: 39.10161, lng: -76.80519}
- id: '2451125'
  slug: maryland-park
  name: Maryland Park
  state: md
  kind: cdp
  geo: {lat: 38.88901, lng: -76.90755}
- id: '2451425'
  slug: maugansville
  name: Maugansville
  state: md
  kind: cdp
  geo: {lat: 39.69368, lng: -77.74715}
- id: '2451575'
  slug: mayo
  name: Mayo
  state: md
  kind: cdp
  geo: {lat: 38.90444, lng: -76.51284}
- id: '2451587'
  slug: mays-chapel
  name: Mays Chapel
  state: md
  kind: cdp
  geo: {lat: 39.44252, lng: -76.65863}
- id: '2449325'
  slug: mccoole
  name: McCoole
  state: md
  kind: cdp
  geo: {lat: 39.45336, lng: -78.97309}
- id: '2451800'
  slug: mechanicsville
  name: Mechanicsville
  state: md
  kind: cdp
  geo: {lat: 38.42743, lng: -76.74664}
- id: '2451940'
  slug: melwood
  name: Melwood
  state: md
  kind: cdp
  geo: {lat: 38.80189, lng: -76.84162}
- id: '2451945'
  slug: mercersville
  name: Mercersville
  state: md
  kind: cdp
  geo: {lat: 39.49921, lng: -77.76583}
- id: '2452300'
  slug: middle-river
  name: Middle River
  state: md
  kind: cdp
  geo: {lat: 39.33952, lng: -76.4287}
- id: '2452225'
  slug: middleburg
  name: Middleburg
  state: md
  kind: cdp
  geo: {lat: 39.71768, lng: -77.72388}
- id: '2452425'
  slug: middletown
  name: Middletown
  state: md
  kind: town
  geo: {lat: 39.44134, lng: -77.53522}
- id: '2452475'
  slug: midland
  name: Midland
  state: md
  kind: town
  geo: {lat: 39.58962, lng: -78.9487}
- id: '2452525'
  slug: midlothian
  name: Midlothian
  state: md
  kind: cdp
  geo: {lat: 39.63187, lng: -78.9515}
- id: '2452562'
  slug: milford-mill
  name: Milford Mill
  state: md
  kind: cdp
  geo: {lat: 39.348, lng: -76.76941}
- id: '2452825'
  slug: millington
  name: Millington
  state: md
  kind: town
  geo: {lat: 39.26144, lng: -75.84259}
- id: '2452975'
  slug: mitchellville
  name: Mitchellville
  state: md
  kind: cdp
  geo: {lat: 38.93643, lng: -76.80825}
- id: '2453100'
  slug: monrovia
  name: Monrovia
  state: md
  kind: cdp
  geo: {lat: 39.35946, lng: -77.27489}
- id: '2453325'
  slug: montgomery-village
  name: Montgomery Village
  state: md
  kind: cdp
  geo: {lat: 39.18851, lng: -77.20514}
- id: '2453625'
  slug: morningside
  name: Morningside
  state: md
  kind: town
  geo: {lat: 38.82659, lng: -76.88962}
- id: '2453700'
  slug: moscow
  name: Moscow
  state: md
  kind: cdp
  geo: {lat: 39.53829, lng: -79.00967}
- id: '2453750'
  slug: mount-aetna
  name: Mount Aetna
  state: md
  kind: cdp
  geo: {lat: 39.59888, lng: -77.61277}
- id: '2453875'
  slug: mount-airy
  name: Mount Airy
  state: md
  kind: town
  geo: {lat: 39.37469, lng: -77.15381}
- id: '2453925'
  slug: mount-briar
  name: Mount Briar
  state: md
  kind: cdp
  geo: {lat: 39.44257, lng: -77.68735}
- id: '2454125'
  slug: mount-lena
  name: Mount Lena
  state: md
  kind: cdp
  geo: {lat: 39.55403, lng: -77.62189}
- id: '2454275'
  slug: mount-rainier
  name: Mount Rainier
  state: md
  kind: city
  geo: {lat: 38.94236, lng: -76.96458}
- id: '2454325'
  slug: mount-savage
  name: Mount Savage
  state: md
  kind: cdp
  geo: {lat: 39.69668, lng: -78.87683}
- id: '2454375'
  slug: mount-vernon
  name: Mount Vernon
  state: md
  kind: cdp
  geo: {lat: 38.23956, lng: -75.78531}
- id: '2453800'
  slug: mountain-lake-park
  name: Mountain Lake Park
  state: md
  kind: town
  geo: {lat: 39.40003, lng: -79.38105}
- id: '2454875'
  slug: myersville
  name: Myersville
  state: md
  kind: town
  geo: {lat: 39.50326, lng: -77.56895}
- id: '2454925'
  slug: nanticoke
  name: Nanticoke
  state: md
  kind: cdp
  geo: {lat: 38.26549, lng: -75.88697}
- id: '2454930'
  slug: nanticoke-acres
  name: Nanticoke Acres
  state: md
  kind: cdp
  geo: {lat: 38.25787, lng: -75.90584}
- id: '2455000'
  slug: national
  name: National
  state: md
  kind: cdp
  geo: {lat: 39.61193, lng: -78.94044}
- id: '2455018'
  slug: national-harbor
  name: National Harbor
  state: md
  kind: cdp
  geo: {lat: 38.78323, lng: -77.00811}
- id: '2455050'
  slug: naval-academy
  name: Naval Academy
  state: md
  kind: cdp
  geo: {lat: 38.98478, lng: -76.48263}
- id: '2455400'
  slug: new-carrollton
  name: New Carrollton
  state: md
  kind: city
  geo: {lat: 38.9656, lng: -76.87751}
- id: '2455650'
  slug: new-market
  name: New Market
  state: md
  kind: town
  geo: {lat: 39.39142, lng: -77.27343}
- id: '2455925'
  slug: new-windsor
  name: New Windsor
  state: md
  kind: town
  geo: {lat: 39.54295, lng: -77.09916}
- id: '2455325'
  slug: newark
  name: Newark
  state: md
  kind: cdp
  geo: {lat: 38.26811, lng: -75.28864}
- id: '2455950'
  slug: nikep
  name: Nikep
  state: md
  kind: cdp
  geo: {lat: 39.55157, lng: -78.99773}
- id: '2456300'
  slug: north-beach
  name: North Beach
  state: md
  kind: town
  geo: {lat: 38.70774, lng: -76.5345}
- id: '2456337'
  slug: north-bethesda
  name: North Bethesda
  state: md
  kind: cdp
  geo: {lat: 39.03675, lng: -77.12034}
- id: '2456375'
  slug: north-brentwood
  name: North Brentwood
  state: md
  kind: town
  geo: {lat: 38.94481, lng: -76.95074}
- id: '2456400'
  slug: north-chevy-chase
  name: North Chevy Chase
  state: md
  kind: village
  geo: {lat: 39.00205, lng: -77.07405}
- id: '2456450'
  slug: north-east
  name: North East
  state: md
  kind: town
  geo: {lat: 39.60804, lng: -75.94165}
- id: '2456712'
  slug: north-kensington
  name: North Kensington
  state: md
  kind: cdp
  geo: {lat: 39.0392, lng: -77.07156}
- id: '2456725'
  slug: north-laurel
  name: North Laurel
  state: md
  kind: cdp
  geo: {lat: 39.12885, lng: -76.8466}
- id: '2456875'
  slug: north-potomac
  name: North Potomac
  state: md
  kind: cdp
  geo: {lat: 39.09677, lng: -77.2385}
- id: '2457650'
  slug: oakland
  name: Oakland
  state: md
  kind: town
  geo: {lat: 39.41714, lng: -79.40235}
- id: '2458215'
  slug: ocean
  name: Ocean
  state: md
  kind: cdp
  geo: {lat: 39.60153, lng: -78.94503}
- id: '2458225'
  slug: ocean-city
  name: Ocean City
  state: md
  kind: town
  geo: {lat: 38.39312, lng: -75.07121}
- id: '2458275'
  slug: ocean-pines
  name: Ocean Pines
  state: md
  kind: cdp
  geo: {lat: 38.38478, lng: -75.14801}
- id: '2458300'
  slug: odenton
  name: Odenton
  state: md
  kind: cdp
  geo: {lat: 39.06626, lng: -76.69379}
- id: '2458775'
  slug: oldtown
  name: Oldtown
  state: md
  kind: cdp
  geo: {lat: 39.54497, lng: -78.61474}
- id: '2458900'
  slug: olney
  name: Olney
  state: md
  kind: cdp
  geo: {lat: 39.14434, lng: -77.07143}
- id: '2459325'
  slug: overlea
  name: Overlea
  state: md
  kind: cdp
  geo: {lat: 39.36414, lng: -76.51755}
- id: '2459375'
  slug: owings
  name: Owings
  state: md
  kind: cdp
  geo: {lat: 38.71191, lng: -76.60372}
- id: '2459425'
  slug: owings-mills
  name: Owings Mills
  state: md
  kind: cdp
  geo: {lat: 39.41049, lng: -76.78937}
- id: '2459450'
  slug: oxford
  name: Oxford
  state: md
  kind: town
  geo: {lat: 38.68741, lng: -76.16818}
- id: '2459500'
  slug: oxon-hill
  name: Oxon Hill
  state: md
  kind: cdp
  geo: {lat: 38.78879, lng: -76.97186}
- id: '2459787'
  slug: paramount-long-meadow
  name: Paramount-Long Meadow
  state: md
  kind: cdp
  geo: {lat: 39.67978, lng: -77.69211}
- id: '2460275'
  slug: parkville
  name: Parkville
  state: md
  kind: cdp
  geo: {lat: 39.3832, lng: -76.55188}
- id: '2460325'
  slug: parole
  name: Parole
  state: md
  kind: cdp
  geo: {lat: 38.98794, lng: -76.55272}
- id: '2460425'
  slug: parsonsburg
  name: Parsonsburg
  state: md
  kind: cdp
  geo: {lat: 38.39167, lng: -75.47958}
- id: '2460475'
  slug: pasadena
  name: Pasadena
  state: md
  kind: cdp
  geo: {lat: 39.1557, lng: -76.55981}
- id: '2460770'
  slug: pecktonville
  name: Pecktonville
  state: md
  kind: cdp
  geo: {lat: 39.66597, lng: -78.04818}
- id: '2460950'
  slug: peppermill-village
  name: Peppermill Village
  state: md
  kind: cdp
  geo: {lat: 38.894, lng: -76.88769}
- id: '2460975'
  slug: perry-hall
  name: Perry Hall
  state: md
  kind: cdp
  geo: {lat: 39.40674, lng: -76.47779}
- id: '2461075'
  slug: perryman
  name: Perryman
  state: md
  kind: cdp
  geo: {lat: 39.46468, lng: -76.21586}
- id: '2461150'
  slug: perryville
  name: Perryville
  state: md
  kind: town
  geo: {lat: 39.57297, lng: -76.06492}
- id: '2461400'
  slug: pikesville
  name: Pikesville
  state: md
  kind: cdp
  geo: {lat: 39.39177, lng: -76.69963}
- id: '2461700'
  slug: pinesburg
  name: Pinesburg
  state: md
  kind: cdp
  geo: {lat: 39.62689, lng: -77.85612}
- id: '2461875'
  slug: piney-point
  name: Piney Point
  state: md
  kind: cdp
  geo: {lat: 38.14785, lng: -76.52228}
- id: '2462025'
  slug: pittsville
  name: Pittsville
  state: md
  kind: town
  geo: {lat: 38.394, lng: -75.40718}
- id: '2462100'
  slug: pleasant-grove
  name: Pleasant Grove
  state: md
  kind: cdp
  geo: {lat: 39.6802, lng: -78.69051}
- id: '2462175'
  slug: pleasant-hills
  name: Pleasant Hills
  state: md
  kind: cdp
  geo: {lat: 39.48618, lng: -76.39393}
- id: '2462475'
  slug: pocomoke-city
  name: Pocomoke City
  state: md
  kind: city
  geo: {lat: 38.06318, lng: -75.5592}
- id: '2462575'
  slug: point-of-rocks
  name: Point of Rocks
  state: md
  kind: cdp
  geo: {lat: 39.27819, lng: -77.5291}
- id: '2462675'
  slug: pomfret
  name: Pomfret
  state: md
  kind: cdp
  geo: {lat: 38.5699, lng: -77.03037}
- id: '2462775'
  slug: pondsville
  name: Pondsville
  state: md
  kind: cdp
  geo: {lat: 39.62341, lng: -77.59162}
- id: '2462850'
  slug: poolesville
  name: Poolesville
  state: md
  kind: town
  geo: {lat: 39.14367, lng: -77.41165}
- id: '2463075'
  slug: port-deposit
  name: Port Deposit
  state: md
  kind: town
  geo: {lat: 39.61102, lng: -76.09901}
- id: '2463225'
  slug: port-tobacco-village
  name: Port Tobacco Village
  state: md
  kind: town
  geo: {lat: 38.51229, lng: -77.02049}
- id: '2463300'
  slug: potomac
  name: Potomac
  state: md
  kind: cdp
  geo: {lat: 39.01333, lng: -77.19358}
- id: '2463375'
  slug: potomac-heights
  name: Potomac Heights
  state: md
  kind: cdp
  geo: {lat: 38.59821, lng: -77.13233}
- id: '2463425'
  slug: potomac-park
  name: Potomac Park
  state: md
  kind: cdp
  geo: {lat: 39.61259, lng: -78.80825}
- id: '2463725'
  slug: powellville
  name: Powellville
  state: md
  kind: cdp
  geo: {lat: 38.33007, lng: -75.3747}
- id: '2463825'
  slug: preston
  name: Preston
  state: md
  kind: town
  geo: {lat: 38.71021, lng: -75.90753}
- id: '2463950'
  slug: prince-frederick
  name: Prince Frederick
  state: md
  kind: cdp
  geo: {lat: 38.54379, lng: -76.58791}
- id: '2464000'
  slug: princess-anne
  name: Princess Anne
  state: md
  kind: town
  geo: {lat: 38.20514, lng: -75.69638}
- id: '2464375'
  slug: pylesville
  name: Pylesville
  state: md
  kind: cdp
  geo: {lat: 39.68792, lng: -76.38843}
- id: '2464475'
  slug: quantico
  name: Quantico
  state: md
  kind: cdp
  geo: {lat: 38.37998, lng: -75.75501}
- id: '2464495'
  slug: queen-anne-4495
  name: Queen Anne
  state: md
  kind: cdp
  geo: {lat: 38.90645, lng: -76.70627}
- id: '2464500'
  slug: queen-anne-4500
  name: Queen Anne
  state: md
  kind: town
  geo: {lat: 38.91907, lng: -75.95357}
- id: '2464568'
  slug: queensland
  name: Queensland
  state: md
  kind: cdp
  geo: {lat: 38.79519, lng: -76.79563}
- id: '2464600'
  slug: queenstown
  name: Queenstown
  state: md
  kind: town
  geo: {lat: 38.98673, lng: -76.16334}
- id: '2464950'
  slug: randallstown
  name: Randallstown
  state: md
  kind: cdp
  geo: {lat: 39.37187, lng: -76.80193}
- id: '2465150'
  slug: rawlings
  name: Rawlings
  state: md
  kind: cdp
  geo: {lat: 39.53923, lng: -78.88676}
- id: '2465312'
  slug: redland
  name: Redland
  state: md
  kind: cdp
  geo: {lat: 39.13287, lng: -77.14545}
- id: '2465550'
  slug: reid
  name: Reid
  state: md
  kind: cdp
  geo: {lat: 39.71251, lng: -77.67931}
- id: '2465600'
  slug: reisterstown
  name: Reisterstown
  state: md
  kind: cdp
  geo: {lat: 39.45411, lng: -76.81602}
- id: '2466000'
  slug: ridgely
  name: Ridgely
  state: md
  kind: town
  geo: {lat: 38.95293, lng: -75.8827}
- id: '2466150'
  slug: ringgold
  name: Ringgold
  state: md
  kind: cdp
  geo: {lat: 39.70917, lng: -77.56889}
- id: '2466275'
  slug: rising-sun
  name: Rising Sun
  state: md
  kind: town
  geo: {lat: 39.7014, lng: -76.06018}
- id: '2466400'
  slug: riva
  name: Riva
  state: md
  kind: cdp
  geo: {lat: 38.94522, lng: -76.58993}
- id: '2466635'
  slug: riverdale-park
  name: Riverdale Park
  state: md
  kind: town
  geo: {lat: 38.96671, lng: -76.92715}
- id: '2466762'
  slug: riverside
  name: Riverside
  state: md
  kind: cdp
  geo: {lat: 39.48065, lng: -76.24187}
- id: '2466850'
  slug: riviera-beach
  name: Riviera Beach
  state: md
  kind: cdp
  geo: {lat: 39.16454, lng: -76.52742}
- id: '2467000'
  slug: robinwood
  name: Robinwood
  state: md
  kind: cdp
  geo: {lat: 39.62647, lng: -77.66267}
- id: '2467400'
  slug: rock-hall
  name: Rock Hall
  state: md
  kind: town
  geo: {lat: 39.14054, lng: -76.24049}
- id: '2467500'
  slug: rock-point
  name: Rock Point
  state: md
  kind: cdp
  geo: {lat: 38.27547, lng: -76.84275}
- id: '2467675'
  slug: rockville
  name: Rockville
  state: md
  kind: city
  geo: {lat: 39.08367, lng: -77.15559}
- id: '2467950'
  slug: rohrersville
  name: Rohrersville
  state: md
  kind: cdp
  geo: {lat: 39.4349, lng: -77.66547}
- id: '2468265'
  slug: romancoke
  name: Romancoke
  state: md
  kind: cdp
  geo: {lat: 38.89182, lng: -76.36078}
- id: '2468300'
  slug: rosaryville
  name: Rosaryville
  state: md
  kind: cdp
  geo: {lat: 38.7676, lng: -76.82809}
- id: '2468400'
  slug: rosedale
  name: Rosedale
  state: md
  kind: cdp
  geo: {lat: 39.32716, lng: -76.50838}
- id: '2468600'
  slug: rosemont
  name: Rosemont
  state: md
  kind: village
  geo: {lat: 39.33373, lng: -77.62276}
- id: '2468700'
  slug: rossville
  name: Rossville
  state: md
  kind: cdp
  geo: {lat: 39.35657, lng: -76.47789}
- id: '2469200'
  slug: sabillasville
  name: Sabillasville
  state: md
  kind: cdp
  geo: {lat: 39.69936, lng: -77.45728}
- id: '2469925'
  slug: salisbury
  name: Salisbury
  state: md
  kind: city
  geo: {lat: 38.3752, lng: -75.58656}
- id: '2470300'
  slug: san-mar
  name: San Mar
  state: md
  kind: cdp
  geo: {lat: 39.55222, lng: -77.6409}
- id: '2470175'
  slug: sandy-hook
  name: Sandy Hook
  state: md
  kind: cdp
  geo: {lat: 39.3285, lng: -77.70515}
- id: '2470475'
  slug: savage
  name: Savage
  state: md
  kind: cdp
  geo: {lat: 39.14646, lng: -76.82164}
- id: '2470525'
  slug: scaggsville
  name: Scaggsville
  state: md
  kind: cdp
  geo: {lat: 39.14065, lng: -76.88258}
- id: '2470775'
  slug: seabrook
  name: Seabrook
  state: md
  kind: cdp
  geo: {lat: 38.98211, lng: -76.85111}
- id: '2470850'
  slug: seat-pleasant
  name: Seat Pleasant
  state: md
  kind: city
  geo: {lat: 38.89469, lng: -76.89945}
- id: '2470900'
  slug: secretary
  name: Secretary
  state: md
  kind: town
  geo: {lat: 38.60819, lng: -75.94696}
- id: '2471150'
  slug: severn
  name: Severn
  state: md
  kind: cdp
  geo: {lat: 39.13558, lng: -76.6956}
- id: '2471200'
  slug: severna-park
  name: Severna Park
  state: md
  kind: cdp
  geo: {lat: 39.08663, lng: -76.56488}
- id: '2471450'
  slug: shady-side
  name: Shady Side
  state: md
  kind: cdp
  geo: {lat: 38.82901, lng: -76.51965}
- id: '2471460'
  slug: shaft
  name: Shaft
  state: md
  kind: cdp
  geo: {lat: 39.62232, lng: -78.94289}
- id: '2471600'
  slug: sharpsburg
  name: Sharpsburg
  state: md
  kind: town
  geo: {lat: 39.45766, lng: -77.74927}
- id: '2471650'
  slug: sharptown
  name: Sharptown
  state: md
  kind: town
  geo: {lat: 38.53819, lng: -75.71896}
- id: '2472350'
  slug: silver-hill
  name: Silver Hill
  state: md
  kind: cdp
  geo: {lat: 38.83984, lng: -76.93859}
- id: '2472450'
  slug: silver-spring
  name: Silver Spring
  state: md
  kind: cdp
  geo: {lat: 39.00244, lng: -77.02079}
- id: '2472887'
  slug: smith-island
  name: Smith Island
  state: md
  kind: cdp
  geo: {lat: 37.97722, lng: -76.02879}
- id: '2472900'
  slug: smithsburg
  name: Smithsburg
  state: md
  kind: town
  geo: {lat: 39.65473, lng: -77.57994}
- id: '2473075'
  slug: snow-hill
  name: Snow Hill
  state: md
  kind: town
  geo: {lat: 38.17252, lng: -75.3904}
- id: '2473325'
  slug: solomons
  name: Solomons
  state: md
  kind: cdp
  geo: {lat: 38.33909, lng: -76.4619}
- id: '2473350'
  slug: somerset
  name: Somerset
  state: md
  kind: town
  geo: {lat: 38.96662, lng: -77.09624}
- id: '2473600'
  slug: south-kensington
  name: South Kensington
  state: md
  kind: cdp
  geo: {lat: 39.01615, lng: -77.06629}
- id: '2473650'
  slug: south-laurel
  name: South Laurel
  state: md
  kind: cdp
  geo: {lat: 39.06147, lng: -76.84619}
- id: '2474050'
  slug: spencerville
  name: Spencerville
  state: md
  kind: cdp
  geo: {lat: 39.12002, lng: -76.98353}
- id: '2474350'
  slug: spring-gap
  name: Spring Gap
  state: md
  kind: cdp
  geo: {lat: 39.56533, lng: -78.70533}
- id: '2474560'
  slug: spring-ridge
  name: Spring Ridge
  state: md
  kind: cdp
  geo: {lat: 39.40504, lng: -77.33988}
- id: '2474282'
  slug: springdale
  name: Springdale
  state: md
  kind: cdp
  geo: {lat: 38.9358, lng: -76.84423}
- id: '2469425'
  slug: st-george-island
  name: St. George Island
  state: md
  kind: cdp
  geo: {lat: 38.11554, lng: -76.47697}
- id: '2469550'
  slug: st-james
  name: St. James
  state: md
  kind: cdp
  geo: {lat: 39.57382, lng: -77.74825}
- id: '2469675'
  slug: st-leonard
  name: St. Leonard
  state: md
  kind: cdp
  geo: {lat: 38.46737, lng: -76.49863}
- id: '2469825'
  slug: st-michaels
  name: St. Michaels
  state: md
  kind: town
  geo: {lat: 38.78845, lng: -76.22262}
- id: '2475025'
  slug: stevensville
  name: Stevensville
  state: md
  kind: cdp
  geo: {lat: 38.97444, lng: -76.31851}
- id: '2475150'
  slug: still-pond
  name: Still Pond
  state: md
  kind: cdp
  geo: {lat: 39.32596, lng: -76.04236}
- id: '2475200'
  slug: stockton
  name: Stockton
  state: md
  kind: cdp
  geo: {lat: 38.06539, lng: -75.40842}
- id: '2475650'
  slug: sudlersville
  name: Sudlersville
  state: md
  kind: town
  geo: {lat: 39.18326, lng: -75.85354}
- id: '2475725'
  slug: suitland
  name: Suitland
  state: md
  kind: cdp
  geo: {lat: 38.84862, lng: -76.92252}
- id: '2475810'
  slug: summerfield
  name: Summerfield
  state: md
  kind: cdp
  geo: {lat: 38.90454, lng: -76.8683}
- id: '2476450'
  slug: swanton
  name: Swanton
  state: md
  kind: cdp
  geo: {lat: 39.45986, lng: -79.2327}
- id: '2476550'
  slug: sykesville
  name: Sykesville
  state: md
  kind: town
  geo: {lat: 39.37207, lng: -76.97172}
- id: '2476650'
  slug: takoma-park
  name: Takoma Park
  state: md
  kind: city
  geo: {lat: 38.98031, lng: -77.00233}
- id: '2476675'
  slug: tall-timbers
  name: Tall Timbers
  state: md
  kind: cdp
  geo: {lat: 38.16978, lng: -76.53928}
- id: '2476725'
  slug: taneytown
  name: Taneytown
  state: md
  kind: city
  geo: {lat: 39.65752, lng: -77.16897}
- id: '2476925'
  slug: taylors-island
  name: Taylors Island
  state: md
  kind: cdp
  geo: {lat: 38.47113, lng: -76.31601}
- id: '2477100'
  slug: temple-hills
  name: Temple Hills
  state: md
  kind: cdp
  geo: {lat: 38.81055, lng: -76.94948}
- id: '2477200'
  slug: templeville
  name: Templeville
  state: md
  kind: town
  geo: {lat: 39.13636, lng: -75.76685}
- id: '2477262'
  slug: ten-mile-creek
  name: Ten Mile Creek
  state: md
  kind: cdp
  geo: {lat: 39.22936, lng: -77.29821}
- id: '2477825'
  slug: thurmont
  name: Thurmont
  state: md
  kind: town
  geo: {lat: 39.61998, lng: -77.4077}
- id: '2477912'
  slug: tilghman-island
  name: Tilghman Island
  state: md
  kind: cdp
  geo: {lat: 38.70319, lng: -76.33628}
- id: '2477925'
  slug: tilghmanton
  name: Tilghmanton
  state: md
  kind: cdp
  geo: {lat: 39.5286, lng: -77.74368}
- id: '2478050'
  slug: timonium
  name: Timonium
  state: md
  kind: cdp
  geo: {lat: 39.44574, lng: -76.60076}
- id: '2478120'
  slug: tolchester
  name: Tolchester
  state: md
  kind: cdp
  geo: {lat: 39.218, lng: -76.23208}
- id: '2478425'
  slug: towson
  name: Towson
  state: md
  kind: cdp
  geo: {lat: 39.39421, lng: -76.61775}
- id: '2478575'
  slug: trappe
  name: Trappe
  state: md
  kind: town
  geo: {lat: 38.66346, lng: -76.05192}
- id: '2478650'
  slug: travilah
  name: Travilah
  state: md
  kind: cdp
  geo: {lat: 39.05926, lng: -77.25063}
- id: '2478705'
  slug: trego-rohrersville-station
  name: Trego-Rohrersville Station
  state: md
  kind: cdp
  geo: {lat: 39.42911, lng: -77.67485}
- id: '2479225'
  slug: tyaskin
  name: Tyaskin
  state: md
  kind: cdp
  geo: {lat: 38.32041, lng: -75.87264}
- id: '2479350'
  slug: union-bridge
  name: Union Bridge
  state: md
  kind: town
  geo: {lat: 39.57103, lng: -77.17275}
- id: '2479675'
  slug: university-park
  name: University Park
  state: md
  kind: town
  geo: {lat: 38.97187, lng: -76.94443}
- id: '2479875'
  slug: upper-marlboro
  name: Upper Marlboro
  state: md
  kind: town
  geo: {lat: 38.8165, lng: -76.75367}
- id: '2479900'
  slug: urbana
  name: Urbana
  state: md
  kind: cdp
  geo: {lat: 39.32577, lng: -77.34152}
- id: '2480075'
  slug: vale-summit
  name: Vale Summit
  state: md
  kind: cdp
  geo: {lat: 39.61523, lng: -78.90835}
- id: '2480600'
  slug: vienna
  name: Vienna
  state: md
  kind: town
  geo: {lat: 38.48113, lng: -75.83181}
- id: '2481175'
  slug: waldorf
  name: Waldorf
  state: md
  kind: cdp
  geo: {lat: 38.60917, lng: -76.91978}
- id: '2481250'
  slug: walker-mill
  name: Walker Mill
  state: md
  kind: cdp
  geo: {lat: 38.87564, lng: -76.88544}
- id: '2481275'
  slug: walkersville
  name: Walkersville
  state: md
  kind: town
  geo: {lat: 39.47432, lng: -77.36335}
- id: '2481675'
  slug: washington-grove
  name: Washington Grove
  state: md
  kind: town
  geo: {lat: 39.1407, lng: -77.17453}
- id: '2481925'
  slug: waterview
  name: Waterview
  state: md
  kind: cdp
  geo: {lat: 38.24874, lng: -75.90001}
- id: '2482625'
  slug: west-denton
  name: West Denton
  state: md
  kind: cdp
  geo: {lat: 38.88961, lng: -75.83884}
- id: '2483025'
  slug: west-laurel
  name: West Laurel
  state: md
  kind: cdp
  geo: {lat: 39.11571, lng: -76.89229}
- id: '2483225'
  slug: west-ocean-city
  name: West Ocean City
  state: md
  kind: cdp
  geo: {lat: 38.34732, lng: -75.11124}
- id: '2483337'
  slug: west-pocomoke
  name: West Pocomoke
  state: md
  kind: cdp
  geo: {lat: 38.09653, lng: -75.5792}
- id: '2482750'
  slug: westernport
  name: Westernport
  state: md
  kind: town
  geo: {lat: 39.48747, lng: -79.04209}
- id: '2483100'
  slug: westminster
  name: Westminster
  state: md
  kind: city
  geo: {lat: 39.57915, lng: -77.00669}
- id: '2483290'
  slug: westphalia
  name: Westphalia
  state: md
  kind: cdp
  geo: {lat: 38.84014, lng: -76.82404}
- id: '2483746'
  slug: whaleyville
  name: Whaleyville
  state: md
  kind: cdp
  geo: {lat: 38.38704, lng: -75.29754}
- id: '2483775'
  slug: wheaton
  name: Wheaton
  state: md
  kind: cdp
  geo: {lat: 39.04949, lng: -77.05821}
- id: '2484350'
  slug: white-marsh
  name: White Marsh
  state: md
  kind: cdp
  geo: {lat: 39.38155, lng: -76.45842}
- id: '2484375'
  slug: white-oak
  name: White Oak
  state: md
  kind: cdp
  geo: {lat: 39.04421, lng: -76.98725}
- id: '2484225'
  slug: whitehaven
  name: Whitehaven
  state: md
  kind: cdp
  geo: {lat: 38.26976, lng: -75.79474}
- id: '2484784'
  slug: wildewood
  name: Wildewood
  state: md
  kind: cdp
  geo: {lat: 38.30351, lng: -76.54705}
- id: '2484950'
  slug: willards
  name: Willards
  state: md
  kind: town
  geo: {lat: 38.39243, lng: -75.34941}
- id: '2485100'
  slug: williamsport
  name: Williamsport
  state: md
  kind: town
  geo: {lat: 39.59735, lng: -77.81797}
- id: '2485175'
  slug: williston
  name: Williston
  state: md
  kind: cdp
  geo: {lat: 38.83032, lng: -75.85145}
- id: '2485395'
  slug: wilson-conococheague
  name: Wilson-Conococheague
  state: md
  kind: cdp
  geo: {lat: 39.65125, lng: -77.82707}
- id: '2486275'
  slug: woodland
  name: Woodland
  state: md
  kind: cdp
  geo: {lat: 39.60834, lng: -78.95011}
- id: '2486475'
  slug: woodlawn-6475
  name: Woodlawn
  state: md
  kind: cdp
  geo: {lat: 39.3055, lng: -76.74778}
- id: '2486525'
  slug: woodlawn-6525
  name: Woodlawn
  state: md
  kind: cdp
  geo: {lat: 38.95033, lng: -76.90026}
- id: '2486710'
  slug: woodmore
  name: Woodmore
  state: md
  kind: cdp
  geo: {lat: 38.92341, lng: -76.77793}
- id: '2486750'
  slug: woodsboro
  name: Woodsboro
  state: md
  kind: town
  geo: {lat: 39.53403, lng: -77.30991}
- id: '2487000'
  slug: worton
  name: Worton
  state: md
  kind: cdp
  geo: {lat: 39.27066, lng: -76.09182}
- id: '2487150'
  slug: yarrowsburg
  name: Yarrowsburg
  state: md
  kind: cdp
  geo: {lat: 39.37617, lng: -77.68435}
- id: '2487275'
  slug: zihlman
  name: Zihlman
  state: md
  kind: cdp
  geo: {lat: 39.67402, lng: -78.91313}
