- id: '3700160'
  slug: aberdeen
  name: Aberdeen
  state: nc
  kind: town
  geo: {lat: 35.13459, lng: -79.43545}
- id: '3700440'
  slug: advance
  name: Advance
  state: nc
  kind: cdp
  geo: {lat: 35.94583, lng: -80.39217}
- id: '3700500'
  slug: ahoskie
  name: Ahoskie
  state: nc
  kind: town
  geo: {lat: 36.28413, lng: -76.9901}
- id: '3700640'
  slug: alamance
  name: Alamance
  state: nc
  kind: village
  geo: {lat: 36.02776, lng: -79.48898}
- id: '3700680'
  slug: albemarle
  name: Albemarle
  state: nc
  kind: city
  geo: {lat: 35.35813, lng: -80.19121}
- id: '3700880'
  slug: alexis
  name: Alexis
  state: nc
  kind: cdp
  geo: {lat: 35.39426, lng: -81.12308}
- id: '3701000'
  slug: alliance
  name: Alliance
  state: nc
  kind: town
  geo: {lat: 35.14351, lng: -76.80846}
- id: '3701140'
  slug: altamahaw
  name: Altamahaw
  state: nc
  kind: cdp
  geo: {lat: 36.19388, lng: -79.50665}
- id: '3701340'
  slug: anderson-creek
  name: Anderson Creek
  state: nc
  kind: cdp
  geo: {lat: 35.2771, lng: -78.96024}
- id: '3701380'
  slug: andrews
  name: Andrews
  state: nc
  kind: town
  geo: {lat: 35.19909, lng: -83.82583}
- id: '3701400'
  slug: angier
  name: Angier
  state: nc
  kind: town
  geo: {lat: 35.5119, lng: -78.73995}
- id: '3701420'
  slug: ansonville
  name: Ansonville
  state: nc
  kind: town
  geo: {lat: 35.10418, lng: -80.10969}
- id: '3701520'
  slug: apex
  name: Apex
  state: nc
  kind: town
  geo: {lat: 35.72558, lng: -78.87992}
- id: '3701560'
  slug: aquadale
  name: Aquadale
  state: nc
  kind: cdp
  geo: {lat: 35.22439, lng: -80.22351}
- id: '3701640'
  slug: arapahoe
  name: Arapahoe
  state: nc
  kind: town
  geo: {lat: 35.02146, lng: -76.82596}
- id: '3701720'
  slug: archdale
  name: Archdale
  state: nc
  kind: city
  geo: {lat: 35.90472, lng: -79.95977}
- id: '3701760'
  slug: archer-lodge
  name: Archer Lodge
  state: nc
  kind: town
  geo: {lat: 35.68234, lng: -78.37037}
- id: '3701972'
  slug: arrowhead-beach
  name: Arrowhead Beach
  state: nc
  kind: cdp
  geo: {lat: 36.22714, lng: -76.7029}
- id: '3702080'
  slug: asheboro
  name: Asheboro
  state: nc
  kind: city
  geo: {lat: 35.7026, lng: -79.80412}
- id: '3702140'
  slug: asheville
  name: Asheville
  state: nc
  kind: city
  geo: {lat: 35.57097, lng: -82.55272}
- id: '3702240'
  slug: ashley-heights
  name: Ashley Heights
  state: nc
  kind: cdp
  geo: {lat: 35.08995, lng: -79.37392}
- id: '3702320'
  slug: askewville
  name: Askewville
  state: nc
  kind: town
  geo: {lat: 36.11159, lng: -76.94123}
- id: '3702460'
  slug: atkinson
  name: Atkinson
  state: nc
  kind: town
  geo: {lat: 34.52746, lng: -78.16971}
- id: '3702480'
  slug: atlantic
  name: Atlantic
  state: nc
  kind: cdp
  geo: {lat: 34.88134, lng: -76.34326}
- id: '3702500'
  slug: atlantic-beach
  name: Atlantic Beach
  state: nc
  kind: town
  geo: {lat: 34.7019, lng: -76.74227}
- id: '3702580'
  slug: aulander
  name: Aulander
  state: nc
  kind: town
  geo: {lat: 36.22801, lng: -77.1136}
- id: '3702620'
  slug: aurora
  name: Aurora
  state: nc
  kind: town
  geo: {lat: 35.30285, lng: -76.78933}
- id: '3702700'
  slug: autryville
  name: Autryville
  state: nc
  kind: town
  geo: {lat: 34.99648, lng: -78.64119}
- id: '3702760'
  slug: avery-creek
  name: Avery Creek
  state: nc
  kind: cdp
  geo: {lat: 35.46508, lng: -82.57185}
- id: '3702780'
  slug: avon
  name: Avon
  state: nc
  kind: cdp
  geo: {lat: 35.33665, lng: -75.51206}
- id: '3702840'
  slug: ayden
  name: Ayden
  state: nc
  kind: town
  geo: {lat: 35.46935, lng: -77.41664}
- id: '3702960'
  slug: badin
  name: Badin
  state: nc
  kind: town
  geo: {lat: 35.40715, lng: -80.11834}
- id: '3703020'
  slug: bailey
  name: Bailey
  state: nc
  kind: town
  geo: {lat: 35.78061, lng: -78.11292}
- id: '3703100'
  slug: bakersville
  name: Bakersville
  state: nc
  kind: town
  geo: {lat: 36.01535, lng: -82.15822}
- id: '3703150'
  slug: bald-head-island
  name: Bald Head Island
  state: nc
  kind: village
  geo: {lat: 33.86634, lng: -77.98085}
- id: '3703220'
  slug: balfour
  name: Balfour
  state: nc
  kind: cdp
  geo: {lat: 35.35264, lng: -82.48875}
- id: '3703500'
  slug: banner-elk
  name: Banner Elk
  state: nc
  kind: town
  geo: {lat: 36.15897, lng: -81.86776}
- id: '3703530'
  slug: barbecue
  name: Barbecue
  state: nc
  kind: cdp
  geo: {lat: 35.32521, lng: -79.03794}
- id: '3703640'
  slug: barker-heights
  name: Barker Heights
  state: nc
  kind: cdp
  geo: {lat: 35.30844, lng: -82.44118}
- id: '3703665'
  slug: barker-ten-mile
  name: Barker Ten Mile
  state: nc
  kind: cdp
  geo: {lat: 34.68252, lng: -78.98885}
- id: '3703720'
  slug: barnardsville
  name: Barnardsville
  state: nc
  kind: cdp
  geo: {lat: 35.78192, lng: -82.45554}
- id: '3703840'
  slug: bath
  name: Bath
  state: nc
  kind: town
  geo: {lat: 35.47123, lng: -76.81108}
- id: '3703960'
  slug: bayboro
  name: Bayboro
  state: nc
  kind: town
  geo: {lat: 35.14927, lng: -76.76935}
- id: '3704015'
  slug: bayshore
  name: Bayshore
  state: nc
  kind: cdp
  geo: {lat: 34.28867, lng: -77.8038}
- id: '3704040'
  slug: bayview
  name: Bayview
  state: nc
  kind: cdp
  geo: {lat: 35.44182, lng: -76.79343}
- id: '3704180'
  slug: bear-grass
  name: Bear Grass
  state: nc
  kind: town
  geo: {lat: 35.76642, lng: -77.12888}
- id: '3704260'
  slug: beaufort
  name: Beaufort
  state: nc
  kind: town
  geo: {lat: 34.72271, lng: -76.65117}
- id: '3704510'
  slug: beech-mountain
  name: Beech Mountain
  state: nc
  kind: town
  geo: {lat: 36.21039, lng: -81.88699}
- id: '3704640'
  slug: belhaven
  name: Belhaven
  state: nc
  kind: town
  geo: {lat: 35.54296, lng: -76.62311}
- id: '3704680'
  slug: bell-arthur
  name: Bell Arthur
  state: nc
  kind: cdp
  geo: {lat: 35.59118, lng: -77.5127}
- id: '3704840'
  slug: belmont
  name: Belmont
  state: nc
  kind: city
  geo: {lat: 35.22128, lng: -81.04109}
- id: '3704950'
  slug: belville
  name: Belville
  state: nc
  kind: town
  geo: {lat: 34.21672, lng: -77.99872}
- id: '3704955'
  slug: belvoir
  name: Belvoir
  state: nc
  kind: cdp
  geo: {lat: 35.71108, lng: -77.46993}
- id: '3704960'
  slug: belwood
  name: Belwood
  state: nc
  kind: town
  geo: {lat: 35.48434, lng: -81.52744}
- id: '3705020'
  slug: bennett
  name: Bennett
  state: nc
  kind: cdp
  geo: {lat: 35.57528, lng: -79.53461}
- id: '3705040'
  slug: benson
  name: Benson
  state: nc
  kind: town
  geo: {lat: 35.38709, lng: -78.54087}
- id: '3705049'
  slug: bent-creek
  name: Bent Creek
  state: nc
  kind: cdp
  geo: {lat: 35.51111, lng: -82.61699}
- id: '3705135'
  slug: bermuda-run
  name: Bermuda Run
  state: nc
  kind: town
  geo: {lat: 36.00428, lng: -80.42907}
- id: '3705220'
  slug: bessemer-city
  name: Bessemer City
  state: nc
  kind: city
  geo: {lat: 35.28433, lng: -81.28288}
- id: '3705340'
  slug: bethania
  name: Bethania
  state: nc
  kind: town
  geo: {lat: 36.1798, lng: -80.33486}
- id: '3705460'
  slug: bethel
  name: Bethel
  state: nc
  kind: town
  geo: {lat: 35.80722, lng: -77.37625}
- id: '3705530'
  slug: bethlehem
  name: Bethlehem
  state: nc
  kind: cdp
  geo: {lat: 35.81753, lng: -81.30076}
- id: '3705660'
  slug: beulaville
  name: Beulaville
  state: nc
  kind: town
  geo: {lat: 34.92278, lng: -77.77132}
- id: '3705880'
  slug: biltmore-forest
  name: Biltmore Forest
  state: nc
  kind: town
  geo: {lat: 35.53495, lng: -82.53794}
- id: '3706000'
  slug: biscoe
  name: Biscoe
  state: nc
  kind: town
  geo: {lat: 35.35894, lng: -79.77971}
- id: '3706080'
  slug: black-creek
  name: Black Creek
  state: nc
  kind: town
  geo: {lat: 35.63683, lng: -77.93261}
- id: '3706140'
  slug: black-mountain
  name: Black Mountain
  state: nc
  kind: town
  geo: {lat: 35.61471, lng: -82.32552}
- id: '3706240'
  slug: bladenboro
  name: Bladenboro
  state: nc
  kind: town
  geo: {lat: 34.54087, lng: -78.79466}
- id: '3706500'
  slug: blowing-rock
  name: Blowing Rock
  state: nc
  kind: town
  geo: {lat: 36.12918, lng: -81.66633}
- id: '3706510'
  slug: blue-clay-farms
  name: Blue Clay Farms
  state: nc
  kind: cdp
  geo: {lat: 34.29872, lng: -77.8913}
- id: '3706660'
  slug: boardman
  name: Boardman
  state: nc
  kind: town
  geo: {lat: 34.43014, lng: -78.9426}
- id: '3706740'
  slug: bogue
  name: Bogue
  state: nc
  kind: town
  geo: {lat: 34.69168, lng: -77.02847}
- id: '3706760'
  slug: boiling-spring-lakes
  name: Boiling Spring Lakes
  state: nc
  kind: city
  geo: {lat: 34.03819, lng: -78.0877}
- id: '3706800'
  slug: boiling-springs
  name: Boiling Springs
  state: nc
  kind: town
  geo: {lat: 35.25205, lng: -81.6636}
- id: '3706820'
  slug: bolivia
  name: Bolivia
  state: nc
  kind: town
  geo: {lat: 34.07007, lng: -78.14751}
- id: '3706860'
  slug: bolton
  name: Bolton
  state: nc
  kind: town
  geo: {lat: 34.31738, lng: -78.40075}
- id: '3706980'
  slug: bonnetsville
  name: Bonnetsville
  state: nc
  kind: cdp
  geo: {lat: 35.00568, lng: -78.40186}
- id: '3707080'
  slug: boone
  name: Boone
  state: nc
  kind: town
  geo: {lat: 36.21384, lng: -81.6652}
- id: '3707140'
  slug: boonville
  name: Boonville
  state: nc
  kind: town
  geo: {lat: 36.23396, lng: -80.70932}
- id: '3707220'
  slug: bostic
  name: Bostic
  state: nc
  kind: town
  geo: {lat: 35.36246, lng: -81.83599}
- id: '3707340'
  slug: bowdens
  name: Bowdens
  state: nc
  kind: cdp
  geo: {lat: 35.06187, lng: -78.10837}
- id: '3707400'
  slug: bowmore
  name: Bowmore
  state: nc
  kind: cdp
  geo: {lat: 34.93585, lng: -79.29996}
- id: '3707588'
  slug: brandywine-bay
  name: Brandywine Bay
  state: nc
  kind: cdp
  geo: {lat: 34.73687, lng: -76.83109}
- id: '3707720'
  slug: brevard
  name: Brevard
  state: nc
  kind: city
  geo: {lat: 35.24779, lng: -82.72855}
- id: '3707748'
  slug: briar-chapel
  name: Briar Chapel
  state: nc
  kind: cdp
  geo: {lat: 35.82416, lng: -79.11683}
- id: '3707765'
  slug: brices-creek
  name: Brices Creek
  state: nc
  kind: cdp
  geo: {lat: 35.03696, lng: -77.08192}
- id: '3707860'
  slug: bridgeton
  name: Bridgeton
  state: nc
  kind: town
  geo: {lat: 35.12783, lng: -77.01255}
- id: '3708040'
  slug: broad-creek
  name: Broad Creek
  state: nc
  kind: cdp
  geo: {lat: 34.73411, lng: -76.91903}
- id: '3708080'
  slug: broadway
  name: Broadway
  state: nc
  kind: town
  geo: {lat: 35.45729, lng: -79.05716}
- id: '3708110'
  slug: brogden
  name: Brogden
  state: nc
  kind: cdp
  geo: {lat: 35.29558, lng: -78.02938}
- id: '3708140'
  slug: brookford
  name: Brookford
  state: nc
  kind: town
  geo: {lat: 35.70314, lng: -81.34447}
- id: '3708420'
  slug: brunswick
  name: Brunswick
  state: nc
  kind: town
  geo: {lat: 34.27876, lng: -78.71768}
- id: '3708480'
  slug: bryson-city
  name: Bryson City
  state: nc
  kind: town
  geo: {lat: 35.42661, lng: -83.44727}
- id: '3708760'
  slug: buies-creek
  name: Buies Creek
  state: nc
  kind: cdp
  geo: {lat: 35.40785, lng: -78.74318}
- id: '3708860'
  slug: bunn
  name: Bunn
  state: nc
  kind: town
  geo: {lat: 35.95758, lng: -78.2524}
- id: '3708880'
  slug: bunnlevel
  name: Bunnlevel
  state: nc
  kind: cdp
  geo: {lat: 35.30651, lng: -78.75912}
- id: '3708960'
  slug: burgaw
  name: Burgaw
  state: nc
  kind: town
  geo: {lat: 34.55147, lng: -77.92301}
- id: '3709060'
  slug: burlington
  name: Burlington
  state: nc
  kind: city
  geo: {lat: 36.07613, lng: -79.4683}
- id: '3709140'
  slug: burnsville
  name: Burnsville
  state: nc
  kind: town
  geo: {lat: 35.91631, lng: -82.2977}
- id: '3709360'
  slug: butner
  name: Butner
  state: nc
  kind: town
  geo: {lat: 36.13433, lng: -78.74068}
- id: '3709380'
  slug: butters
  name: Butters
  state: nc
  kind: cdp
  geo: {lat: 34.56651, lng: -78.85113}
- id: '3709400'
  slug: buxton
  name: Buxton
  state: nc
  kind: cdp
  geo: {lat: 35.25329, lng: -75.53831}
- id: '3709530'
  slug: cajah-s-mountain
  name: Cajah's Mountain
  state: nc
  kind: town
  geo: {lat: 35.85071, lng: -81.53619}
- id: '3709540'
  slug: calabash
  name: Calabash
  state: nc
  kind: town
  geo: {lat: 33.90806, lng: -78.54368}
- id: '3709760'
  slug: calypso
  name: Calypso
  state: nc
  kind: town
  geo: {lat: 35.15461, lng: -78.10441}
- id: '3709780'
  slug: camden
  name: Camden
  state: nc
  kind: cdp
  geo: {lat: 36.32519, lng: -76.16919}
- id: '3709800'
  slug: cameron
  name: Cameron
  state: nc
  kind: town
  geo: {lat: 35.32587, lng: -79.25418}
- id: '3710120'
  slug: candor
  name: Candor
  state: nc
  kind: town
  geo: {lat: 35.29639, lng: -79.73252}
- id: '3710240'
  slug: canton
  name: Canton
  state: nc
  kind: town
  geo: {lat: 35.53639, lng: -82.83854}
- id: '3710260'
  slug: cape-carteret
  name: Cape Carteret
  state: nc
  kind: town
  geo: {lat: 34.69432, lng: -77.0602}
- id: '3710264'
  slug: cape-colony
  name: Cape Colony
  state: nc
  kind: cdp
  geo: {lat: 36.01962, lng: -76.58277}
- id: '3710460'
  slug: caroleen
  name: Caroleen
  state: nc
  kind: cdp
  geo: {lat: 35.28109, lng: -81.79137}
- id: '3710500'
  slug: carolina-beach
  name: Carolina Beach
  state: nc
  kind: town
  geo: {lat: 34.04187, lng: -77.89979}
- id: '3710532'
  slug: carolina-meadows
  name: Carolina Meadows
  state: nc
  kind: cdp
  geo: {lat: 35.85968, lng: -79.01772}
- id: '3710550'
  slug: carolina-shores
  name: Carolina Shores
  state: nc
  kind: town
  geo: {lat: 33.90793, lng: -78.57311}
- id: '3710620'
  slug: carrboro
  name: Carrboro
  state: nc
  kind: town
  geo: {lat: 35.92623, lng: -79.087}
- id: '3710680'
  slug: carthage
  name: Carthage
  state: nc
  kind: town
  geo: {lat: 35.32227, lng: -79.41093}
- id: '3710740'
  slug: cary
  name: Cary
  state: nc
  kind: town
  geo: {lat: 35.7813, lng: -78.82344}
- id: '3710760'
  slug: casar
  name: Casar
  state: nc
  kind: town
  geo: {lat: 35.51271, lng: -81.61684}
- id: '3710800'
  slug: cashiers
  name: Cashiers
  state: nc
  kind: cdp
  geo: {lat: 35.10794, lng: -83.098}
- id: '3710860'
  slug: castalia
  name: Castalia
  state: nc
  kind: town
  geo: {lat: 36.08226, lng: -78.05756}
- id: '3710880'
  slug: castle-hayne
  name: Castle Hayne
  state: nc
  kind: cdp
  geo: {lat: 34.35551, lng: -77.90989}
- id: '3710960'
  slug: caswell-beach
  name: Caswell Beach
  state: nc
  kind: town
  geo: {lat: 33.90587, lng: -78.04866}
- id: '3710980'
  slug: catawba
  name: Catawba
  state: nc
  kind: town
  geo: {lat: 35.70762, lng: -81.06955}
- id: '3711340'
  slug: cedar-point
  name: Cedar Point
  state: nc
  kind: town
  geo: {lat: 34.68576, lng: -77.08152}
- id: '3711352'
  slug: cedar-rock
  name: Cedar Rock
  state: nc
  kind: village
  geo: {lat: 35.94346, lng: -81.45837}
- id: '3711560'
  slug: centerville
  name: Centerville
  state: nc
  kind: cdp
  geo: {lat: 36.18802, lng: -78.11444}
- id: '3711620'
  slug: cerro-gordo
  name: Cerro Gordo
  state: nc
  kind: town
  geo: {lat: 34.32259, lng: -78.92872}
- id: '3711640'
  slug: chadbourn
  name: Chadbourn
  state: nc
  kind: town
  geo: {lat: 34.32517, lng: -78.82498}
- id: '3711800'
  slug: chapel-hill
  name: Chapel Hill
  state: nc
  kind: town
  geo: {lat: 35.92833, lng: -79.04138}
- id: '3712000'
  slug: charlotte
  name: Charlotte
  state: nc
  kind: city
  geo: {lat: 35.20905, lng: -80.83099}
- id: '3712140'
  slug: cherokee
  name: Cherokee
  state: nc
  kind: cdp
  geo: {lat: 35.48594, lng: -83.30111}
- id: '3712186'
  slug: cherry-branch
  name: Cherry Branch
  state: nc
  kind: cdp
  geo: {lat: 34.93432, lng: -76.8112}
- id: '3712340'
  slug: cherryville
  name: Cherryville
  state: nc
  kind: city
  geo: {lat: 35.38457, lng: -81.37894}
- id: '3712460'
  slug: chimney-rock-village
  name: Chimney Rock Village
  state: nc
  kind: village
  geo: {lat: 35.45032, lng: -82.25502}
- id: '3712480'
  slug: china-grove
  name: China Grove
  state: nc
  kind: town
  geo: {lat: 35.57228, lng: -80.57486}
- id: '3712520'
  slug: chinquapin
  name: Chinquapin
  state: nc
  kind: cdp
  geo: {lat: 34.82923, lng: -77.8246}
- id: '3712580'
  slug: chocowinity
  name: Chocowinity
  state: nc
  kind: town
  geo: {lat: 35.51464, lng: -77.10147}
- id: '3712590'
  slug: chowan-beach
  name: Chowan Beach
  state: nc
  kind: cdp
  geo: {lat: 36.21393, lng: -76.71241}
- id: '3712720'
  slug: claremont
  name: Claremont
  state: nc
  kind: city
  geo: {lat: 35.70944, lng: -81.15472}
- id: '3712780'
  slug: clarkton
  name: Clarkton
  state: nc
  kind: town
  geo: {lat: 34.48865, lng: -78.65585}
- id: '3712860'
  slug: clayton
  name: Clayton
  state: nc
  kind: town
  geo: {lat: 35.65814, lng: -78.44601}
- id: '3712960'
  slug: clemmons
  name: Clemmons
  state: nc
  kind: village
  geo: {lat: 36.03322, lng: -80.3867}
- id: '3713000'
  slug: cleveland
  name: Cleveland
  state: nc
  kind: town
  geo: {lat: 35.73305, lng: -80.68152}
- id: '3713100'
  slug: cliffside
  name: Cliffside
  state: nc
  kind: cdp
  geo: {lat: 35.248, lng: -81.76529}
- id: '3713240'
  slug: clinton
  name: Clinton
  state: nc
  kind: city
  geo: {lat: 35.00043, lng: -78.33154}
- id: '3713280'
  slug: clyde
  name: Clyde
  state: nc
  kind: town
  geo: {lat: 35.53309, lng: -82.91082}
- id: '3713360'
  slug: coats
  name: Coats
  state: nc
  kind: town
  geo: {lat: 35.40687, lng: -78.66858}
- id: '3713460'
  slug: cofield
  name: Cofield
  state: nc
  kind: village
  geo: {lat: 36.35669, lng: -76.91052}
- id: '3713500'
  slug: coinjock
  name: Coinjock
  state: nc
  kind: cdp
  geo: {lat: 36.35096, lng: -75.95201}
- id: '3713560'
  slug: colerain
  name: Colerain
  state: nc
  kind: town
  geo: {lat: 36.20157, lng: -76.7664}
- id: '3713940'
  slug: columbia
  name: Columbia
  state: nc
  kind: town
  geo: {lat: 35.92341, lng: -76.24048}
- id: '3713980'
  slug: columbus
  name: Columbus
  state: nc
  kind: town
  geo: {lat: 35.25117, lng: -82.20979}
- id: '3714060'
  slug: como
  name: Como
  state: nc
  kind: town
  geo: {lat: 36.49827, lng: -76.99962}
- id: '3714100'
  slug: concord
  name: Concord
  state: nc
  kind: city
  geo: {lat: 35.39209, lng: -80.63551}
- id: '3714200'
  slug: conetoe
  name: Conetoe
  state: nc
  kind: town
  geo: {lat: 35.81786, lng: -77.4571}
- id: '3714280'
  slug: connelly-springs
  name: Connelly Springs
  state: nc
  kind: town
  geo: {lat: 35.75499, lng: -81.49705}
- id: '3714340'
  slug: conover
  name: Conover
  state: nc
  kind: city
  geo: {lat: 35.71504, lng: -81.21534}
- id: '3714400'
  slug: conway
  name: Conway
  state: nc
  kind: town
  geo: {lat: 36.43887, lng: -77.2287}
- id: '3714460'
  slug: cooleemee
  name: Cooleemee
  state: nc
  kind: town
  geo: {lat: 35.81124, lng: -80.55692}
- id: '3714600'
  slug: cordova
  name: Cordova
  state: nc
  kind: cdp
  geo: {lat: 34.91472, lng: -79.81578}
- id: '3714700'
  slug: cornelius
  name: Cornelius
  state: nc
  kind: town
  geo: {lat: 35.47323, lng: -80.88133}
- id: '3715020'
  slug: cove-city
  name: Cove City
  state: nc
  kind: town
  geo: {lat: 35.18897, lng: -77.32052}
- id: '3715040'
  slug: cove-creek
  name: Cove Creek
  state: nc
  kind: cdp
  geo: {lat: 36.28744, lng: -81.78641}
- id: '3715260'
  slug: cramerton
  name: Cramerton
  state: nc
  kind: town
  geo: {lat: 35.23004, lng: -81.07326}
- id: '3715320'
  slug: creedmoor
  name: Creedmoor
  state: nc
  kind: city
  geo: {lat: 36.12503, lng: -78.67795}
- id: '3715420'
  slug: creswell
  name: Creswell
  state: nc
  kind: town
  geo: {lat: 35.87142, lng: -76.39913}
- id: '3715440'
  slug: cricket
  name: Cricket
  state: nc
  kind: cdp
  geo: {lat: 36.16884, lng: -81.1934}
- id: '3715580'
  slug: crossnore
  name: Crossnore
  state: nc
  kind: town
  geo: {lat: 36.0222, lng: -81.93084}
- id: '3715640'
  slug: crouse
  name: Crouse
  state: nc
  kind: cdp
  geo: {lat: 35.42411, lng: -81.30123}
- id: '3715880'
  slug: cullowhee
  name: Cullowhee
  state: nc
  kind: cdp
  geo: {lat: 35.30973, lng: -83.18155}
- id: '3716084'
  slug: cypress-landing
  name: Cypress Landing
  state: nc
  kind: cdp
  geo: {lat: 35.49757, lng: -77.05468}
- id: '3716180'
  slug: dallas
  name: Dallas
  state: nc
  kind: town
  geo: {lat: 35.31793, lng: -81.18318}
- id: '3716220'
  slug: dana
  name: Dana
  state: nc
  kind: cdp
  geo: {lat: 35.3206, lng: -82.36109}
- id: '3716240'
  slug: danbury
  name: Danbury
  state: nc
  kind: town
  geo: {lat: 36.41098, lng: -80.21175}
- id: '3716400'
  slug: davidson
  name: Davidson
  state: nc
  kind: town
  geo: {lat: 35.48038, lng: -80.82095}
- id: '3716480'
  slug: davis
  name: Davis
  state: nc
  kind: cdp
  geo: {lat: 34.79094, lng: -76.46856}
- id: '3716720'
  slug: deep-run
  name: Deep Run
  state: nc
  kind: cdp
  geo: {lat: 35.14143, lng: -77.71619}
- id: '3716730'
  slug: deercroft
  name: Deercroft
  state: nc
  kind: cdp
  geo: {lat: 34.95712, lng: -79.43309}
- id: '3716780'
  slug: delco
  name: Delco
  state: nc
  kind: cdp
  geo: {lat: 34.31882, lng: -78.22666}
- id: '3716860'
  slug: delway
  name: Delway
  state: nc
  kind: cdp
  geo: {lat: 34.81902, lng: -78.21533}
- id: '3716980'
  slug: denton
  name: Denton
  state: nc
  kind: town
  geo: {lat: 35.63799, lng: -80.1102}
- id: '3717000'
  slug: denver
  name: Denver
  state: nc
  kind: cdp
  geo: {lat: 35.54555, lng: -81.04471}
- id: '3717180'
  slug: dillsboro
  name: Dillsboro
  state: nc
  kind: town
  geo: {lat: 35.37061, lng: -83.25262}
- id: '3717325'
  slug: dobbins-heights
  name: Dobbins Heights
  state: nc
  kind: town
  geo: {lat: 34.90688, lng: -79.6933}
- id: '3717340'
  slug: dobson
  name: Dobson
  state: nc
  kind: town
  geo: {lat: 36.39264, lng: -80.72374}
- id: '3717520'
  slug: dortches
  name: Dortches
  state: nc
  kind: town
  geo: {lat: 36.01174, lng: -77.85714}
- id: '3717660'
  slug: dover
  name: Dover
  state: nc
  kind: town
  geo: {lat: 35.21548, lng: -77.43378}
- id: '3717860'
  slug: drexel
  name: Drexel
  state: nc
  kind: town
  geo: {lat: 35.75684, lng: -81.60876}
- id: '3718040'
  slug: dublin
  name: Dublin
  state: nc
  kind: town
  geo: {lat: 34.65625, lng: -78.72309}
- id: '3718060'
  slug: duck
  name: Duck
  state: nc
  kind: town
  geo: {lat: 36.1866, lng: -75.75405}
- id: '3718080'
  slug: dudley
  name: Dudley
  state: nc
  kind: cdp
  geo: {lat: 35.26519, lng: -78.04049}
- id: '3718300'
  slug: dundarrach
  name: Dundarrach
  state: nc
  kind: cdp
  geo: {lat: 34.92467, lng: -79.15746}
- id: '3718320'
  slug: dunn
  name: Dunn
  state: nc
  kind: city
  geo: {lat: 35.31164, lng: -78.61296}
- id: '3719000'
  slug: durham
  name: Durham
  state: nc
  kind: city
  geo: {lat: 35.97793, lng: -78.89811}
- id: '3719140'
  slug: earl
  name: Earl
  state: nc
  kind: town
  geo: {lat: 35.19542, lng: -81.53401}
- id: '3719300'
  slug: east-arcadia
  name: East Arcadia
  state: nc
  kind: town
  geo: {lat: 34.38175, lng: -78.32328}
- id: '3719320'
  slug: east-bend
  name: East Bend
  state: nc
  kind: town
  geo: {lat: 36.21747, lng: -80.5089}
- id: '3719420'
  slug: east-flat-rock
  name: East Flat Rock
  state: nc
  kind: cdp
  geo: {lat: 35.281, lng: -82.41656}
- id: '3719800'
  slug: east-rockingham
  name: East Rockingham
  state: nc
  kind: cdp
  geo: {lat: 34.91188, lng: -79.76484}
- id: '3719860'
  slug: east-spencer
  name: East Spencer
  state: nc
  kind: town
  geo: {lat: 35.6799, lng: -80.42364}
- id: '3719740'
  slug: eastover
  name: Eastover
  state: nc
  kind: town
  geo: {lat: 35.09527, lng: -78.78623}
- id: '3720080'
  slug: eden
  name: Eden
  state: nc
  kind: city
  geo: {lat: 36.50304, lng: -79.74002}
- id: '3720120'
  slug: edenton
  name: Edenton
  state: nc
  kind: town
  geo: {lat: 36.05857, lng: -76.59898}
- id: '3720280'
  slug: edneyville
  name: Edneyville
  state: nc
  kind: cdp
  geo: {lat: 35.40256, lng: -82.33429}
- id: '3720420'
  slug: efland
  name: Efland
  state: nc
  kind: cdp
  geo: {lat: 36.08039, lng: -79.17134}
- id: '3720580'
  slug: elizabeth-city
  name: Elizabeth City
  state: nc
  kind: city
  geo: {lat: 36.2942, lng: -76.23815}
- id: '3720600'
  slug: elizabethtown
  name: Elizabethtown
  state: nc
  kind: town
  geo: {lat: 34.62145, lng: -78.6063}
- id: '3720700'
  slug: elk-park
  name: Elk Park
  state: nc
  kind: town
  geo: {lat: 36.15825, lng: -81.98081}
- id: '3720620'
  slug: elkin
  name: Elkin
  state: nc
  kind: town
  geo: {lat: 36.26337, lng: -80.84711}
- id: '3720780'
  slug: ellenboro
  name: Ellenboro
  state: nc
  kind: town
  geo: {lat: 35.33088, lng: -81.76127}
- id: '3720840'
  slug: ellerbe
  name: Ellerbe
  state: nc
  kind: town
  geo: {lat: 35.0695, lng: -79.75699}
- id: '3720980'
  slug: elm-city
  name: Elm City
  state: nc
  kind: town
  geo: {lat: 35.80404, lng: -77.85668}
- id: '3721095'
  slug: elon
  name: Elon
  state: nc
  kind: town
  geo: {lat: 36.10227, lng: -79.50879}
- id: '3721120'
  slug: elrod
  name: Elrod
  state: nc
  kind: cdp
  geo: {lat: 34.60724, lng: -79.23076}
- id: '3721130'
  slug: elroy
  name: Elroy
  state: nc
  kind: cdp
  geo: {lat: 35.33076, lng: -77.92257}
- id: '3721160'
  slug: emerald-isle
  name: Emerald Isle
  state: nc
  kind: town
  geo: {lat: 34.66443, lng: -77.03137}
- id: '3721260'
  slug: emma
  name: Emma
  state: nc
  kind: cdp
  geo: {lat: 35.60197, lng: -82.59577}
- id: '3721360'
  slug: enfield
  name: Enfield
  state: nc
  kind: town
  geo: {lat: 36.17992, lng: -77.66902}
- id: '3721380'
  slug: engelhard
  name: Engelhard
  state: nc
  kind: cdp
  geo: {lat: 35.50923, lng: -76.00946}
- id: '3721500'
  slug: enochville
  name: Enochville
  state: nc
  kind: cdp
  geo: {lat: 35.51919, lng: -80.66859}
- id: '3721740'
  slug: erwin
  name: Erwin
  state: nc
  kind: town
  geo: {lat: 35.32222, lng: -78.67353}
- id: '3721880'
  slug: etowah
  name: Etowah
  state: nc
  kind: cdp
  geo: {lat: 35.30444, lng: -82.58868}
- id: '3722040'
  slug: everetts
  name: Everetts
  state: nc
  kind: town
  geo: {lat: 35.83461, lng: -77.17212}
- id: '3722080'
  slug: evergreen
  name: Evergreen
  state: nc
  kind: cdp
  geo: {lat: 34.41486, lng: -78.91138}
- id: '3722240'
  slug: fair-bluff
  name: Fair Bluff
  state: nc
  kind: town
  geo: {lat: 34.31258, lng: -79.03315}
- id: '3722280'
  slug: fairfield
  name: Fairfield
  state: nc
  kind: cdp
  geo: {lat: 35.5504, lng: -76.22651}
- id: '3722305'
  slug: fairfield-harbour
  name: Fairfield Harbour
  state: nc
  kind: cdp
  geo: {lat: 35.06951, lng: -76.95838}
- id: '3722360'
  slug: fairmont
  name: Fairmont
  state: nc
  kind: town
  geo: {lat: 34.49476, lng: -79.1132}
- id: '3722380'
  slug: fairplains
  name: Fairplains
  state: nc
  kind: cdp
  geo: {lat: 36.19293, lng: -81.15153}
- id: '3722440'
  slug: fairview-2440
  name: Fairview
  state: nc
  kind: cdp
  geo: {lat: 35.52252, lng: -82.40131}
- id: '3722500'
  slug: fairview-2500
  name: Fairview
  state: nc
  kind: town
  geo: {lat: 35.15598, lng: -80.52439}
- id: '3722560'
  slug: faison
  name: Faison
  state: nc
  kind: town
  geo: {lat: 35.11646, lng: -78.13629}
- id: '3722600'
  slug: faith
  name: Faith
  state: nc
  kind: town
  geo: {lat: 35.58999, lng: -80.4583}
- id: '3722620'
  slug: falcon
  name: Falcon
  state: nc
  kind: town
  geo: {lat: 35.1948, lng: -78.65389}
- id: '3722640'
  slug: falkland
  name: Falkland
  state: nc
  kind: town
  geo: {lat: 35.69854, lng: -77.51288}
- id: '3722720'
  slug: fallston
  name: Fallston
  state: nc
  kind: town
  geo: {lat: 35.42941, lng: -81.50218}
- id: '3722800'
  slug: farmington
  name: Farmington
  state: nc
  kind: cdp
  geo: {lat: 36.00849, lng: -80.53569}
- id: '3722820'
  slug: farmville
  name: Farmville
  state: nc
  kind: town
  geo: {lat: 35.59503, lng: -77.59062}
- id: '3722920'
  slug: fayetteville
  name: Fayetteville
  state: nc
  kind: city
  geo: {lat: 35.08277, lng: -78.97352}
- id: '3722982'
  slug: fearrington-village
  name: Fearrington Village
  state: nc
  kind: cdp
  geo: {lat: 35.79789, lng: -79.0789}
- id: '3723520'
  slug: five-points
  name: Five Points
  state: nc
  kind: cdp
  geo: {lat: 35.0154, lng: -79.35127}
- id: '3723600'
  slug: flat-rock-3600
  name: Flat Rock
  state: nc
  kind: village
  geo: {lat: 35.26684, lng: -82.45162}
- id: '3723640'
  slug: flat-rock-3640
  name: Flat Rock
  state: nc
  kind: cdp
  geo: {lat: 36.508, lng: -80.58218}
- id: '3723760'
  slug: fletcher
  name: Fletcher
  state: nc
  kind: town
  geo: {lat: 35.43286, lng: -82.50743}
- id: '3723980'
  slug: fontana-dam
  name: Fontana Dam
  state: nc
  kind: town
  geo: {lat: 35.4328, lng: -83.8248}
- id: '3724080'
  slug: forest-city
  name: Forest City
  state: nc
  kind: town
  geo: {lat: 35.33471, lng: -81.87075}
- id: '3724170'
  slug: forest-hills
  name: Forest Hills
  state: nc
  kind: village
  geo: {lat: 35.29576, lng: -83.19542}
- id: '3724198'
  slug: forest-oaks
  name: Forest Oaks
  state: nc
  kind: cdp
  geo: {lat: 35.98846, lng: -79.70803}
- id: '3724380'
  slug: foscoe
  name: Foscoe
  state: nc
  kind: cdp
  geo: {lat: 36.15228, lng: -81.77647}
- id: '3724440'
  slug: fountain
  name: Fountain
  state: nc
  kind: town
  geo: {lat: 35.67211, lng: -77.63167}
- id: '3724520'
  slug: four-oaks
  name: Four Oaks
  state: nc
  kind: town
  geo: {lat: 35.45063, lng: -78.41855}
- id: '3724570'
  slug: foxfire
  name: Foxfire
  state: nc
  kind: village
  geo: {lat: 35.17849, lng: -79.56298}
- id: '3724640'
  slug: franklin
  name: Franklin
  state: nc
  kind: town
  geo: {lat: 35.17942, lng: -83.38069}
- id: '3724720'
  slug: franklinton
  name: Franklinton
  state: nc
  kind: town
  geo: {lat: 36.10083, lng: -78.4532}
- id: '3724740'
  slug: franklinville
  name: Franklinville
  state: nc
  kind: town
  geo: {lat: 35.74125, lng: -79.69124}
- id: '3724900'
  slug: fremont
  name: Fremont
  state: nc
  kind: town
  geo: {lat: 35.54342, lng: -77.97426}
- id: '3725020'
  slug: frisco
  name: Frisco
  state: nc
  kind: cdp
  geo: {lat: 35.24786, lng: -75.59873}
- id: '3725160'
  slug: fruitland
  name: Fruitland
  state: nc
  kind: cdp
  geo: {lat: 35.39778, lng: -82.42126}
- id: '3725300'
  slug: fuquay-varina
  name: Fuquay-Varina
  state: nc
  kind: town
  geo: {lat: 35.6089, lng: -78.77296}
- id: '3725380'
  slug: gamewell
  name: Gamewell
  state: nc
  kind: town
  geo: {lat: 35.86398, lng: -81.59781}
- id: '3725460'
  slug: garland
  name: Garland
  state: nc
  kind: town
  geo: {lat: 34.7859, lng: -78.39492}
- id: '3725480'
  slug: garner
  name: Garner
  state: nc
  kind: town
  geo: {lat: 35.68948, lng: -78.6146}
- id: '3725540'
  slug: garysburg
  name: Garysburg
  state: nc
  kind: town
  geo: {lat: 36.44785, lng: -77.56038}
- id: '3725560'
  slug: gaston
  name: Gaston
  state: nc
  kind: town
  geo: {lat: 36.49523, lng: -77.64642}
- id: '3725580'
  slug: gastonia
  name: Gastonia
  state: nc
  kind: city
  geo: {lat: 35.249, lng: -81.18483}
- id: '3725680'
  slug: gatesville
  name: Gatesville
  state: nc
  kind: town
  geo: {lat: 36.40736, lng: -76.75659}
- id: '3725880'
  slug: germanton
  name: Germanton
  state: nc
  kind: cdp
  geo: {lat: 36.25015, lng: -80.23904}
- id: '3725900'
  slug: gerton
  name: Gerton
  state: nc
  kind: cdp
  geo: {lat: 35.47579, lng: -82.35041}
- id: '3725940'
  slug: gibson
  name: Gibson
  state: nc
  kind: town
  geo: {lat: 34.75949, lng: -79.60688}
- id: '3725980'
  slug: gibsonville
  name: Gibsonville
  state: nc
  kind: town
  geo: {lat: 36.10216, lng: -79.54304}
- id: '3726200'
  slug: glen-alpine
  name: Glen Alpine
  state: nc
  kind: town
  geo: {lat: 35.73074, lng: -81.78258}
- id: '3726460'
  slug: glen-raven
  name: Glen Raven
  state: nc
  kind: cdp
  geo: {lat: 36.12407, lng: -79.46727}
- id: '3726520'
  slug: glenville
  name: Glenville
  state: nc
  kind: cdp
  geo: {lat: 35.16925, lng: -83.12037}
- id: '3726560'
  slug: glenwood
  name: Glenwood
  state: nc
  kind: cdp
  geo: {lat: 35.61579, lng: -81.98279}
- id: '3726680'
  slug: gloucester
  name: Gloucester
  state: nc
  kind: cdp
  geo: {lat: 34.73211, lng: -76.53862}
- id: '3726740'
  slug: godwin
  name: Godwin
  state: nc
  kind: town
  geo: {lat: 35.21711, lng: -78.68435}
- id: '3726800'
  slug: gold-hill
  name: Gold Hill
  state: nc
  kind: cdp
  geo: {lat: 35.5186, lng: -80.34749}
- id: '3726880'
  slug: goldsboro
  name: Goldsboro
  state: nc
  kind: city
  geo: {lat: 35.37823, lng: -77.97187}
- id: '3726920'
  slug: goldston
  name: Goldston
  state: nc
  kind: town
  geo: {lat: 35.59104, lng: -79.32379}
- id: '3727120'
  slug: gorman
  name: Gorman
  state: nc
  kind: cdp
  geo: {lat: 36.04178, lng: -78.80687}
- id: '3727180'
  slug: governors-club
  name: Governors Club
  state: nc
  kind: cdp
  geo: {lat: 35.84215, lng: -79.04751}
- id: '3727182'
  slug: governors-village
  name: Governors Village
  state: nc
  kind: cdp
  geo: {lat: 35.85302, lng: -79.02554}
- id: '3727280'
  slug: graham
  name: Graham
  state: nc
  kind: city
  geo: {lat: 36.05636, lng: -79.38944}
- id: '3727300'
  slug: graingers
  name: Graingers
  state: nc
  kind: cdp
  geo: {lat: 35.31631, lng: -77.50661}
- id: '3727324'
  slug: grandfather-village
  name: Grandfather Village
  state: nc
  kind: village
  geo: {lat: 36.09303, lng: -81.8538}
- id: '3727400'
  slug: grandy
  name: Grandy
  state: nc
  kind: cdp
  geo: {lat: 36.23521, lng: -75.87982}
- id: '3727420'
  slug: granite-falls
  name: Granite Falls
  state: nc
  kind: town
  geo: {lat: 35.79724, lng: -81.42435}
- id: '3727440'
  slug: granite-quarry
  name: Granite Quarry
  state: nc
  kind: town
  geo: {lat: 35.61325, lng: -80.44985}
- id: '3727520'
  slug: grantsboro
  name: Grantsboro
  state: nc
  kind: town
  geo: {lat: 35.14487, lng: -76.84468}
- id: '3727870'
  slug: green-level
  name: Green Level
  state: nc
  kind: town
  geo: {lat: 36.12276, lng: -79.34499}
- id: '3727780'
  slug: greenevers
  name: Greenevers
  state: nc
  kind: town
  geo: {lat: 34.82713, lng: -77.92513}
- id: '3728000'
  slug: greensboro
  name: Greensboro
  state: nc
  kind: city
  geo: {lat: 36.09485, lng: -79.82362}
- id: '3728080'
  slug: greenville
  name: Greenville
  state: nc
  kind: city
  geo: {lat: 35.59643, lng: -77.37526}
- id: '3728200'
  slug: grifton
  name: Grifton
  state: nc
  kind: town
  geo: {lat: 35.38004, lng: -77.44248}
- id: '3728240'
  slug: grimesland
  name: Grimesland
  state: nc
  kind: town
  geo: {lat: 35.5671, lng: -77.1982}
- id: '3728400'
  slug: grover
  name: Grover
  state: nc
  kind: town
  geo: {lat: 35.17166, lng: -81.45807}
- id: '3728600'
  slug: gulf
  name: Gulf
  state: nc
  kind: cdp
  geo: {lat: 35.55761, lng: -79.28082}
- id: '3728900'
  slug: half-moon
  name: Half Moon
  state: nc
  kind: cdp
  geo: {lat: 34.82989, lng: -77.45914}
- id: '3728920'
  slug: halifax
  name: Halifax
  state: nc
  kind: town
  geo: {lat: 36.32549, lng: -77.5901}
- id: '3729000'
  slug: hallsboro
  name: Hallsboro
  state: nc
  kind: cdp
  geo: {lat: 34.31891, lng: -78.59338}
- id: '3729120'
  slug: hamilton
  name: Hamilton
  state: nc
  kind: town
  geo: {lat: 35.94438, lng: -77.20674}
- id: '3729160'
  slug: hamlet
  name: Hamlet
  state: nc
  kind: city
  geo: {lat: 34.8892, lng: -79.71061}
- id: '3729180'
  slug: hampstead
  name: Hampstead
  state: nc
  kind: cdp
  geo: {lat: 34.36246, lng: -77.75431}
- id: '3729560'
  slug: harkers-island
  name: Harkers Island
  state: nc
  kind: cdp
  geo: {lat: 34.69804, lng: -76.55555}
- id: '3729640'
  slug: harmony
  name: Harmony
  state: nc
  kind: town
  geo: {lat: 35.95804, lng: -80.77441}
- id: '3729680'
  slug: harrells
  name: Harrells
  state: nc
  kind: town
  geo: {lat: 34.72783, lng: -78.20151}
- id: '3729720'
  slug: harrellsville
  name: Harrellsville
  state: nc
  kind: town
  geo: {lat: 36.30167, lng: -76.79178}
- id: '3729800'
  slug: harrisburg
  name: Harrisburg
  state: nc
  kind: town
  geo: {lat: 35.30755, lng: -80.64562}
- id: '3730040'
  slug: hassell
  name: Hassell
  state: nc
  kind: town
  geo: {lat: 35.90858, lng: -77.27636}
- id: '3730100'
  slug: hatteras
  name: Hatteras
  state: nc
  kind: cdp
  geo: {lat: 35.21993, lng: -75.68795}
- id: '3730120'
  slug: havelock
  name: Havelock
  state: nc
  kind: city
  geo: {lat: 34.9089, lng: -76.89947}
- id: '3730260'
  slug: haw-river
  name: Haw River
  state: nc
  kind: town
  geo: {lat: 36.0919, lng: -79.35894}
- id: '3730280'
  slug: hayesville
  name: Hayesville
  state: nc
  kind: town
  geo: {lat: 35.04502, lng: -83.81794}
- id: '3730340'
  slug: hays
  name: Hays
  state: nc
  kind: cdp
  geo: {lat: 36.24689, lng: -81.11416}
- id: '3730620'
  slug: hemby-bridge
  name: Hemby Bridge
  state: nc
  kind: town
  geo: {lat: 35.10872, lng: -80.62489}
- id: '3730660'
  slug: henderson
  name: Henderson
  state: nc
  kind: city
  geo: {lat: 36.32604, lng: -78.41492}
- id: '3730720'
  slug: hendersonville
  name: Hendersonville
  state: nc
  kind: city
  geo: {lat: 35.3243, lng: -82.45628}
- id: '3730800'
  slug: henrietta
  name: Henrietta
  state: nc
  kind: cdp
  geo: {lat: 35.25783, lng: -81.80441}
- id: '3730900'
  slug: hertford
  name: Hertford
  state: nc
  kind: town
  geo: {lat: 36.17685, lng: -76.46655}
- id: '3731060'
  slug: hickory
  name: Hickory
  state: nc
  kind: city
  geo: {lat: 35.73749, lng: -81.32287}
- id: '3731260'
  slug: hiddenite
  name: Hiddenite
  state: nc
  kind: cdp
  geo: {lat: 35.9077, lng: -81.08106}
- id: '3731400'
  slug: high-point
  name: High Point
  state: nc
  kind: city
  geo: {lat: 35.9908, lng: -79.99271}
- id: '3731440'
  slug: high-shoals
  name: High Shoals
  state: nc
  kind: city
  geo: {lat: 35.38998, lng: -81.20207}
- id: '3731360'
  slug: highlands
  name: Highlands
  state: nc
  kind: town
  geo: {lat: 35.05385, lng: -83.19758}
- id: '3731490'
  slug: hightsville
  name: Hightsville
  state: nc
  kind: cdp
  geo: {lat: 34.26935, lng: -77.9375}
- id: '3731500'
  slug: hildebran
  name: Hildebran
  state: nc
  kind: town
  geo: {lat: 35.7182, lng: -81.42103}
- id: '3731620'
  slug: hillsborough
  name: Hillsborough
  state: nc
  kind: town
  geo: {lat: 36.0779, lng: -79.09798}
- id: '3731860'
  slug: hobgood
  name: Hobgood
  state: nc
  kind: town
  geo: {lat: 36.02673, lng: -77.39398}
- id: '3731880'
  slug: hobucken
  name: Hobucken
  state: nc
  kind: cdp
  geo: {lat: 35.25176, lng: -76.5731}
- id: '3731920'
  slug: hoffman
  name: Hoffman
  state: nc
  kind: town
  geo: {lat: 35.03132, lng: -79.54914}
- id: '3731960'
  slug: holden-beach
  name: Holden Beach
  state: nc
  kind: town
  geo: {lat: 33.91199, lng: -78.32077}
- id: '3732100'
  slug: hollister
  name: Hollister
  state: nc
  kind: cdp
  geo: {lat: 36.25828, lng: -77.93569}
- id: '3732180'
  slug: holly-ridge
  name: Holly Ridge
  state: nc
  kind: town
  geo: {lat: 34.50149, lng: -77.52923}
- id: '3732260'
  slug: holly-springs
  name: Holly Springs
  state: nc
  kind: town
  geo: {lat: 35.65199, lng: -78.8432}
- id: '3732540'
  slug: hookerton
  name: Hookerton
  state: nc
  kind: town
  geo: {lat: 35.42264, lng: -77.58893}
- id: '3732580'
  slug: hoopers-creek
  name: Hoopers Creek
  state: nc
  kind: cdp
  geo: {lat: 35.44492, lng: -82.43562}
- id: '3732640'
  slug: hope-mills
  name: Hope Mills
  state: nc
  kind: town
  geo: {lat: 34.96919, lng: -78.95989}
- id: '3732740'
  slug: horse-shoe
  name: Horse Shoe
  state: nc
  kind: cdp
  geo: {lat: 35.33239, lng: -82.5627}
- id: '3732840'
  slug: hot-springs
  name: Hot Springs
  state: nc
  kind: town
  geo: {lat: 35.89355, lng: -82.82942}
- id: '3732980'
  slug: hudson
  name: Hudson
  state: nc
  kind: town
  geo: {lat: 35.84774, lng: -81.48671}
- id: '3733120'
  slug: huntersville
  name: Huntersville
  state: nc
  kind: town
  geo: {lat: 35.40681, lng: -80.86868}
- id: '3733320'
  slug: icard
  name: Icard
  state: nc
  kind: cdp
  geo: {lat: 35.72547, lng: -81.45847}
- id: '3733460'
  slug: indian-beach
  name: Indian Beach
  state: nc
  kind: town
  geo: {lat: 34.68557, lng: -76.89816}
- id: '3733560'
  slug: indian-trail
  name: Indian Trail
  state: nc
  kind: town
  geo: {lat: 35.06864, lng: -80.65115}
- id: '3733640'
  slug: ingold
  name: Ingold
  state: nc
  kind: cdp
  geo: {lat: 34.82765, lng: -78.35177}
- id: '3733820'
  slug: iron-station
  name: Iron Station
  state: nc
  kind: cdp
  geo: {lat: 35.45394, lng: -81.15471}
- id: '3733940'
  slug: ivanhoe
  name: Ivanhoe
  state: nc
  kind: cdp
  geo: {lat: 34.58362, lng: -78.2517}
- id: '3733993'
  slug: jaars
  name: JAARS
  state: nc
  kind: cdp
  geo: {lat: 34.86449, lng: -80.75026}
- id: '3734000'
  slug: jackson
  name: Jackson
  state: nc
  kind: town
  geo: {lat: 36.3901, lng: -77.41934}
- id: '3734038'
  slug: jackson-heights
  name: Jackson Heights
  state: nc
  kind: cdp
  geo: {lat: 35.22362, lng: -77.63327}
- id: '3734160'
  slug: jackson-springs
  name: Jackson Springs
  state: nc
  kind: cdp
  geo: {lat: 35.21267, lng: -79.62976}
- id: '3734200'
  slug: jacksonville
  name: Jacksonville
  state: nc
  kind: city
  geo: {lat: 34.72973, lng: -77.39366}
- id: '3734260'
  slug: james-city
  name: James City
  state: nc
  kind: cdp
  geo: {lat: 35.04537, lng: -76.9981}
- id: '3734300'
  slug: jamestown
  name: Jamestown
  state: nc
  kind: town
  geo: {lat: 35.99844, lng: -79.9346}
- id: '3734320'
  slug: jamesville
  name: Jamesville
  state: nc
  kind: town
  geo: {lat: 35.8122, lng: -76.90018}
- id: '3734440'
  slug: jefferson
  name: Jefferson
  state: nc
  kind: town
  geo: {lat: 36.42055, lng: -81.46826}
- id: '3734840'
  slug: jonesville
  name: Jonesville
  state: nc
  kind: town
  geo: {lat: 36.23528, lng: -80.83368}
- id: '3735200'
  slug: kannapolis
  name: Kannapolis
  state: nc
  kind: city
  geo: {lat: 35.4799, lng: -80.6475}
- id: '3735340'
  slug: keener
  name: Keener
  state: nc
  kind: cdp
  geo: {lat: 35.1211, lng: -78.29837}
- id: '3735360'
  slug: kelford
  name: Kelford
  state: nc
  kind: town
  geo: {lat: 36.18125, lng: -77.2243}
- id: '3735440'
  slug: kelly
  name: Kelly
  state: nc
  kind: cdp
  geo: {lat: 34.46396, lng: -78.31096}
- id: '3735460'
  slug: kenansville
  name: Kenansville
  state: nc
  kind: town
  geo: {lat: 34.95984, lng: -77.96599}
- id: '3735540'
  slug: kenly
  name: Kenly
  state: nc
  kind: town
  geo: {lat: 35.60077, lng: -78.12793}
- id: '3735600'
  slug: kernersville
  name: Kernersville
  state: nc
  kind: town
  geo: {lat: 36.10617, lng: -80.0819}
- id: '3735720'
  slug: kill-devil-hills
  name: Kill Devil Hills
  state: nc
  kind: town
  geo: {lat: 36.01711, lng: -75.67136}
- id: '3735760'
  slug: king
  name: King
  state: nc
  kind: city
  geo: {lat: 36.27468, lng: -80.35686}
- id: '3735870'
  slug: kings-grant
  name: Kings Grant
  state: nc
  kind: cdp
  geo: {lat: 34.26591, lng: -77.861}
- id: '3735880'
  slug: kings-mountain
  name: Kings Mountain
  state: nc
  kind: city
  geo: {lat: 35.23298, lng: -81.35141}
- id: '3735890'
  slug: kingstown
  name: Kingstown
  state: nc
  kind: town
  geo: {lat: 35.3621, lng: -81.62005}
- id: '3735920'
  slug: kinston
  name: Kinston
  state: nc
  kind: city
  geo: {lat: 35.2751, lng: -77.59337}
- id: '3736020'
  slug: kittrell
  name: Kittrell
  state: nc
  kind: town
  geo: {lat: 36.22181, lng: -78.44133}
- id: '3736060'
  slug: kitty-hawk
  name: Kitty Hawk
  state: nc
  kind: town
  geo: {lat: 36.07012, lng: -75.71722}
- id: '3736080'
  slug: knightdale
  name: Knightdale
  state: nc
  kind: town
  geo: {lat: 35.79173, lng: -78.49646}
- id: '3736220'
  slug: kure-beach
  name: Kure Beach
  state: nc
  kind: town
  geo: {lat: 33.99934, lng: -77.90758}
- id: '3736400'
  slug: la-grange
  name: La Grange
  state: nc
  kind: town
  geo: {lat: 35.30652, lng: -77.78991}
- id: '3736480'
  slug: lake-junaluska
  name: Lake Junaluska
  state: nc
  kind: cdp
  geo: {lat: 35.53021, lng: -82.97277}
- id: '3736500'
  slug: lake-lure
  name: Lake Lure
  state: nc
  kind: town
  geo: {lat: 35.44838, lng: -82.2022}
- id: '3736510'
  slug: lake-norman-of-catawba
  name: Lake Norman of Catawba
  state: nc
  kind: cdp
  geo: {lat: 35.59836, lng: -80.98754}
- id: '3736511'
  slug: lake-norman-of-iredell
  name: Lake Norman of Iredell
  state: nc
  kind: cdp
  geo: {lat: 35.54431, lng: -80.92994}
- id: '3736512'
  slug: lake-park
  name: Lake Park
  state: nc
  kind: village
  geo: {lat: 35.08449, lng: -80.63437}
- id: '3736513'
  slug: lake-royale
  name: Lake Royale
  state: nc
  kind: cdp
  geo: {lat: 35.96489, lng: -78.19223}
- id: '3736514'
  slug: lake-santeetlah
  name: Lake Santeetlah
  state: nc
  kind: town
  geo: {lat: 35.364, lng: -83.86644}
- id: '3736640'
  slug: lake-waccamaw
  name: Lake Waccamaw
  state: nc
  kind: town
  geo: {lat: 34.31822, lng: -78.51119}
- id: '3736860'
  slug: landis
  name: Landis
  state: nc
  kind: town
  geo: {lat: 35.54957, lng: -80.61047}
- id: '3736960'
  slug: lansing
  name: Lansing
  state: nc
  kind: town
  geo: {lat: 36.49947, lng: -81.50964}
- id: '3737000'
  slug: lasker
  name: Lasker
  state: nc
  kind: town
  geo: {lat: 36.35022, lng: -77.30575}
- id: '3737040'
  slug: lattimore
  name: Lattimore
  state: nc
  kind: town
  geo: {lat: 35.31539, lng: -81.6602}
- id: '3737120'
  slug: laurel-hill
  name: Laurel Hill
  state: nc
  kind: cdp
  geo: {lat: 34.80953, lng: -79.54546}
- id: '3737160'
  slug: laurel-park
  name: Laurel Park
  state: nc
  kind: town
  geo: {lat: 35.31149, lng: -82.50357}
- id: '3737220'
  slug: laurinburg
  name: Laurinburg
  state: nc
  kind: city
  geo: {lat: 34.76214, lng: -79.47738}
- id: '3737260'
  slug: lawndale
  name: Lawndale
  state: nc
  kind: town
  geo: {lat: 35.41438, lng: -81.5621}
- id: '3737640'
  slug: leggett
  name: Leggett
  state: nc
  kind: town
  geo: {lat: 35.98951, lng: -77.58011}
- id: '3737680'
  slug: leland
  name: Leland
  state: nc
  kind: town
  geo: {lat: 34.21374, lng: -78.04318}
- id: '3737760'
  slug: lenoir
  name: Lenoir
  state: nc
  kind: city
  geo: {lat: 35.90768, lng: -81.52483}
- id: '3738030'
  slug: lewiston-woodville
  name: Lewiston Woodville
  state: nc
  kind: town
  geo: {lat: 36.11489, lng: -77.17955}
- id: '3738040'
  slug: lewisville
  name: Lewisville
  state: nc
  kind: town
  geo: {lat: 36.10519, lng: -80.42455}
- id: '3738060'
  slug: lexington
  name: Lexington
  state: nc
  kind: city
  geo: {lat: 35.79718, lng: -80.27429}
- id: '3738100'
  slug: liberty
  name: Liberty
  state: nc
  kind: town
  geo: {lat: 35.85503, lng: -79.56931}
- id: '3738170'
  slug: light-oak
  name: Light Oak
  state: nc
  kind: cdp
  geo: {lat: 35.28669, lng: -81.47739}
- id: '3738200'
  slug: lilesville
  name: Lilesville
  state: nc
  kind: town
  geo: {lat: 34.96749, lng: -79.98453}
- id: '3738220'
  slug: lillington
  name: Lillington
  state: nc
  kind: town
  geo: {lat: 35.41308, lng: -78.8117}
- id: '3738320'
  slug: lincolnton
  name: Lincolnton
  state: nc
  kind: city
  geo: {lat: 35.47574, lng: -81.23919}
- id: '3738360'
  slug: linden
  name: Linden
  state: nc
  kind: town
  geo: {lat: 35.25456, lng: -78.74762}
- id: '3738420'
  slug: linville
  name: Linville
  state: nc
  kind: cdp
  geo: {lat: 36.06747, lng: -81.87143}
- id: '3738680'
  slug: littleton
  name: Littleton
  state: nc
  kind: town
  geo: {lat: 36.43432, lng: -77.911}
- id: '3738860'
  slug: locust
  name: Locust
  state: nc
  kind: city
  geo: {lat: 35.26942, lng: -80.43557}
- id: '3739060'
  slug: long-creek
  name: Long Creek
  state: nc
  kind: cdp
  geo: {lat: 34.43399, lng: -78.01723}
- id: '3739280'
  slug: long-view
  name: Long View
  state: nc
  kind: town
  geo: {lat: 35.72309, lng: -81.38547}
- id: '3739360'
  slug: louisburg
  name: Louisburg
  state: nc
  kind: town
  geo: {lat: 36.0983, lng: -78.30013}
- id: '3739420'
  slug: love-valley
  name: Love Valley
  state: nc
  kind: town
  geo: {lat: 35.98972, lng: -80.97256}
- id: '3739480'
  slug: lowell
  name: Lowell
  state: nc
  kind: city
  geo: {lat: 35.2758, lng: -81.10493}
- id: '3739520'
  slug: lowesville
  name: Lowesville
  state: nc
  kind: cdp
  geo: {lat: 35.42452, lng: -81.00518}
- id: '3739540'
  slug: lowgap
  name: Lowgap
  state: nc
  kind: cdp
  geo: {lat: 36.52496, lng: -80.87123}
- id: '3739600'
  slug: lucama
  name: Lucama
  state: nc
  kind: town
  geo: {lat: 35.64488, lng: -78.0074}
- id: '3739680'
  slug: lumber-bridge
  name: Lumber Bridge
  state: nc
  kind: town
  geo: {lat: 34.88993, lng: -79.07226}
- id: '3739700'
  slug: lumberton
  name: Lumberton
  state: nc
  kind: city
  geo: {lat: 34.63061, lng: -79.0186}
- id: '3739960'
  slug: macclesfield
  name: Macclesfield
  state: nc
  kind: town
  geo: {lat: 35.75227, lng: -77.66969}
- id: '3740540'
  slug: macon
  name: Macon
  state: nc
  kind: town
  geo: {lat: 36.44019, lng: -78.08332}
- id: '3740560'
  slug: madison
  name: Madison
  state: nc
  kind: town
  geo: {lat: 36.39398, lng: -79.97598}
- id: '3740600'
  slug: maggie-valley
  name: Maggie Valley
  state: nc
  kind: town
  geo: {lat: 35.52577, lng: -83.06182}
- id: '3740640'
  slug: magnolia
  name: Magnolia
  state: nc
  kind: town
  geo: {lat: 34.89625, lng: -78.05328}
- id: '3740660'
  slug: maiden
  name: Maiden
  state: nc
  kind: town
  geo: {lat: 35.59149, lng: -81.23154}
- id: '3740860'
  slug: mamers
  name: Mamers
  state: nc
  kind: cdp
  geo: {lat: 35.41131, lng: -78.93661}
- id: '3740980'
  slug: manns-harbor
  name: Manns Harbor
  state: nc
  kind: cdp
  geo: {lat: 35.89849, lng: -75.78069}
- id: '3741060'
  slug: manteo
  name: Manteo
  state: nc
  kind: town
  geo: {lat: 35.8986, lng: -75.65128}
- id: '3741540'
  slug: mar-mac
  name: Mar-Mac
  state: nc
  kind: cdp
  geo: {lat: 35.33084, lng: -78.05699}
- id: '3741220'
  slug: marble
  name: Marble
  state: nc
  kind: cdp
  geo: {lat: 35.17695, lng: -83.92652}
- id: '3741380'
  slug: marietta
  name: Marietta
  state: nc
  kind: town
  geo: {lat: 34.3682, lng: -79.12486}
- id: '3741420'
  slug: marion
  name: Marion
  state: nc
  kind: city
  geo: {lat: 35.67623, lng: -82.00084}
- id: '3741620'
  slug: mars-hill
  name: Mars Hill
  state: nc
  kind: town
  geo: {lat: 35.82822, lng: -82.54856}
- id: '3741580'
  slug: marshall
  name: Marshall
  state: nc
  kind: town
  geo: {lat: 35.79856, lng: -82.68002}
- id: '3741600'
  slug: marshallberg
  name: Marshallberg
  state: nc
  kind: cdp
  geo: {lat: 34.72601, lng: -76.51356}
- id: '3741640'
  slug: marshville
  name: Marshville
  state: nc
  kind: town
  geo: {lat: 34.98624, lng: -80.36898}
- id: '3741720'
  slug: marvin
  name: Marvin
  state: nc
  kind: village
  geo: {lat: 34.99962, lng: -80.81667}
- id: '3741960'
  slug: matthews
  name: Matthews
  state: nc
  kind: town
  geo: {lat: 35.11979, lng: -80.70969}
- id: '3742000'
  slug: maury
  name: Maury
  state: nc
  kind: cdp
  geo: {lat: 35.4792, lng: -77.59022}
- id: '3742020'
  slug: maxton
  name: Maxton
  state: nc
  kind: town
  geo: {lat: 34.7365, lng: -79.35273}
- id: '3742060'
  slug: mayodan
  name: Mayodan
  state: nc
  kind: town
  geo: {lat: 36.42257, lng: -79.9689}
- id: '3742100'
  slug: maysville
  name: Maysville
  state: nc
  kind: town
  geo: {lat: 34.90711, lng: -77.23198}
- id: '3739880'
  slug: mcadenville
  name: McAdenville
  state: nc
  kind: town
  geo: {lat: 35.26541, lng: -81.07992}
- id: '3740140'
  slug: mcdonald
  name: McDonald
  state: nc
  kind: town
  geo: {lat: 34.55374, lng: -79.17625}
- id: '3740240'
  slug: mcfarlan
  name: McFarlan
  state: nc
  kind: town
  geo: {lat: 34.81482, lng: -79.97663}
- id: '3740460'
  slug: mcleansville
  name: McLeansville
  state: nc
  kind: cdp
  geo: {lat: 36.09755, lng: -79.65475}
- id: '3742240'
  slug: mebane
  name: Mebane
  state: nc
  kind: city
  geo: {lat: 36.08168, lng: -79.27674}
- id: '3742480'
  slug: mesic
  name: Mesic
  state: nc
  kind: town
  geo: {lat: 35.20423, lng: -76.64583}
- id: '3742620'
  slug: micro
  name: Micro
  state: nc
  kind: town
  geo: {lat: 35.56427, lng: -78.20402}
- id: '3742640'
  slug: middleburg
  name: Middleburg
  state: nc
  kind: town
  geo: {lat: 36.39894, lng: -78.32344}
- id: '3742700'
  slug: middlesex
  name: Middlesex
  state: nc
  kind: town
  geo: {lat: 35.78938, lng: -78.20481}
- id: '3742760'
  slug: midland
  name: Midland
  state: nc
  kind: town
  geo: {lat: 35.24917, lng: -80.53007}
- id: '3742860'
  slug: midway
  name: Midway
  state: nc
  kind: town
  geo: {lat: 35.97514, lng: -80.22045}
- id: '3743160'
  slug: millers-creek
  name: Millers Creek
  state: nc
  kind: cdp
  geo: {lat: 36.19087, lng: -81.23555}
- id: '3743200'
  slug: millingport
  name: Millingport
  state: nc
  kind: cdp
  geo: {lat: 35.37635, lng: -80.31134}
- id: '3743260'
  slug: mills-river
  name: Mills River
  state: nc
  kind: town
  geo: {lat: 35.38135, lng: -82.5889}
- id: '3743300'
  slug: milton
  name: Milton
  state: nc
  kind: town
  geo: {lat: 36.5377, lng: -79.20794}
- id: '3743320'
  slug: milwaukee
  name: Milwaukee
  state: nc
  kind: cdp
  geo: {lat: 36.40254, lng: -77.23121}
- id: '3743360'
  slug: mineral-springs
  name: Mineral Springs
  state: nc
  kind: town
  geo: {lat: 34.94424, lng: -80.68637}
- id: '3743440'
  slug: minnesott-beach
  name: Minnesott Beach
  state: nc
  kind: town
  geo: {lat: 34.9865, lng: -76.82408}
- id: '3743480'
  slug: mint-hill
  name: Mint Hill
  state: nc
  kind: town
  geo: {lat: 35.17847, lng: -80.6557}
- id: '3743580'
  slug: misenheimer
  name: Misenheimer
  state: nc
  kind: village
  geo: {lat: 35.47698, lng: -80.28602}
- id: '3743720'
  slug: mocksville
  name: Mocksville
  state: nc
  kind: town
  geo: {lat: 35.89972, lng: -80.56109}
- id: '3743860'
  slug: momeyer
  name: Momeyer
  state: nc
  kind: town
  geo: {lat: 35.96001, lng: -78.04805}
- id: '3743880'
  slug: moncure
  name: Moncure
  state: nc
  kind: cdp
  geo: {lat: 35.62582, lng: -79.07468}
- id: '3743920'
  slug: monroe
  name: Monroe
  state: nc
  kind: city
  geo: {lat: 35.00159, lng: -80.56128}
- id: '3744100'
  slug: montreat
  name: Montreat
  state: nc
  kind: town
  geo: {lat: 35.64804, lng: -82.29916}
- id: '3744160'
  slug: mooresboro
  name: Mooresboro
  state: nc
  kind: town
  geo: {lat: 35.29921, lng: -81.69859}
- id: '3744220'
  slug: mooresville
  name: Mooresville
  state: nc
  kind: town
  geo: {lat: 35.58372, lng: -80.82775}
- id: '3744280'
  slug: moravian-falls
  name: Moravian Falls
  state: nc
  kind: cdp
  geo: {lat: 36.1088, lng: -81.18643}
- id: '3744320'
  slug: morehead-city
  name: Morehead City
  state: nc
  kind: town
  geo: {lat: 34.72789, lng: -76.73909}
- id: '3744400'
  slug: morganton
  name: Morganton
  state: nc
  kind: city
  geo: {lat: 35.74084, lng: -81.70028}
- id: '3744520'
  slug: morrisville
  name: Morrisville
  state: nc
  kind: town
  geo: {lat: 35.83636, lng: -78.839}
- id: '3744560'
  slug: morven
  name: Morven
  state: nc
  kind: town
  geo: {lat: 34.86431, lng: -80.00001}
- id: '3744800'
  slug: mount-airy
  name: Mount Airy
  state: nc
  kind: city
  geo: {lat: 36.50849, lng: -80.61454}
- id: '3744900'
  slug: mount-gilead
  name: Mount Gilead
  state: nc
  kind: town
  geo: {lat: 35.21636, lng: -80.00501}
- id: '3744960'
  slug: mount-holly
  name: Mount Holly
  state: nc
  kind: city
  geo: {lat: 35.3144, lng: -81.00661}
- id: '3745100'
  slug: mount-olive
  name: Mount Olive
  state: nc
  kind: town
  geo: {lat: 35.19981, lng: -78.06613}
- id: '3745140'
  slug: mount-pleasant
  name: Mount Pleasant
  state: nc
  kind: town
  geo: {lat: 35.3942, lng: -80.43183}
- id: '3744700'
  slug: mountain-home
  name: Mountain Home
  state: nc
  kind: cdp
  geo: {lat: 35.37032, lng: -82.50197}
- id: '3744770'
  slug: mountain-view
  name: Mountain View
  state: nc
  kind: cdp
  geo: {lat: 35.6831, lng: -81.36895}
- id: '3745460'
  slug: moyock
  name: Moyock
  state: nc
  kind: cdp
  geo: {lat: 36.5012, lng: -76.17333}
- id: '3745560'
  slug: mulberry
  name: Mulberry
  state: nc
  kind: cdp
  geo: {lat: 36.22572, lng: -81.16524}
- id: '3745640'
  slug: murfreesboro
  name: Murfreesboro
  state: nc
  kind: town
  geo: {lat: 36.44197, lng: -77.09766}
- id: '3745660'
  slug: murphy
  name: Murphy
  state: nc
  kind: town
  geo: {lat: 35.09433, lng: -84.0249}
- id: '3745720'
  slug: murraysville
  name: Murraysville
  state: nc
  kind: cdp
  geo: {lat: 34.29163, lng: -77.84234}
- id: '3745840'
  slug: myrtle-grove
  name: Myrtle Grove
  state: nc
  kind: cdp
  geo: {lat: 34.12692, lng: -77.88891}
- id: '3745880'
  slug: nags-head
  name: Nags Head
  state: nc
  kind: town
  geo: {lat: 35.94753, lng: -75.62569}
- id: '3746000'
  slug: nashville
  name: Nashville
  state: nc
  kind: town
  geo: {lat: 35.96923, lng: -77.95673}
- id: '3746060'
  slug: navassa
  name: Navassa
  state: nc
  kind: town
  geo: {lat: 34.28338, lng: -78.03873}
- id: '3746100'
  slug: nebo
  name: Nebo
  state: nc
  kind: cdp
  geo: {lat: 35.71582, lng: -81.91389}
- id: '3746280'
  slug: neuse-forest
  name: Neuse Forest
  state: nc
  kind: cdp
  geo: {lat: 34.96506, lng: -76.94433}
- id: '3746340'
  slug: new-bern
  name: New Bern
  state: nc
  kind: city
  geo: {lat: 35.09271, lng: -77.07177}
- id: '3746650'
  slug: new-hope
  name: New Hope
  state: nc
  kind: cdp
  geo: {lat: 35.37823, lng: -77.8922}
- id: '3746820'
  slug: new-london
  name: New London
  state: nc
  kind: town
  geo: {lat: 35.43491, lng: -80.21981}
- id: '3746740'
  slug: newland
  name: Newland
  state: nc
  kind: town
  geo: {lat: 36.08797, lng: -81.92736}
- id: '3746860'
  slug: newport
  name: Newport
  state: nc
  kind: town
  geo: {lat: 34.7707, lng: -76.87908}
- id: '3747000'
  slug: newton
  name: Newton
  state: nc
  kind: city
  geo: {lat: 35.66216, lng: -81.23227}
- id: '3747020'
  slug: newton-grove
  name: Newton Grove
  state: nc
  kind: town
  geo: {lat: 35.25117, lng: -78.35368}
- id: '3747240'
  slug: norlina
  name: Norlina
  state: nc
  kind: town
  geo: {lat: 36.44494, lng: -78.19517}
- id: '3747260'
  slug: norman
  name: Norman
  state: nc
  kind: town
  geo: {lat: 35.16976, lng: -79.72316}
- id: '3747845'
  slug: north-topsail-beach
  name: North Topsail Beach
  state: nc
  kind: town
  geo: {lat: 34.4885, lng: -77.43754}
- id: '3747880'
  slug: north-wilkesboro
  name: North Wilkesboro
  state: nc
  kind: town
  geo: {lat: 36.17282, lng: -81.13891}
- id: '3747485'
  slug: northchase
  name: Northchase
  state: nc
  kind: cdp
  geo: {lat: 34.30782, lng: -77.87749}
- id: '3747695'
  slug: northlakes
  name: Northlakes
  state: nc
  kind: cdp
  geo: {lat: 35.78052, lng: -81.36783}
- id: '3747860'
  slug: northwest
  name: Northwest
  state: nc
  kind: city
  geo: {lat: 34.31654, lng: -78.14529}
- id: '3747980'
  slug: norwood
  name: Norwood
  state: nc
  kind: town
  geo: {lat: 35.23281, lng: -80.11078}
- id: '3748060'
  slug: oak-city
  name: Oak City
  state: nc
  kind: town
  geo: {lat: 35.96252, lng: -77.30509}
- id: '3748345'
  slug: oak-island
  name: Oak Island
  state: nc
  kind: town
  geo: {lat: 33.91506, lng: -78.11901}
- id: '3748480'
  slug: oak-ridge
  name: Oak Ridge
  state: nc
  kind: town
  geo: {lat: 36.17407, lng: -79.99223}
- id: '3748040'
  slug: oakboro
  name: Oakboro
  state: nc
  kind: town
  geo: {lat: 35.22847, lng: -80.3342}
- id: '3748700'
  slug: ocean-isle-beach
  name: Ocean Isle Beach
  state: nc
  kind: town
  geo: {lat: 33.9036, lng: -78.43787}
- id: '3748740'
  slug: ocracoke
  name: Ocracoke
  state: nc
  kind: cdp
  geo: {lat: 35.07323, lng: -75.99853}
- id: '3748790'
  slug: ogden
  name: Ogden
  state: nc
  kind: cdp
  geo: {lat: 34.26343, lng: -77.78901}
- id: '3748920'
  slug: old-fort
  name: Old Fort
  state: nc
  kind: town
  geo: {lat: 35.63033, lng: -82.17798}
- id: '3748940'
  slug: old-hundred
  name: Old Hundred
  state: nc
  kind: cdp
  geo: {lat: 34.82449, lng: -79.59215}
- id: '3749380'
  slug: oriental
  name: Oriental
  state: nc
  kind: town
  geo: {lat: 35.03095, lng: -76.68084}
- id: '3749460'
  slug: orrum
  name: Orrum
  state: nc
  kind: town
  geo: {lat: 34.46673, lng: -79.00894}
- id: '3749600'
  slug: ossipee
  name: Ossipee
  state: nc
  kind: town
  geo: {lat: 36.16628, lng: -79.51689}
- id: '3749800'
  slug: oxford
  name: Oxford
  state: nc
  kind: city
  geo: {lat: 36.32172, lng: -78.58653}
- id: '3750080'
  slug: pantego
  name: Pantego
  state: nc
  kind: town
  geo: {lat: 35.58737, lng: -76.6594}
- id: '3750340'
  slug: parkton
  name: Parkton
  state: nc
  kind: town
  geo: {lat: 34.90284, lng: -79.01129}
- id: '3750540'
  slug: parmele
  name: Parmele
  state: nc
  kind: town
  geo: {lat: 35.81809, lng: -77.31431}
- id: '3750700'
  slug: patterson-springs
  name: Patterson Springs
  state: nc
  kind: town
  geo: {lat: 35.23276, lng: -81.51615}
- id: '3750820'
  slug: peachland
  name: Peachland
  state: nc
  kind: town
  geo: {lat: 34.99312, lng: -80.26596}
- id: '3751040'
  slug: peletier
  name: Peletier
  state: nc
  kind: town
  geo: {lat: 34.72843, lng: -77.07131}
- id: '3751080'
  slug: pembroke
  name: Pembroke
  state: nc
  kind: town
  geo: {lat: 34.67663, lng: -79.1934}
- id: '3751780'
  slug: pikeville
  name: Pikeville
  state: nc
  kind: town
  geo: {lat: 35.49721, lng: -77.98776}
- id: '3751820'
  slug: pilot-mountain
  name: Pilot Mountain
  state: nc
  kind: town
  geo: {lat: 36.38394, lng: -80.47422}
- id: '3752000'
  slug: pine-knoll-shores
  name: Pine Knoll Shores
  state: nc
  kind: town
  geo: {lat: 34.69721, lng: -76.83191}
- id: '3752020'
  slug: pine-level
  name: Pine Level
  state: nc
  kind: town
  geo: {lat: 35.51124, lng: -78.25899}
- id: '3751840'
  slug: pinebluff
  name: Pinebluff
  state: nc
  kind: town
  geo: {lat: 35.10894, lng: -79.47155}
- id: '3751940'
  slug: pinehurst
  name: Pinehurst
  state: nc
  kind: village
  geo: {lat: 35.19107, lng: -79.46981}
- id: '3752140'
  slug: pinetops
  name: Pinetops
  state: nc
  kind: town
  geo: {lat: 35.79114, lng: -77.63778}
- id: '3752160'
  slug: pinetown
  name: Pinetown
  state: nc
  kind: cdp
  geo: {lat: 35.6111, lng: -76.85579}
- id: '3752220'
  slug: pineville
  name: Pineville
  state: nc
  kind: town
  geo: {lat: 35.0937, lng: -80.89352}
- id: '3752260'
  slug: piney-green
  name: Piney Green
  state: nc
  kind: cdp
  geo: {lat: 34.76554, lng: -77.30103}
- id: '3752400'
  slug: pink-hill
  name: Pink Hill
  state: nc
  kind: town
  geo: {lat: 35.05621, lng: -77.74363}
- id: '3752500'
  slug: pinnacle
  name: Pinnacle
  state: nc
  kind: cdp
  geo: {lat: 36.32277, lng: -80.42317}
- id: '3752660'
  slug: pittsboro
  name: Pittsboro
  state: nc
  kind: town
  geo: {lat: 35.72836, lng: -79.1559}
- id: '3752685'
  slug: plain-view
  name: Plain View
  state: nc
  kind: cdp
  geo: {lat: 35.24399, lng: -78.56023}
- id: '3752760'
  slug: pleasant-garden
  name: Pleasant Garden
  state: nc
  kind: town
  geo: {lat: 35.95204, lng: -79.7547}
- id: '3752920'
  slug: pleasant-hill
  name: Pleasant Hill
  state: nc
  kind: cdp
  geo: {lat: 36.25404, lng: -80.89462}
- id: '3753040'
  slug: plymouth
  name: Plymouth
  state: nc
  kind: town
  geo: {lat: 35.85854, lng: -76.7482}
- id: '3753140'
  slug: polkton
  name: Polkton
  state: nc
  kind: town
  geo: {lat: 35.00305, lng: -80.19631}
- id: '3753160'
  slug: polkville
  name: Polkville
  state: nc
  kind: city
  geo: {lat: 35.41627, lng: -81.64399}
- id: '3753200'
  slug: pollocksville
  name: Pollocksville
  state: nc
  kind: town
  geo: {lat: 35.006, lng: -77.22215}
- id: '3753475'
  slug: porters-neck
  name: Porters Neck
  state: nc
  kind: cdp
  geo: {lat: 34.2932, lng: -77.77062}
- id: '3753580'
  slug: potters-hill
  name: Potters Hill
  state: nc
  kind: cdp
  geo: {lat: 34.96455, lng: -77.70315}
- id: '3753680'
  slug: powellsville
  name: Powellsville
  state: nc
  kind: town
  geo: {lat: 36.22525, lng: -76.93157}
- id: '3753820'
  slug: princeton
  name: Princeton
  state: nc
  kind: town
  geo: {lat: 35.46636, lng: -78.16324}
- id: '3753840'
  slug: princeville
  name: Princeville
  state: nc
  kind: town
  geo: {lat: 35.88763, lng: -77.52903}
- id: '3753900'
  slug: proctorville
  name: Proctorville
  state: nc
  kind: town
  geo: {lat: 34.47518, lng: -79.03704}
- id: '3753950'
  slug: prospect
  name: Prospect
  state: nc
  kind: cdp
  geo: {lat: 34.73581, lng: -79.22516}
- id: '3754160'
  slug: pumpkin-center
  name: Pumpkin Center
  state: nc
  kind: cdp
  geo: {lat: 34.78603, lng: -77.36418}
- id: '3754580'
  slug: raeford
  name: Raeford
  state: nc
  kind: city
  geo: {lat: 34.9813, lng: -79.22957}
- id: '3754600'
  slug: raemon
  name: Raemon
  state: nc
  kind: cdp
  geo: {lat: 34.61713, lng: -79.34628}
- id: '3755000'
  slug: raleigh
  name: Raleigh
  state: nc
  kind: city
  geo: {lat: 35.83187, lng: -78.64104}
- id: '3755040'
  slug: ramseur
  name: Ramseur
  state: nc
  kind: town
  geo: {lat: 35.73706, lng: -79.65477}
- id: '3755080'
  slug: randleman
  name: Randleman
  state: nc
  kind: city
  geo: {lat: 35.81596, lng: -79.81095}
- id: '3755260'
  slug: ranlo
  name: Ranlo
  state: nc
  kind: town
  geo: {lat: 35.28993, lng: -81.12908}
- id: '3755340'
  slug: raynham
  name: Raynham
  state: nc
  kind: town
  geo: {lat: 34.57609, lng: -79.19086}
- id: '3755460'
  slug: red-cross
  name: Red Cross
  state: nc
  kind: town
  geo: {lat: 35.27036, lng: -80.34542}
- id: '3755640'
  slug: red-oak
  name: Red Oak
  state: nc
  kind: town
  geo: {lat: 36.06128, lng: -77.90376}
- id: '3755660'
  slug: red-springs
  name: Red Springs
  state: nc
  kind: town
  geo: {lat: 34.80615, lng: -79.18111}
- id: '3755900'
  slug: reidsville
  name: Reidsville
  state: nc
  kind: city
  geo: {lat: 36.33786, lng: -79.67721}
- id: '3755940'
  slug: rennert
  name: Rennert
  state: nc
  kind: town
  geo: {lat: 34.81409, lng: -79.07912}
- id: '3756100'
  slug: rex
  name: Rex
  state: nc
  kind: cdp
  geo: {lat: 34.85079, lng: -79.04685}
- id: '3756240'
  slug: rhodhiss
  name: Rhodhiss
  state: nc
  kind: town
  geo: {lat: 35.76554, lng: -81.43224}
- id: '3756440'
  slug: rich-square
  name: Rich Square
  state: nc
  kind: town
  geo: {lat: 36.27394, lng: -77.28391}
- id: '3756340'
  slug: richfield
  name: Richfield
  state: nc
  kind: town
  geo: {lat: 35.47245, lng: -80.25946}
- id: '3756360'
  slug: richlands
  name: Richlands
  state: nc
  kind: town
  geo: {lat: 34.89855, lng: -77.54195}
- id: '3756600'
  slug: riegelwood
  name: Riegelwood
  state: nc
  kind: cdp
  geo: {lat: 34.3401, lng: -78.22036}
- id: '3756710'
  slug: river-bend
  name: River Bend
  state: nc
  kind: town
  geo: {lat: 35.06891, lng: -77.14993}
- id: '3756815'
  slug: river-road
  name: River Road
  state: nc
  kind: cdp
  geo: {lat: 35.5084, lng: -76.98711}
- id: '3756900'
  slug: roanoke-rapids
  name: Roanoke Rapids
  state: nc
  kind: city
  geo: {lat: 36.44605, lng: -77.64859}
- id: '3757000'
  slug: robbins
  name: Robbins
  state: nc
  kind: town
  geo: {lat: 35.42757, lng: -79.58291}
- id: '3757020'
  slug: robbinsville
  name: Robbinsville
  state: nc
  kind: town
  geo: {lat: 35.32145, lng: -83.80951}
- id: '3757039'
  slug: roberdel
  name: Roberdel
  state: nc
  kind: cdp
  geo: {lat: 34.97908, lng: -79.74795}
- id: '3757100'
  slug: robersonville
  name: Robersonville
  state: nc
  kind: town
  geo: {lat: 35.8247, lng: -77.25329}
- id: '3757200'
  slug: rockfish
  name: Rockfish
  state: nc
  kind: cdp
  geo: {lat: 34.99056, lng: -79.07006}
- id: '3757260'
  slug: rockingham
  name: Rockingham
  state: nc
  kind: city
  geo: {lat: 34.93856, lng: -79.76032}
- id: '3757340'
  slug: rockwell
  name: Rockwell
  state: nc
  kind: town
  geo: {lat: 35.55311, lng: -80.40927}
- id: '3757500'
  slug: rocky-mount
  name: Rocky Mount
  state: nc
  kind: city
  geo: {lat: 35.96851, lng: -77.80829}
- id: '3757540'
  slug: rocky-point
  name: Rocky Point
  state: nc
  kind: cdp
  geo: {lat: 34.44405, lng: -77.89091}
- id: '3757580'
  slug: rodanthe
  name: Rodanthe
  state: nc
  kind: cdp
  geo: {lat: 35.59248, lng: -75.46635}
- id: '3757640'
  slug: rolesville
  name: Rolesville
  state: nc
  kind: town
  geo: {lat: 35.91578, lng: -78.46309}
- id: '3757700'
  slug: ronda
  name: Ronda
  state: nc
  kind: town
  geo: {lat: 36.22172, lng: -80.94324}
- id: '3757740'
  slug: roper
  name: Roper
  state: nc
  kind: town
  geo: {lat: 35.87864, lng: -76.61706}
- id: '3757860'
  slug: rose-hill
  name: Rose Hill
  state: nc
  kind: town
  geo: {lat: 34.82603, lng: -78.02594}
- id: '3757800'
  slug: roseboro
  name: Roseboro
  state: nc
  kind: town
  geo: {lat: 34.95573, lng: -78.51413}
- id: '3758020'
  slug: rosman
  name: Rosman
  state: nc
  kind: town
  geo: {lat: 35.1457, lng: -82.82078}
- id: '3758040'
  slug: rougemont
  name: Rougemont
  state: nc
  kind: cdp
  geo: {lat: 36.21337, lng: -78.91089}
- id: '3758140'
  slug: rowland
  name: Rowland
  state: nc
  kind: town
  geo: {lat: 34.53607, lng: -79.29285}
- id: '3758160'
  slug: roxboro
  name: Roxboro
  state: nc
  kind: city
  geo: {lat: 36.38695, lng: -78.97917}
- id: '3758180'
  slug: roxobel
  name: Roxobel
  state: nc
  kind: town
  geo: {lat: 36.20153, lng: -77.2398}
- id: '3758260'
  slug: royal-pines
  name: Royal Pines
  state: nc
  kind: cdp
  geo: {lat: 35.47882, lng: -82.50231}
- id: '3758340'
  slug: ruffin
  name: Ruffin
  state: nc
  kind: cdp
  geo: {lat: 36.43824, lng: -79.53337}
- id: '3758360'
  slug: rural-hall
  name: Rural Hall
  state: nc
  kind: town
  geo: {lat: 36.2245, lng: -80.29691}
- id: '3758420'
  slug: ruth
  name: Ruth
  state: nc
  kind: town
  geo: {lat: 35.38237, lng: -81.94485}
- id: '3758440'
  slug: rutherford-college
  name: Rutherford College
  state: nc
  kind: town
  geo: {lat: 35.75171, lng: -81.527}
- id: '3758460'
  slug: rutherfordton
  name: Rutherfordton
  state: nc
  kind: town
  geo: {lat: 35.36402, lng: -81.96121}
- id: '3758740'
  slug: salem
  name: Salem
  state: nc
  kind: cdp
  geo: {lat: 35.69973, lng: -81.7003}
- id: '3758840'
  slug: salemburg
  name: Salemburg
  state: nc
  kind: town
  geo: {lat: 35.01379, lng: -78.50268}
- id: '3758860'
  slug: salisbury
  name: Salisbury
  state: nc
  kind: city
  geo: {lat: 35.66616, lng: -80.49263}
- id: '3758920'
  slug: saluda
  name: Saluda
  state: nc
  kind: city
  geo: {lat: 35.23752, lng: -82.34691}
- id: '3758940'
  slug: salvo
  name: Salvo
  state: nc
  kind: cdp
  geo: {lat: 35.54854, lng: -75.46817}
- id: '3759090'
  slug: sandy-creek
  name: Sandy Creek
  state: nc
  kind: town
  geo: {lat: 34.28189, lng: -78.15891}
- id: '3759135'
  slug: sandyfield
  name: Sandyfield
  state: nc
  kind: town
  geo: {lat: 34.36756, lng: -78.3038}
- id: '3759280'
  slug: sanford
  name: Sanford
  state: nc
  kind: city
  geo: {lat: 35.49378, lng: -79.17646}
- id: '3759340'
  slug: saratoga
  name: Saratoga
  state: nc
  kind: town
  geo: {lat: 35.65366, lng: -77.77564}
- id: '3759540'
  slug: sawmills
  name: Sawmills
  state: nc
  kind: town
  geo: {lat: 35.81759, lng: -81.47633}
- id: '3759580'
  slug: saxapahaw
  name: Saxapahaw
  state: nc
  kind: cdp
  geo: {lat: 35.96075, lng: -79.31617}
- id: '3759765'
  slug: scotch-meadows
  name: Scotch Meadows
  state: nc
  kind: cdp
  geo: {lat: 34.68895, lng: -79.51772}
- id: '3759780'
  slug: scotland-neck
  name: Scotland Neck
  state: nc
  kind: town
  geo: {lat: 36.1308, lng: -77.42138}
- id: '3760000'
  slug: sea-breeze
  name: Sea Breeze
  state: nc
  kind: cdp
  geo: {lat: 34.0675, lng: -77.89229}
- id: '3759980'
  slug: seaboard
  name: Seaboard
  state: nc
  kind: town
  geo: {lat: 36.49069, lng: -77.44197}
- id: '3760080'
  slug: seagrove
  name: Seagrove
  state: nc
  kind: town
  geo: {lat: 35.53953, lng: -79.78142}
- id: '3760180'
  slug: sedalia
  name: Sedalia
  state: nc
  kind: town
  geo: {lat: 36.07583, lng: -79.61774}
- id: '3760320'
  slug: selma
  name: Selma
  state: nc
  kind: town
  geo: {lat: 35.53973, lng: -78.29174}
- id: '3760505'
  slug: seven-devils
  name: Seven Devils
  state: nc
  kind: town
  geo: {lat: 36.14949, lng: -81.81317}
- id: '3760515'
  slug: seven-lakes
  name: Seven Lakes
  state: nc
  kind: cdp
  geo: {lat: 35.26423, lng: -79.58602}
- id: '3760540'
  slug: seven-springs
  name: Seven Springs
  state: nc
  kind: town
  geo: {lat: 35.22483, lng: -77.84514}
- id: '3760560'
  slug: severn
  name: Severn
  state: nc
  kind: town
  geo: {lat: 36.5142, lng: -77.18929}
- id: '3760800'
  slug: shallotte
  name: Shallotte
  state: nc
  kind: town
  geo: {lat: 33.97824, lng: -78.38081}
- id: '3760940'
  slug: shannon
  name: Shannon
  state: nc
  kind: cdp
  geo: {lat: 34.84767, lng: -79.13959}
- id: '3761060'
  slug: sharpsburg
  name: Sharpsburg
  state: nc
  kind: town
  geo: {lat: 35.86642, lng: -77.83027}
- id: '3761200'
  slug: shelby
  name: Shelby
  state: nc
  kind: city
  geo: {lat: 35.2904, lng: -81.54564}
- id: '3761860'
  slug: siler-city
  name: Siler City
  state: nc
  kind: town
  geo: {lat: 35.72707, lng: -79.46366}
- id: '3761920'
  slug: silver-city
  name: Silver City
  state: nc
  kind: cdp
  geo: {lat: 34.99724, lng: -79.22919}
- id: '3761950'
  slug: silver-lake
  name: Silver Lake
  state: nc
  kind: cdp
  geo: {lat: 34.1423, lng: -77.90893}
- id: '3762040'
  slug: simpson
  name: Simpson
  state: nc
  kind: village
  geo: {lat: 35.57529, lng: -77.27898}
- id: '3762060'
  slug: sims
  name: Sims
  state: nc
  kind: town
  geo: {lat: 35.75903, lng: -78.06057}
- id: '3762190'
  slug: skippers-corner
  name: Skippers Corner
  state: nc
  kind: cdp
  geo: {lat: 34.32672, lng: -77.91463}
- id: '3762520'
  slug: smithfield
  name: Smithfield
  state: nc
  kind: town
  geo: {lat: 35.52382, lng: -78.35222}
- id: '3762580'
  slug: smithtown
  name: Smithtown
  state: nc
  kind: cdp
  geo: {lat: 36.23308, lng: -80.5712}
- id: '3762680'
  slug: sneads-ferry
  name: Sneads Ferry
  state: nc
  kind: cdp
  geo: {lat: 34.55522, lng: -77.37757}
- id: '3762760'
  slug: snow-hill
  name: Snow Hill
  state: nc
  kind: town
  geo: {lat: 35.45006, lng: -77.67638}
- id: '3763240'
  slug: south-henderson
  name: South Henderson
  state: nc
  kind: cdp
  geo: {lat: 36.3033, lng: -78.40595}
- id: '3763340'
  slug: south-mills
  name: South Mills
  state: nc
  kind: cdp
  geo: {lat: 36.43787, lng: -76.33074}
- id: '3763470'
  slug: south-rosemary
  name: South Rosemary
  state: nc
  kind: cdp
  geo: {lat: 36.45336, lng: -77.71342}
- id: '3763560'
  slug: south-weldon
  name: South Weldon
  state: nc
  kind: cdp
  geo: {lat: 36.41355, lng: -77.60242}
- id: '3763120'
  slug: southern-pines
  name: Southern Pines
  state: nc
  kind: town
  geo: {lat: 35.19504, lng: -79.40205}
- id: '3763130'
  slug: southern-shores
  name: Southern Shores
  state: nc
  kind: town
  geo: {lat: 36.11675, lng: -75.733}
- id: '3763360'
  slug: southmont
  name: Southmont
  state: nc
  kind: cdp
  geo: {lat: 35.65043, lng: -80.27602}
- id: '3763400'
  slug: southport
  name: Southport
  state: nc
  kind: city
  geo: {lat: 33.93333, lng: -78.00846}
- id: '3763680'
  slug: sparta
  name: Sparta
  state: nc
  kind: town
  geo: {lat: 36.50298, lng: -81.1226}
- id: '3763720'
  slug: speed
  name: Speed
  state: nc
  kind: town
  geo: {lat: 35.9685, lng: -77.44447}
- id: '3763760'
  slug: spencer
  name: Spencer
  state: nc
  kind: town
  geo: {lat: 35.70216, lng: -80.42474}
- id: '3763880'
  slug: spindale
  name: Spindale
  state: nc
  kind: town
  geo: {lat: 35.35972, lng: -81.9232}
- id: '3763920'
  slug: spivey-s-corner
  name: Spivey's Corner
  state: nc
  kind: cdp
  geo: {lat: 35.19822, lng: -78.48256}
- id: '3764000'
  slug: spout-springs
  name: Spout Springs
  state: nc
  kind: cdp
  geo: {lat: 35.27362, lng: -79.04562}
- id: '3764160'
  slug: spring-hope
  name: Spring Hope
  state: nc
  kind: town
  geo: {lat: 35.94413, lng: -78.10897}
- id: '3764180'
  slug: spring-lake
  name: Spring Lake
  state: nc
  kind: town
  geo: {lat: 35.18459, lng: -78.99472}
- id: '3764050'
  slug: springdale
  name: Springdale
  state: nc
  kind: cdp
  geo: {lat: 35.29029, lng: -81.14529}
- id: '3764260'
  slug: spruce-pine
  name: Spruce Pine
  state: nc
  kind: town
  geo: {lat: 35.91396, lng: -82.0697}
- id: '3758620'
  slug: st-helena
  name: St. Helena
  state: nc
  kind: village
  geo: {lat: 34.51662, lng: -77.91739}
- id: '3758630'
  slug: st-james
  name: St. James
  state: nc
  kind: town
  geo: {lat: 33.94436, lng: -78.10031}
- id: '3758720'
  slug: st-pauls
  name: St. Pauls
  state: nc
  kind: town
  geo: {lat: 34.8092, lng: -78.97656}
- id: '3758730'
  slug: st-stephens
  name: St. Stephens
  state: nc
  kind: cdp
  geo: {lat: 35.76456, lng: -81.27295}
- id: '3764380'
  slug: staley
  name: Staley
  state: nc
  kind: town
  geo: {lat: 35.79795, lng: -79.55174}
- id: '3764420'
  slug: stallings
  name: Stallings
  state: nc
  kind: town
  geo: {lat: 35.1103, lng: -80.66012}
- id: '3764460'
  slug: stanfield
  name: Stanfield
  state: nc
  kind: town
  geo: {lat: 35.23373, lng: -80.43022}
- id: '3764500'
  slug: stanley
  name: Stanley
  state: nc
  kind: town
  geo: {lat: 35.35469, lng: -81.09182}
- id: '3764560'
  slug: stantonsburg
  name: Stantonsburg
  state: nc
  kind: town
  geo: {lat: 35.605, lng: -77.81834}
- id: '3764580'
  slug: star
  name: Star
  state: nc
  kind: town
  geo: {lat: 35.39907, lng: -79.78331}
- id: '3764740'
  slug: statesville
  name: Statesville
  state: nc
  kind: city
  geo: {lat: 35.78337, lng: -80.87165}
- id: '3764840'
  slug: stedman
  name: Stedman
  state: nc
  kind: town
  geo: {lat: 35.01348, lng: -78.70012}
- id: '3764940'
  slug: stem
  name: Stem
  state: nc
  kind: town
  geo: {lat: 36.19569, lng: -78.72217}
- id: '3765020'
  slug: stokes
  name: Stokes
  state: nc
  kind: cdp
  geo: {lat: 35.71054, lng: -77.2676}
- id: '3765040'
  slug: stokesdale
  name: Stokesdale
  state: nc
  kind: town
  geo: {lat: 36.22807, lng: -79.97741}
- id: '3765100'
  slug: stoneville
  name: Stoneville
  state: nc
  kind: town
  geo: {lat: 36.46531, lng: -79.90635}
- id: '3765120'
  slug: stonewall
  name: Stonewall
  state: nc
  kind: town
  geo: {lat: 35.13876, lng: -76.74154}
- id: '3765260'
  slug: stony-point
  name: Stony Point
  state: nc
  kind: cdp
  geo: {lat: 35.86781, lng: -81.04412}
- id: '3765320'
  slug: stovall
  name: Stovall
  state: nc
  kind: town
  geo: {lat: 36.44197, lng: -78.57331}
- id: '3765530'
  slug: sugar-mountain
  name: Sugar Mountain
  state: nc
  kind: village
  geo: {lat: 36.12638, lng: -81.86474}
- id: '3765580'
  slug: summerfield
  name: Summerfield
  state: nc
  kind: town
  geo: {lat: 36.19691, lng: -79.89721}
- id: '3765700'
  slug: sunbury
  name: Sunbury
  state: nc
  kind: cdp
  geo: {lat: 36.44689, lng: -76.61273}
- id: '3765900'
  slug: sunset-beach
  name: Sunset Beach
  state: nc
  kind: town
  geo: {lat: 33.89024, lng: -78.50762}
- id: '3766040'
  slug: surf-city
  name: Surf City
  state: nc
  kind: town
  geo: {lat: 34.43733, lng: -77.53494}
- id: '3766340'
  slug: swan-quarter
  name: Swan Quarter
  state: nc
  kind: cdp
  geo: {lat: 35.41303, lng: -76.31971}
- id: '3766280'
  slug: swannanoa
  name: Swannanoa
  state: nc
  kind: cdp
  geo: {lat: 35.60078, lng: -82.38717}
- id: '3766360'
  slug: swansboro
  name: Swansboro
  state: nc
  kind: town
  geo: {lat: 34.69358, lng: -77.13427}
- id: '3766460'
  slug: swepsonville
  name: Swepsonville
  state: nc
  kind: town
  geo: {lat: 36.02878, lng: -79.3561}
- id: '3766500'
  slug: sylva
  name: Sylva
  state: nc
  kind: town
  geo: {lat: 35.37543, lng: -83.21848}
- id: '3766520'
  slug: tabor-city
  name: Tabor City
  state: nc
  kind: town
  geo: {lat: 34.1545, lng: -78.87318}
- id: '3766740'
  slug: tar-heel
  name: Tar Heel
  state: nc
  kind: town
  geo: {lat: 34.7339, lng: -78.7909}
- id: '3766700'
  slug: tarboro
  name: Tarboro
  state: nc
  kind: town
  geo: {lat: 35.90522, lng: -77.55721}
- id: '3766960'
  slug: taylorsville
  name: Taylorsville
  state: nc
  kind: town
  geo: {lat: 35.91678, lng: -81.17595}
- id: '3766980'
  slug: taylortown
  name: Taylortown
  state: nc
  kind: town
  geo: {lat: 35.21462, lng: -79.49165}
- id: '3767000'
  slug: teachey
  name: Teachey
  state: nc
  kind: town
  geo: {lat: 34.77081, lng: -78.00598}
- id: '3767420'
  slug: thomasville
  name: Thomasville
  state: nc
  kind: city
  geo: {lat: 35.88131, lng: -80.08155}
- id: '3767700'
  slug: toast
  name: Toast
  state: nc
  kind: cdp
  geo: {lat: 36.49668, lng: -80.63545}
- id: '3767720'
  slug: tobaccoville
  name: Tobaccoville
  state: nc
  kind: village
  geo: {lat: 36.2256, lng: -80.35885}
- id: '3768040'
  slug: topsail-beach
  name: Topsail Beach
  state: nc
  kind: town
  geo: {lat: 34.36637, lng: -77.64757}
- id: '3768340'
  slug: trent-woods
  name: Trent Woods
  state: nc
  kind: town
  geo: {lat: 35.08201, lng: -77.09196}
- id: '3768320'
  slug: trenton
  name: Trenton
  state: nc
  kind: town
  geo: {lat: 35.06331, lng: -77.35464}
- id: '3768400'
  slug: trinity
  name: Trinity
  state: nc
  kind: city
  geo: {lat: 35.87679, lng: -80.01045}
- id: '3768500'
  slug: troutman
  name: Troutman
  state: nc
  kind: town
  geo: {lat: 35.68579, lng: -80.86749}
- id: '3768520'
  slug: troy
  name: Troy
  state: nc
  kind: town
  geo: {lat: 35.36463, lng: -79.89185}
- id: '3768580'
  slug: tryon
  name: Tryon
  state: nc
  kind: town
  geo: {lat: 35.20881, lng: -82.2379}
- id: '3768740'
  slug: turkey
  name: Turkey
  state: nc
  kind: town
  geo: {lat: 34.99504, lng: -78.18415}
- id: '3769020'
  slug: tyro
  name: Tyro
  state: nc
  kind: cdp
  geo: {lat: 35.79971, lng: -80.37645}
- id: '3769260'
  slug: unionville
  name: Unionville
  state: nc
  kind: town
  geo: {lat: 35.07849, lng: -80.51713}
- id: '3769520'
  slug: valdese
  name: Valdese
  state: nc
  kind: town
  geo: {lat: 35.75554, lng: -81.57267}
- id: '3769600'
  slug: valle-crucis
  name: Valle Crucis
  state: nc
  kind: cdp
  geo: {lat: 36.21561, lng: -81.79664}
- id: '3769640'
  slug: valley-hill
  name: Valley Hill
  state: nc
  kind: cdp
  geo: {lat: 35.2939, lng: -82.49268}
- id: '3769680'
  slug: vanceboro
  name: Vanceboro
  state: nc
  kind: town
  geo: {lat: 35.30306, lng: -77.1567}
- id: '3769720'
  slug: vandemere
  name: Vandemere
  state: nc
  kind: town
  geo: {lat: 35.19273, lng: -76.66166}
- id: '3769740'
  slug: vander
  name: Vander
  state: nc
  kind: cdp
  geo: {lat: 35.03827, lng: -78.78538}
- id: '3769755'
  slug: vann-crossroads
  name: Vann Crossroads
  state: nc
  kind: cdp
  geo: {lat: 35.17013, lng: -78.40411}
- id: '3769795'
  slug: varnamtown
  name: Varnamtown
  state: nc
  kind: town
  geo: {lat: 33.94585, lng: -78.23269}
- id: '3769840'
  slug: vass
  name: Vass
  state: nc
  kind: town
  geo: {lat: 35.25388, lng: -79.28464}
- id: '3770320'
  slug: waco
  name: Waco
  state: nc
  kind: town
  geo: {lat: 35.36265, lng: -81.42933}
- id: '3770340'
  slug: wade
  name: Wade
  state: nc
  kind: town
  geo: {lat: 35.1634, lng: -78.73967}
- id: '3770380'
  slug: wadesboro
  name: Wadesboro
  state: nc
  kind: town
  geo: {lat: 34.96383, lng: -80.07469}
- id: '3770480'
  slug: wagram
  name: Wagram
  state: nc
  kind: town
  geo: {lat: 34.8891, lng: -79.36521}
- id: '3770540'
  slug: wake-forest
  name: Wake Forest
  state: nc
  kind: town
  geo: {lat: 35.96368, lng: -78.51174}
- id: '3770580'
  slug: wakulla
  name: Wakulla
  state: nc
  kind: cdp
  geo: {lat: 34.79696, lng: -79.25597}
- id: '3770660'
  slug: walkertown
  name: Walkertown
  state: nc
  kind: town
  geo: {lat: 36.14974, lng: -80.16895}
- id: '3770720'
  slug: wallace
  name: Wallace
  state: nc
  kind: town
  geo: {lat: 34.73789, lng: -77.99058}
- id: '3770740'
  slug: wallburg
  name: Wallburg
  state: nc
  kind: town
  geo: {lat: 36.01315, lng: -80.16693}
- id: '3770780'
  slug: walnut-cove
  name: Walnut Cove
  state: nc
  kind: town
  geo: {lat: 36.29354, lng: -80.1409}
- id: '3770820'
  slug: walnut-creek
  name: Walnut Creek
  state: nc
  kind: village
  geo: {lat: 35.30937, lng: -77.87472}
- id: '3770860'
  slug: walstonburg
  name: Walstonburg
  state: nc
  kind: town
  geo: {lat: 35.59601, lng: -77.69782}
- id: '3770920'
  slug: wanchese
  name: Wanchese
  state: nc
  kind: cdp
  geo: {lat: 35.84019, lng: -75.64166}
- id: '3771100'
  slug: warrenton
  name: Warrenton
  state: nc
  kind: town
  geo: {lat: 36.39898, lng: -78.15701}
- id: '3771160'
  slug: warsaw
  name: Warsaw
  state: nc
  kind: town
  geo: {lat: 34.99958, lng: -78.09273}
- id: '3771220'
  slug: washington
  name: Washington
  state: nc
  kind: city
  geo: {lat: 35.5647, lng: -77.04779}
- id: '3771240'
  slug: washington-park
  name: Washington Park
  state: nc
  kind: town
  geo: {lat: 35.53286, lng: -77.03158}
- id: '3771320'
  slug: watha
  name: Watha
  state: nc
  kind: town
  geo: {lat: 34.65119, lng: -77.95759}
- id: '3771440'
  slug: waves
  name: Waves
  state: nc
  kind: cdp
  geo: {lat: 35.5659, lng: -75.46548}
- id: '3771460'
  slug: waxhaw
  name: Waxhaw
  state: nc
  kind: town
  geo: {lat: 34.93747, lng: -80.73997}
- id: '3771500'
  slug: waynesville
  name: Waynesville
  state: nc
  kind: town
  geo: {lat: 35.48571, lng: -82.99912}
- id: '3771560'
  slug: weaverville
  name: Weaverville
  state: nc
  kind: town
  geo: {lat: 35.69932, lng: -82.55572}
- id: '3771600'
  slug: webster
  name: Webster
  state: nc
  kind: town
  geo: {lat: 35.34998, lng: -83.21898}
- id: '3771680'
  slug: weddington
  name: Weddington
  state: nc
  kind: town
  geo: {lat: 35.02213, lng: -80.73542}
- id: '3771760'
  slug: welcome
  name: Welcome
  state: nc
  kind: cdp
  geo: {lat: 35.90662, lng: -80.25477}
- id: '3771780'
  slug: weldon
  name: Weldon
  state: nc
  kind: town
  geo: {lat: 36.424, lng: -77.61299}
- id: '3771860'
  slug: wendell
  name: Wendell
  state: nc
  kind: town
  geo: {lat: 35.79356, lng: -78.3511}
- id: '3771900'
  slug: wentworth
  name: Wentworth
  state: nc
  kind: town
  geo: {lat: 36.40117, lng: -79.75691}
- id: '3771940'
  slug: wesley-chapel
  name: Wesley Chapel
  state: nc
  kind: village
  geo: {lat: 35.00584, lng: -80.69344}
- id: '3772150'
  slug: west-canton
  name: West Canton
  state: nc
  kind: cdp
  geo: {lat: 35.53874, lng: -82.86473}
- id: '3772540'
  slug: west-jefferson
  name: West Jefferson
  state: nc
  kind: town
  geo: {lat: 36.38309, lng: -81.48962}
- id: '3772600'
  slug: west-marion
  name: West Marion
  state: nc
  kind: cdp
  geo: {lat: 35.65257, lng: -82.01922}
- id: '3772755'
  slug: westport
  name: Westport
  state: nc
  kind: cdp
  geo: {lat: 35.49726, lng: -80.97686}
- id: '3773140'
  slug: whispering-pines
  name: Whispering Pines
  state: nc
  kind: village
  geo: {lat: 35.24817, lng: -79.37192}
- id: '3773160'
  slug: whitakers
  name: Whitakers
  state: nc
  kind: town
  geo: {lat: 36.1057, lng: -77.71297}
- id: '3773300'
  slug: white-lake
  name: White Lake
  state: nc
  kind: town
  geo: {lat: 34.65023, lng: -78.49111}
- id: '3773320'
  slug: white-oak
  name: White Oak
  state: nc
  kind: cdp
  geo: {lat: 34.73966, lng: -78.71859}
- id: '3773460'
  slug: white-plains
  name: White Plains
  state: nc
  kind: cdp
  geo: {lat: 36.44377, lng: -80.649}
- id: '3773660'
  slug: whiteville
  name: Whiteville
  state: nc
  kind: city
  geo: {lat: 34.33046, lng: -78.70144}
- id: '3773760'
  slug: whitsett
  name: Whitsett
  state: nc
  kind: town
  geo: {lat: 36.07918, lng: -79.57234}
- id: '3773780'
  slug: whittier
  name: Whittier
  state: nc
  kind: cdp
  geo: {lat: 35.43468, lng: -83.35476}
- id: '3774020'
  slug: wilkesboro
  name: Wilkesboro
  state: nc
  kind: town
  geo: {lat: 36.14244, lng: -81.17697}
- id: '3774220'
  slug: williamston
  name: Williamston
  state: nc
  kind: town
  geo: {lat: 35.84654, lng: -77.06608}
- id: '3774440'
  slug: wilmington
  name: Wilmington
  state: nc
  kind: city
  geo: {lat: 34.20923, lng: -77.88577}
- id: '3774540'
  slug: wilson
  name: Wilson
  state: nc
  kind: city
  geo: {lat: 35.73149, lng: -77.93075}
- id: '3774580'
  slug: wilson-s-mills
  name: Wilson's Mills
  state: nc
  kind: town
  geo: {lat: 35.58615, lng: -78.36299}
- id: '3774680'
  slug: windsor
  name: Windsor
  state: nc
  kind: town
  geo: {lat: 35.99305, lng: -76.9399}
- id: '3774720'
  slug: winfall
  name: Winfall
  state: nc
  kind: town
  geo: {lat: 36.2116, lng: -76.45667}
- id: '3774760'
  slug: wingate
  name: Wingate
  state: nc
  kind: town
  geo: {lat: 34.98754, lng: -80.44756}
- id: '3775000'
  slug: winston-salem
  name: Winston-Salem
  state: nc
  kind: city
  geo: {lat: 36.10286, lng: -80.26083}
- id: '3775060'
  slug: winterville
  name: Winterville
  state: nc
  kind: town
  geo: {lat: 35.52867, lng: -77.40007}
- id: '3775080'
  slug: winton
  name: Winton
  state: nc
  kind: town
  geo: {lat: 36.38945, lng: -76.93473}
- id: '3775280'
  slug: woodfin
  name: Woodfin
  state: nc
  kind: town
  geo: {lat: 35.64649, lng: -82.58662}
- id: '3775340'
  slug: woodland
  name: Woodland
  state: nc
  kind: town
  geo: {lat: 36.33062, lng: -77.21491}
- id: '3775375'
  slug: woodlawn
  name: Woodlawn
  state: nc
  kind: cdp
  geo: {lat: 36.11796, lng: -79.29592}
- id: '3775780'
  slug: wrightsboro
  name: Wrightsboro
  state: nc
  kind: cdp
  geo: {lat: 34.28756, lng: -77.93012}
- id: '3775820'
  slug: wrightsville-beach
  name: Wrightsville Beach
  state: nc
  kind: town
  geo: {lat: 34.21299, lng: -77.79792}
- id: '3775880'
  slug: yadkin-college
  name: Yadkin College
  state: nc
  kind: cdp
  geo: {lat: 35.87207, lng: -80.38608}
- id: '3775960'
  slug: yadkinville
  name: Yadkinville
  state: nc
  kind: town
  geo: {lat: 36.13156, lng: -80.65933}
- id: '3776000'
  slug: yanceyville
  name: Yanceyville
  state: nc
  kind: town
  geo: {lat: 36.41359, lng: -79.34247}
- id: '3776200'
  slug: youngsville
  name: Youngsville
  state: nc
  kind: town
  geo: {lat: 36.03507, lng: -78.48165}
- id: '3776220'
  slug: zebulon
  name: Zebulon
  state: nc
  kind: town
  geo: {lat: 35.82954, lng: -78.31416}
