- id: '3100205'
  slug: abie
  name: Abie
  state: ne
  kind: village
  geo: {lat: 41.3341, lng: -96.94975}
- id: '3100240'
  slug: adams
  name: Adams
  state: ne
  kind: village
  geo: {lat: 40.45901, lng: -96.50736}
- id: '3100380'
  slug: agnew
  name: Agnew
  state: ne
  kind: cdp
  geo: {lat: 41.01423, lng: -96.81427}
- id: '3100415'
  slug: ainsworth
  name: Ainsworth
  state: ne
  kind: city
  geo: {lat: 42.54844, lng: -99.85752}
- id: '3100555'
  slug: albion
  name: Albion
  state: ne
  kind: city
  geo: {lat: 41.68799, lng: -97.99969}
- id: '3100625'
  slug: alda
  name: Alda
  state: ne
  kind: village
  geo: {lat: 40.86657, lng: -98.46805}
- id: '3100730'
  slug: alexandria
  name: Alexandria
  state: ne
  kind: village
  geo: {lat: 40.24755, lng: -97.38784}
- id: '3100870'
  slug: allen
  name: Allen
  state: ne
  kind: village
  geo: {lat: 42.41443, lng: -96.84321}
- id: '3100905'
  slug: alliance
  name: Alliance
  state: ne
  kind: city
  geo: {lat: 42.10257, lng: -102.87619}
- id: '3100975'
  slug: alma
  name: Alma
  state: ne
  kind: city
  geo: {lat: 40.10346, lng: -99.36562}
- id: '3101150'
  slug: alvo
  name: Alvo
  state: ne
  kind: village
  geo: {lat: 40.8722, lng: -96.38654}
- id: '3101220'
  slug: ames
  name: Ames
  state: ne
  kind: cdp
  geo: {lat: 41.4485, lng: -96.62628}
- id: '3101290'
  slug: amherst
  name: Amherst
  state: ne
  kind: village
  geo: {lat: 40.83837, lng: -99.26951}
- id: '3101465'
  slug: anoka
  name: Anoka
  state: ne
  kind: village
  geo: {lat: 42.946, lng: -98.82853}
- id: '3101500'
  slug: anselmo
  name: Anselmo
  state: ne
  kind: village
  geo: {lat: 41.61858, lng: -99.86458}
- id: '3101535'
  slug: ansley
  name: Ansley
  state: ne
  kind: village
  geo: {lat: 41.28731, lng: -99.38252}
- id: '3101780'
  slug: arapahoe
  name: Arapahoe
  state: ne
  kind: city
  geo: {lat: 40.30512, lng: -99.89798}
- id: '3101850'
  slug: arcadia
  name: Arcadia
  state: ne
  kind: village
  geo: {lat: 41.42482, lng: -99.12606}
- id: '3101920'
  slug: archer
  name: Archer
  state: ne
  kind: cdp
  geo: {lat: 41.16663, lng: -98.13886}
- id: '3101990'
  slug: arlington
  name: Arlington
  state: ne
  kind: village
  geo: {lat: 41.45485, lng: -96.35653}
- id: '3102095'
  slug: arnold
  name: Arnold
  state: ne
  kind: village
  geo: {lat: 41.42324, lng: -100.19356}
- id: '3102200'
  slug: arthur
  name: Arthur
  state: ne
  kind: village
  geo: {lat: 41.57187, lng: -101.69226}
- id: '3102305'
  slug: ashland
  name: Ashland
  state: ne
  kind: city
  geo: {lat: 41.03985, lng: -96.37254}
- id: '3102375'
  slug: ashton
  name: Ashton
  state: ne
  kind: village
  geo: {lat: 41.24775, lng: -98.79515}
- id: '3102480'
  slug: aten
  name: Aten
  state: ne
  kind: cdp
  geo: {lat: 42.83674, lng: -97.44081}
- id: '3102550'
  slug: atkinson
  name: Atkinson
  state: ne
  kind: city
  geo: {lat: 42.53087, lng: -98.97473}
- id: '3102620'
  slug: atlanta
  name: Atlanta
  state: ne
  kind: village
  geo: {lat: 40.36841, lng: -99.47322}
- id: '3102655'
  slug: auburn
  name: Auburn
  state: ne
  kind: city
  geo: {lat: 40.38938, lng: -95.8436}
- id: '3102690'
  slug: aurora
  name: Aurora
  state: ne
  kind: city
  geo: {lat: 40.86387, lng: -98.00697}
- id: '3102795'
  slug: avoca
  name: Avoca
  state: ne
  kind: village
  geo: {lat: 40.79585, lng: -96.11989}
- id: '3102830'
  slug: axtell
  name: Axtell
  state: ne
  kind: village
  geo: {lat: 40.47984, lng: -99.12925}
- id: '3102865'
  slug: ayr
  name: Ayr
  state: ne
  kind: village
  geo: {lat: 40.43781, lng: -98.44094}
- id: '3103005'
  slug: bancroft
  name: Bancroft
  state: ne
  kind: village
  geo: {lat: 42.01044, lng: -96.57349}
- id: '3103040'
  slug: barada
  name: Barada
  state: ne
  kind: village
  geo: {lat: 40.21846, lng: -95.5778}
- id: '3103075'
  slug: barneston
  name: Barneston
  state: ne
  kind: village
  geo: {lat: 40.0487, lng: -96.5736}
- id: '3103145'
  slug: bartlett
  name: Bartlett
  state: ne
  kind: village
  geo: {lat: 41.88393, lng: -98.55257}
- id: '3103180'
  slug: bartley
  name: Bartley
  state: ne
  kind: village
  geo: {lat: 40.25112, lng: -100.31043}
- id: '3103215'
  slug: bassett
  name: Bassett
  state: ne
  kind: city
  geo: {lat: 42.58254, lng: -99.53663}
- id: '3103250'
  slug: battle-creek
  name: Battle Creek
  state: ne
  kind: city
  geo: {lat: 41.99812, lng: -97.59946}
- id: '3103285'
  slug: bayard
  name: Bayard
  state: ne
  kind: city
  geo: {lat: 41.75719, lng: -103.32301}
- id: '3103355'
  slug: bazile-mills
  name: Bazile Mills
  state: ne
  kind: village
  geo: {lat: 42.51244, lng: -97.90833}
- id: '3103377'
  slug: beacon-view
  name: Beacon View
  state: ne
  kind: cdp
  geo: {lat: 41.07119, lng: -96.32647}
- id: '3103390'
  slug: beatrice
  name: Beatrice
  state: ne
  kind: city
  geo: {lat: 40.27328, lng: -96.74595}
- id: '3103495'
  slug: beaver-city
  name: Beaver City
  state: ne
  kind: city
  geo: {lat: 40.13825, lng: -99.82844}
- id: '3103530'
  slug: beaver-crossing
  name: Beaver Crossing
  state: ne
  kind: village
  geo: {lat: 40.77792, lng: -97.28247}
- id: '3103546'
  slug: beaver-lake
  name: Beaver Lake
  state: ne
  kind: cdp
  geo: {lat: 40.92134, lng: -95.88553}
- id: '3103600'
  slug: bee
  name: Bee
  state: ne
  kind: village
  geo: {lat: 41.00641, lng: -97.05827}
- id: '3103635'
  slug: beemer
  name: Beemer
  state: ne
  kind: village
  geo: {lat: 41.92977, lng: -96.80912}
- id: '3103775'
  slug: belden
  name: Belden
  state: ne
  kind: village
  geo: {lat: 42.41168, lng: -97.20741}
- id: '3103810'
  slug: belgrade
  name: Belgrade
  state: ne
  kind: village
  geo: {lat: 41.47095, lng: -98.06778}
- id: '3103950'
  slug: bellevue
  name: Bellevue
  state: ne
  kind: city
  geo: {lat: 41.14493, lng: -95.93856}
- id: '3104020'
  slug: bellwood
  name: Bellwood
  state: ne
  kind: village
  geo: {lat: 41.3419, lng: -97.23986}
- id: '3104055'
  slug: belmar
  name: Belmar
  state: ne
  kind: cdp
  geo: {lat: 41.30546, lng: -101.93463}
- id: '3104160'
  slug: belvidere
  name: Belvidere
  state: ne
  kind: village
  geo: {lat: 40.2547, lng: -97.55742}
- id: '3104195'
  slug: benedict
  name: Benedict
  state: ne
  kind: village
  geo: {lat: 41.00626, lng: -97.60714}
- id: '3104230'
  slug: benkelman
  name: Benkelman
  state: ne
  kind: city
  geo: {lat: 40.04683, lng: -101.54019}
- id: '3104300'
  slug: bennet
  name: Bennet
  state: ne
  kind: village
  geo: {lat: 40.68173, lng: -96.50393}
- id: '3104405'
  slug: bennington
  name: Bennington
  state: ne
  kind: city
  geo: {lat: 41.36763, lng: -96.16168}
- id: '3104545'
  slug: berea
  name: Berea
  state: ne
  kind: cdp
  geo: {lat: 42.21228, lng: -102.98298}
- id: '3104615'
  slug: bertrand
  name: Bertrand
  state: ne
  kind: village
  geo: {lat: 40.52631, lng: -99.63236}
- id: '3104650'
  slug: berwyn
  name: Berwyn
  state: ne
  kind: village
  geo: {lat: 41.35085, lng: -99.50061}
- id: '3104895'
  slug: big-springs
  name: Big Springs
  state: ne
  kind: village
  geo: {lat: 41.0609, lng: -102.07447}
- id: '3105140'
  slug: bladen
  name: Bladen
  state: ne
  kind: village
  geo: {lat: 40.32344, lng: -98.59588}
- id: '3105350'
  slug: blair
  name: Blair
  state: ne
  kind: city
  geo: {lat: 41.54018, lng: -96.1353}
- id: '3105455'
  slug: bloomfield
  name: Bloomfield
  state: ne
  kind: city
  geo: {lat: 42.59841, lng: -97.64814}
- id: '3105490'
  slug: bloomington
  name: Bloomington
  state: ne
  kind: village
  geo: {lat: 40.09379, lng: -99.03839}
- id: '3105560'
  slug: blue-hill
  name: Blue Hill
  state: ne
  kind: city
  geo: {lat: 40.33306, lng: -98.4484}
- id: '3105630'
  slug: blue-springs
  name: Blue Springs
  state: ne
  kind: city
  geo: {lat: 40.13719, lng: -96.66284}
- id: '3105980'
  slug: bow-valley
  name: Bow Valley
  state: ne
  kind: cdp
  geo: {lat: 42.71542, lng: -97.25221}
- id: '3106015'
  slug: boys-town
  name: Boys Town
  state: ne
  kind: village
  geo: {lat: 41.25598, lng: -96.12844}
- id: '3106050'
  slug: bradshaw
  name: Bradshaw
  state: ne
  kind: village
  geo: {lat: 40.88347, lng: -97.74686}
- id: '3106085'
  slug: brady
  name: Brady
  state: ne
  kind: village
  geo: {lat: 41.02229, lng: -100.36756}
- id: '3106120'
  slug: brainard
  name: Brainard
  state: ne
  kind: village
  geo: {lat: 41.18171, lng: -97.00225}
- id: '3106260'
  slug: brewster
  name: Brewster
  state: ne
  kind: village
  geo: {lat: 41.93827, lng: -99.86499}
- id: '3106295'
  slug: bridgeport
  name: Bridgeport
  state: ne
  kind: city
  geo: {lat: 41.66471, lng: -103.09714}
- id: '3106400'
  slug: bristow
  name: Bristow
  state: ne
  kind: village
  geo: {lat: 42.84078, lng: -98.58331}
- id: '3106470'
  slug: broadwater
  name: Broadwater
  state: ne
  kind: village
  geo: {lat: 41.59798, lng: -102.85245}
- id: '3106505'
  slug: brock
  name: Brock
  state: ne
  kind: village
  geo: {lat: 40.48047, lng: -95.96005}
- id: '3106610'
  slug: broken-bow
  name: Broken Bow
  state: ne
  kind: city
  geo: {lat: 41.40519, lng: -99.64076}
- id: '3106680'
  slug: brownlee
  name: Brownlee
  state: ne
  kind: cdp
  geo: {lat: 42.28921, lng: -100.62418}
- id: '3106750'
  slug: brownville
  name: Brownville
  state: ne
  kind: village
  geo: {lat: 40.39762, lng: -95.66109}
- id: '3106785'
  slug: brule
  name: Brule
  state: ne
  kind: village
  geo: {lat: 41.0947, lng: -101.88851}
- id: '3106820'
  slug: bruning
  name: Bruning
  state: ne
  kind: village
  geo: {lat: 40.33517, lng: -97.56557}
- id: '3106855'
  slug: bruno
  name: Bruno
  state: ne
  kind: village
  geo: {lat: 41.28304, lng: -96.96093}
- id: '3106890'
  slug: brunswick
  name: Brunswick
  state: ne
  kind: village
  geo: {lat: 42.3377, lng: -97.97176}
- id: '3106945'
  slug: buccaneer-bay
  name: Buccaneer Bay
  state: ne
  kind: cdp
  geo: {lat: 41.04924, lng: -95.96619}
- id: '3107065'
  slug: burchard
  name: Burchard
  state: ne
  kind: village
  geo: {lat: 40.14932, lng: -96.34859}
- id: '3107205'
  slug: burr
  name: Burr
  state: ne
  kind: village
  geo: {lat: 40.53595, lng: -96.29977}
- id: '3107310'
  slug: burton
  name: Burton
  state: ne
  kind: village
  geo: {lat: 42.91193, lng: -99.59185}
- id: '3107345'
  slug: burwell
  name: Burwell
  state: ne
  kind: city
  geo: {lat: 41.78004, lng: -99.13421}
- id: '3107415'
  slug: bushnell
  name: Bushnell
  state: ne
  kind: village
  geo: {lat: 41.23273, lng: -103.89113}
- id: '3107485'
  slug: butte
  name: Butte
  state: ne
  kind: village
  geo: {lat: 42.91298, lng: -98.84736}
- id: '3107555'
  slug: byron
  name: Byron
  state: ne
  kind: village
  geo: {lat: 40.00472, lng: -97.76877}
- id: '3107625'
  slug: cairo
  name: Cairo
  state: ne
  kind: village
  geo: {lat: 41.00478, lng: -98.60055}
- id: '3107660'
  slug: callaway
  name: Callaway
  state: ne
  kind: village
  geo: {lat: 41.29145, lng: -99.92031}
- id: '3107730'
  slug: cambridge
  name: Cambridge
  state: ne
  kind: city
  geo: {lat: 40.2843, lng: -100.1658}
- id: '3107870'
  slug: campbell
  name: Campbell
  state: ne
  kind: village
  geo: {lat: 40.29634, lng: -98.73152}
- id: '3107975'
  slug: carleton
  name: Carleton
  state: ne
  kind: village
  geo: {lat: 40.30328, lng: -97.68364}
- id: '3108010'
  slug: carroll
  name: Carroll
  state: ne
  kind: village
  geo: {lat: 42.27578, lng: -97.1909}
- id: '3108150'
  slug: cedar-bluffs
  name: Cedar Bluffs
  state: ne
  kind: village
  geo: {lat: 41.39712, lng: -96.60976}
- id: '3108185'
  slug: cedar-creek
  name: Cedar Creek
  state: ne
  kind: village
  geo: {lat: 41.04453, lng: -96.1004}
- id: '3108220'
  slug: cedar-rapids
  name: Cedar Rapids
  state: ne
  kind: village
  geo: {lat: 41.55891, lng: -98.1493}
- id: '3108360'
  slug: center
  name: Center
  state: ne
  kind: village
  geo: {lat: 42.60897, lng: -97.87623}
- id: '3108535'
  slug: central-city
  name: Central City
  state: ne
  kind: city
  geo: {lat: 41.11304, lng: -98.00034}
- id: '3108570'
  slug: ceresco
  name: Ceresco
  state: ne
  kind: village
  geo: {lat: 41.0577, lng: -96.64574}
- id: '3108605'
  slug: chadron
  name: Chadron
  state: ne
  kind: city
  geo: {lat: 42.82597, lng: -103.00248}
- id: '3108640'
  slug: chalco
  name: Chalco
  state: ne
  kind: cdp
  geo: {lat: 41.18237, lng: -96.13535}
- id: '3108675'
  slug: chambers
  name: Chambers
  state: ne
  kind: village
  geo: {lat: 42.20473, lng: -98.74861}
- id: '3108745'
  slug: champion
  name: Champion
  state: ne
  kind: cdp
  geo: {lat: 40.47085, lng: -101.74489}
- id: '3108780'
  slug: chapman
  name: Chapman
  state: ne
  kind: village
  geo: {lat: 41.02328, lng: -98.15939}
- id: '3108885'
  slug: chappell
  name: Chappell
  state: ne
  kind: city
  geo: {lat: 41.0913, lng: -102.46994}
- id: '3108990'
  slug: cheney
  name: Cheney
  state: ne
  kind: cdp
  geo: {lat: 40.72604, lng: -96.5936}
- id: '3109095'
  slug: chester
  name: Chester
  state: ne
  kind: village
  geo: {lat: 40.01022, lng: -97.61809}
- id: '3109165'
  slug: clarks
  name: Clarks
  state: ne
  kind: village
  geo: {lat: 41.21627, lng: -97.83949}
- id: '3109200'
  slug: clarkson
  name: Clarkson
  state: ne
  kind: city
  geo: {lat: 41.72342, lng: -97.12152}
- id: '3109270'
  slug: clatonia
  name: Clatonia
  state: ne
  kind: village
  geo: {lat: 40.46534, lng: -96.85113}
- id: '3109375'
  slug: clay-center
  name: Clay Center
  state: ne
  kind: city
  geo: {lat: 40.52547, lng: -98.055}
- id: '3109445'
  slug: clearwater
  name: Clearwater
  state: ne
  kind: village
  geo: {lat: 42.17082, lng: -98.18953}
- id: '3109655'
  slug: clinton
  name: Clinton
  state: ne
  kind: village
  geo: {lat: 42.75972, lng: -102.34788}
- id: '3109760'
  slug: cody
  name: Cody
  state: ne
  kind: village
  geo: {lat: 42.93775, lng: -101.24893}
- id: '3109865'
  slug: coleridge
  name: Coleridge
  state: ne
  kind: village
  geo: {lat: 42.50641, lng: -97.20308}
- id: '3110005'
  slug: colon
  name: Colon
  state: ne
  kind: village
  geo: {lat: 41.29812, lng: -96.60734}
- id: '3110110'
  slug: columbus
  name: Columbus
  state: ne
  kind: city
  geo: {lat: 41.43709, lng: -97.35862}
- id: '3110180'
  slug: comstock
  name: Comstock
  state: ne
  kind: village
  geo: {lat: 41.5572, lng: -99.24301}
- id: '3110250'
  slug: concord
  name: Concord
  state: ne
  kind: village
  geo: {lat: 42.38417, lng: -96.98929}
- id: '3110390'
  slug: cook
  name: Cook
  state: ne
  kind: village
  geo: {lat: 40.51058, lng: -96.16164}
- id: '3110495'
  slug: cordova
  name: Cordova
  state: ne
  kind: village
  geo: {lat: 40.71637, lng: -97.3516}
- id: '3110600'
  slug: cornlea
  name: Cornlea
  state: ne
  kind: village
  geo: {lat: 41.68005, lng: -97.5669}
- id: '3110635'
  slug: cortland
  name: Cortland
  state: ne
  kind: village
  geo: {lat: 40.50597, lng: -96.70605}
- id: '3110740'
  slug: cotesfield
  name: Cotesfield
  state: ne
  kind: village
  geo: {lat: 41.35757, lng: -98.63361}
- id: '3110985'
  slug: cowles
  name: Cowles
  state: ne
  kind: village
  geo: {lat: 40.1714, lng: -98.44902}
- id: '3111020'
  slug: cozad
  name: Cozad
  state: ne
  kind: city
  geo: {lat: 40.8613, lng: -99.98637}
- id: '3111055'
  slug: crab-orchard
  name: Crab Orchard
  state: ne
  kind: village
  geo: {lat: 40.33465, lng: -96.42244}
- id: '3111090'
  slug: craig
  name: Craig
  state: ne
  kind: village
  geo: {lat: 41.78526, lng: -96.36243}
- id: '3111195'
  slug: crawford
  name: Crawford
  state: ne
  kind: city
  geo: {lat: 42.68457, lng: -103.416}
- id: '3111230'
  slug: creighton
  name: Creighton
  state: ne
  kind: city
  geo: {lat: 42.46486, lng: -97.90715}
- id: '3111300'
  slug: creston
  name: Creston
  state: ne
  kind: village
  geo: {lat: 41.70798, lng: -97.36266}
- id: '3111370'
  slug: crete
  name: Crete
  state: ne
  kind: city
  geo: {lat: 40.62477, lng: -96.9525}
- id: '3111440'
  slug: crofton
  name: Crofton
  state: ne
  kind: city
  geo: {lat: 42.73161, lng: -97.49861}
- id: '3111475'
  slug: crookston
  name: Crookston
  state: ne
  kind: village
  geo: {lat: 42.92631, lng: -100.75343}
- id: '3111615'
  slug: culbertson
  name: Culbertson
  state: ne
  kind: village
  geo: {lat: 40.2242, lng: -100.83964}
- id: '3111825'
  slug: curtis
  name: Curtis
  state: ne
  kind: city
  geo: {lat: 40.63356, lng: -100.51126}
- id: '3111860'
  slug: cushing
  name: Cushing
  state: ne
  kind: village
  geo: {lat: 41.29483, lng: -98.36926}
- id: '3112000'
  slug: dakota-city
  name: Dakota City
  state: ne
  kind: city
  geo: {lat: 42.41812, lng: -96.42074}
- id: '3112070'
  slug: dalton
  name: Dalton
  state: ne
  kind: village
  geo: {lat: 41.40823, lng: -102.97078}
- id: '3112105'
  slug: danbury
  name: Danbury
  state: ne
  kind: village
  geo: {lat: 40.03771, lng: -100.40511}
- id: '3112140'
  slug: dannebrog
  name: Dannebrog
  state: ne
  kind: village
  geo: {lat: 41.11861, lng: -98.54573}
- id: '3112245'
  slug: davenport
  name: Davenport
  state: ne
  kind: village
  geo: {lat: 40.31239, lng: -97.81136}
- id: '3112280'
  slug: davey
  name: Davey
  state: ne
  kind: village
  geo: {lat: 40.98377, lng: -96.66916}
- id: '3112315'
  slug: david-city
  name: David City
  state: ne
  kind: city
  geo: {lat: 41.25332, lng: -97.12643}
- id: '3112420'
  slug: dawson
  name: Dawson
  state: ne
  kind: village
  geo: {lat: 40.13089, lng: -95.83008}
- id: '3112455'
  slug: daykin
  name: Daykin
  state: ne
  kind: village
  geo: {lat: 40.32172, lng: -97.29833}
- id: '3113015'
  slug: de-witt
  name: De Witt
  state: ne
  kind: village
  geo: {lat: 40.39489, lng: -96.92179}
- id: '3112525'
  slug: decatur
  name: Decatur
  state: ne
  kind: village
  geo: {lat: 42.00589, lng: -96.24831}
- id: '3112770'
  slug: denton
  name: Denton
  state: ne
  kind: village
  geo: {lat: 40.73925, lng: -96.84597}
- id: '3112840'
  slug: deshler
  name: Deshler
  state: ne
  kind: city
  geo: {lat: 40.1399, lng: -97.72366}
- id: '3112945'
  slug: deweese
  name: Deweese
  state: ne
  kind: village
  geo: {lat: 40.35473, lng: -98.13916}
- id: '3113085'
  slug: diller
  name: Diller
  state: ne
  kind: village
  geo: {lat: 40.10876, lng: -96.93783}
- id: '3113190'
  slug: dix
  name: Dix
  state: ne
  kind: village
  geo: {lat: 41.23428, lng: -103.48667}
- id: '3113225'
  slug: dixon
  name: Dixon
  state: ne
  kind: village
  geo: {lat: 42.41541, lng: -96.99483}
- id: '3113295'
  slug: dodge
  name: Dodge
  state: ne
  kind: village
  geo: {lat: 41.72181, lng: -96.88039}
- id: '3113365'
  slug: doniphan
  name: Doniphan
  state: ne
  kind: village
  geo: {lat: 40.77432, lng: -98.37129}
- id: '3113435'
  slug: dorchester
  name: Dorchester
  state: ne
  kind: village
  geo: {lat: 40.64801, lng: -97.11544}
- id: '3113505'
  slug: douglas
  name: Douglas
  state: ne
  kind: village
  geo: {lat: 40.59318, lng: -96.38823}
- id: '3113750'
  slug: du-bois
  name: Du Bois
  state: ne
  kind: village
  geo: {lat: 40.03484, lng: -96.04725}
- id: '3113855'
  slug: dunbar
  name: Dunbar
  state: ne
  kind: village
  geo: {lat: 40.66869, lng: -96.03087}
- id: '3113890'
  slug: duncan
  name: Duncan
  state: ne
  kind: village
  geo: {lat: 41.39044, lng: -97.49271}
- id: '3113960'
  slug: dunning
  name: Dunning
  state: ne
  kind: village
  geo: {lat: 41.82708, lng: -100.1045}
- id: '3114065'
  slug: dwight
  name: Dwight
  state: ne
  kind: village
  geo: {lat: 41.08275, lng: -97.0191}
- id: '3114100'
  slug: eagle
  name: Eagle
  state: ne
  kind: village
  geo: {lat: 40.81594, lng: -96.43259}
- id: '3114380'
  slug: eddyville
  name: Eddyville
  state: ne
  kind: village
  geo: {lat: 41.01221, lng: -99.624}
- id: '3114450'
  slug: edgar
  name: Edgar
  state: ne
  kind: city
  geo: {lat: 40.36826, lng: -97.97097}
- id: '3114520'
  slug: edison
  name: Edison
  state: ne
  kind: village
  geo: {lat: 40.27924, lng: -99.77581}
- id: '3114555'
  slug: elba
  name: Elba
  state: ne
  kind: village
  geo: {lat: 41.28531, lng: -98.56926}
- id: '3114730'
  slug: elgin
  name: Elgin
  state: ne
  kind: city
  geo: {lat: 41.98311, lng: -98.08277}
- id: '3114975'
  slug: elk-creek
  name: Elk Creek
  state: ne
  kind: village
  geo: {lat: 40.28825, lng: -96.12694}
- id: '3115360'
  slug: elm-creek
  name: Elm Creek
  state: ne
  kind: village
  geo: {lat: 40.72008, lng: -99.37559}
- id: '3115430'
  slug: elmwood
  name: Elmwood
  state: ne
  kind: village
  geo: {lat: 40.84278, lng: -96.29522}
- id: '3115500'
  slug: elsie
  name: Elsie
  state: ne
  kind: village
  geo: {lat: 40.84717, lng: -101.38916}
- id: '3115570'
  slug: elwood
  name: Elwood
  state: ne
  kind: village
  geo: {lat: 40.59013, lng: -99.86198}
- id: '3115605'
  slug: elyria
  name: Elyria
  state: ne
  kind: village
  geo: {lat: 41.68006, lng: -99.00532}
- id: '3115675'
  slug: emerald
  name: Emerald
  state: ne
  kind: cdp
  geo: {lat: 40.81313, lng: -96.83537}
- id: '3115710'
  slug: emerson
  name: Emerson
  state: ne
  kind: village
  geo: {lat: 42.2782, lng: -96.72629}
- id: '3115815'
  slug: emmet
  name: Emmet
  state: ne
  kind: village
  geo: {lat: 42.47568, lng: -98.80927}
- id: '3115885'
  slug: enders
  name: Enders
  state: ne
  kind: cdp
  geo: {lat: 40.45492, lng: -101.53557}
- id: '3115920'
  slug: endicott
  name: Endicott
  state: ne
  kind: village
  geo: {lat: 40.0822, lng: -97.09538}
- id: '3116025'
  slug: ericson
  name: Ericson
  state: ne
  kind: village
  geo: {lat: 41.78044, lng: -98.67858}
- id: '3116165'
  slug: eustis
  name: Eustis
  state: ne
  kind: village
  geo: {lat: 40.66453, lng: -100.02955}
- id: '3116270'
  slug: ewing
  name: Ewing
  state: ne
  kind: village
  geo: {lat: 42.25889, lng: -98.34391}
- id: '3116340'
  slug: exeter
  name: Exeter
  state: ne
  kind: village
  geo: {lat: 40.64454, lng: -97.44879}
- id: '3116410'
  slug: fairbury
  name: Fairbury
  state: ne
  kind: city
  geo: {lat: 40.14474, lng: -97.1765}
- id: '3116445'
  slug: fairfield
  name: Fairfield
  state: ne
  kind: city
  geo: {lat: 40.43231, lng: -98.1032}
- id: '3116550'
  slug: fairmont
  name: Fairmont
  state: ne
  kind: village
  geo: {lat: 40.63355, lng: -97.58495}
- id: '3116655'
  slug: falls-city
  name: Falls City
  state: ne
  kind: city
  geo: {lat: 40.06221, lng: -95.59901}
- id: '3116725'
  slug: farnam
  name: Farnam
  state: ne
  kind: village
  geo: {lat: 40.7065, lng: -100.21549}
- id: '3116760'
  slug: farwell
  name: Farwell
  state: ne
  kind: village
  geo: {lat: 41.21562, lng: -98.62806}
- id: '3116830'
  slug: filley
  name: Filley
  state: ne
  kind: village
  geo: {lat: 40.2852, lng: -96.53393}
- id: '3116935'
  slug: firth
  name: Firth
  state: ne
  kind: village
  geo: {lat: 40.53546, lng: -96.60417}
- id: '3117040'
  slug: fontanelle
  name: Fontanelle
  state: ne
  kind: cdp
  geo: {lat: 41.53825, lng: -96.42719}
- id: '3117110'
  slug: fordyce
  name: Fordyce
  state: ne
  kind: village
  geo: {lat: 42.69823, lng: -97.36261}
- id: '3117145'
  slug: fort-calhoun
  name: Fort Calhoun
  state: ne
  kind: city
  geo: {lat: 41.45636, lng: -96.02626}
- id: '3117320'
  slug: foster
  name: Foster
  state: ne
  kind: village
  geo: {lat: 42.2747, lng: -97.66509}
- id: '3117530'
  slug: franklin
  name: Franklin
  state: ne
  kind: city
  geo: {lat: 40.09655, lng: -98.95143}
- id: '3117670'
  slug: fremont
  name: Fremont
  state: ne
  kind: city
  geo: {lat: 41.43984, lng: -96.487}
- id: '3117775'
  slug: friend
  name: Friend
  state: ne
  kind: city
  geo: {lat: 40.65051, lng: -97.28379}
- id: '3117810'
  slug: fullerton
  name: Fullerton
  state: ne
  kind: city
  geo: {lat: 41.36499, lng: -97.97226}
- id: '3117880'
  slug: funk
  name: Funk
  state: ne
  kind: village
  geo: {lat: 40.46305, lng: -99.25084}
- id: '3117950'
  slug: gandy
  name: Gandy
  state: ne
  kind: village
  geo: {lat: 41.46975, lng: -100.45834}
- id: '3118230'
  slug: garland
  name: Garland
  state: ne
  kind: village
  geo: {lat: 40.94459, lng: -96.98529}
- id: '3118300'
  slug: garrison
  name: Garrison
  state: ne
  kind: village
  geo: {lat: 41.17551, lng: -97.16343}
- id: '3118405'
  slug: geneva
  name: Geneva
  state: ne
  kind: city
  geo: {lat: 40.53069, lng: -97.59713}
- id: '3118475'
  slug: genoa
  name: Genoa
  state: ne
  kind: city
  geo: {lat: 41.44587, lng: -97.73327}
- id: '3118580'
  slug: gering
  name: Gering
  state: ne
  kind: city
  geo: {lat: 41.8269, lng: -103.66247}
- id: '3118615'
  slug: gibbon
  name: Gibbon
  state: ne
  kind: city
  geo: {lat: 40.74593, lng: -98.84585}
- id: '3118720'
  slug: gilead
  name: Gilead
  state: ne
  kind: village
  geo: {lat: 40.14609, lng: -97.41505}
- id: '3118825'
  slug: giltner
  name: Giltner
  state: ne
  kind: village
  geo: {lat: 40.77437, lng: -98.1543}
- id: '3119070'
  slug: glenvil
  name: Glenvil
  state: ne
  kind: village
  geo: {lat: 40.50268, lng: -98.25454}
- id: '3119160'
  slug: glenwood
  name: Glenwood
  state: ne
  kind: cdp
  geo: {lat: 40.75546, lng: -99.08101}
- id: '3119245'
  slug: goehner
  name: Goehner
  state: ne
  kind: village
  geo: {lat: 40.83273, lng: -97.21957}
- id: '3119350'
  slug: gordon
  name: Gordon
  state: ne
  kind: city
  geo: {lat: 42.80638, lng: -102.204}
- id: '3119385'
  slug: gothenburg
  name: Gothenburg
  state: ne
  kind: city
  geo: {lat: 40.92468, lng: -100.15393}
- id: '3119455'
  slug: grafton
  name: Grafton
  state: ne
  kind: village
  geo: {lat: 40.62978, lng: -97.71463}
- id: '3119595'
  slug: grand-island
  name: Grand Island
  state: ne
  kind: city
  geo: {lat: 40.92135, lng: -98.35856}
- id: '3119910'
  slug: grant
  name: Grant
  state: ne
  kind: city
  geo: {lat: 40.84459, lng: -101.72553}
- id: '3120050'
  slug: greeley-center
  name: Greeley Center
  state: ne
  kind: village
  geo: {lat: 41.54841, lng: -98.53051}
- id: '3120190'
  slug: greenwood
  name: Greenwood
  state: ne
  kind: village
  geo: {lat: 40.96169, lng: -96.44304}
- id: '3120225'
  slug: gresham
  name: Gresham
  state: ne
  kind: village
  geo: {lat: 41.02842, lng: -97.40109}
- id: '3120260'
  slug: gretna
  name: Gretna
  state: ne
  kind: city
  geo: {lat: 41.12792, lng: -96.19686}
- id: '3120295'
  slug: gross
  name: Gross
  state: ne
  kind: village
  geo: {lat: 42.94608, lng: -98.56973}
- id: '3120365'
  slug: guide-rock
  name: Guide Rock
  state: ne
  kind: village
  geo: {lat: 40.07372, lng: -98.3288}
- id: '3120435'
  slug: gurley
  name: Gurley
  state: ne
  kind: village
  geo: {lat: 41.32151, lng: -102.97383}
- id: '3120470'
  slug: hadar
  name: Hadar
  state: ne
  kind: village
  geo: {lat: 42.10722, lng: -97.45097}
- id: '3120540'
  slug: haigler
  name: Haigler
  state: ne
  kind: village
  geo: {lat: 40.01214, lng: -101.93856}
- id: '3120610'
  slug: hallam
  name: Hallam
  state: ne
  kind: village
  geo: {lat: 40.53651, lng: -96.78679}
- id: '3120680'
  slug: halsey
  name: Halsey
  state: ne
  kind: village
  geo: {lat: 41.90332, lng: -100.26979}
- id: '3120750'
  slug: hamlet
  name: Hamlet
  state: ne
  kind: village
  geo: {lat: 40.38445, lng: -101.23455}
- id: '3120785'
  slug: hampton
  name: Hampton
  state: ne
  kind: village
  geo: {lat: 40.88103, lng: -97.88769}
- id: '3120960'
  slug: harbine
  name: Harbine
  state: ne
  kind: village
  geo: {lat: 40.19163, lng: -96.97415}
- id: '3120995'
  slug: hardy
  name: Hardy
  state: ne
  kind: village
  geo: {lat: 40.01135, lng: -97.92381}
- id: '3121030'
  slug: harrisburg
  name: Harrisburg
  state: ne
  kind: cdp
  geo: {lat: 41.55053, lng: -103.72668}
- id: '3121240'
  slug: harrison
  name: Harrison
  state: ne
  kind: village
  geo: {lat: 42.68809, lng: -103.88247}
- id: '3121275'
  slug: hartington
  name: Hartington
  state: ne
  kind: city
  geo: {lat: 42.6201, lng: -97.26734}
- id: '3121345'
  slug: harvard
  name: Harvard
  state: ne
  kind: city
  geo: {lat: 40.62008, lng: -98.09612}
- id: '3121415'
  slug: hastings
  name: Hastings
  state: ne
  kind: city
  geo: {lat: 40.59626, lng: -98.39032}
- id: '3121730'
  slug: hay-springs
  name: Hay Springs
  state: ne
  kind: village
  geo: {lat: 42.68329, lng: -102.68959}
- id: '3121660'
  slug: hayes-center
  name: Hayes Center
  state: ne
  kind: village
  geo: {lat: 40.51102, lng: -101.0204}
- id: '3121765'
  slug: hazard
  name: Hazard
  state: ne
  kind: village
  geo: {lat: 41.09154, lng: -99.07724}
- id: '3121835'
  slug: heartwell
  name: Heartwell
  state: ne
  kind: village
  geo: {lat: 40.56991, lng: -98.78908}
- id: '3121905'
  slug: hebron
  name: Hebron
  state: ne
  kind: city
  geo: {lat: 40.16877, lng: -97.58598}
- id: '3122045'
  slug: hemingford
  name: Hemingford
  state: ne
  kind: village
  geo: {lat: 42.32126, lng: -103.07536}
- id: '3122080'
  slug: henderson
  name: Henderson
  state: ne
  kind: city
  geo: {lat: 40.78025, lng: -97.81221}
- id: '3122115'
  slug: hendley
  name: Hendley
  state: ne
  kind: village
  geo: {lat: 40.13132, lng: -99.97119}
- id: '3122150'
  slug: henry
  name: Henry
  state: ne
  kind: village
  geo: {lat: 41.99975, lng: -104.04885}
- id: '3122185'
  slug: herman
  name: Herman
  state: ne
  kind: village
  geo: {lat: 41.67383, lng: -96.21672}
- id: '3122290'
  slug: hershey
  name: Hershey
  state: ne
  kind: village
  geo: {lat: 41.16019, lng: -100.99853}
- id: '3122325'
  slug: hickman
  name: Hickman
  state: ne
  kind: city
  geo: {lat: 40.62586, lng: -96.62805}
- id: '3122430'
  slug: hildreth
  name: Hildreth
  state: ne
  kind: village
  geo: {lat: 40.33783, lng: -99.04575}
- id: '3122605'
  slug: holbrook
  name: Holbrook
  state: ne
  kind: village
  geo: {lat: 40.30474, lng: -100.00999}
- id: '3122640'
  slug: holdrege
  name: Holdrege
  state: ne
  kind: city
  geo: {lat: 40.43944, lng: -99.37704}
- id: '3122780'
  slug: holmesville
  name: Holmesville
  state: ne
  kind: cdp
  geo: {lat: 40.20143, lng: -96.65885}
- id: '3122815'
  slug: holstein
  name: Holstein
  state: ne
  kind: village
  geo: {lat: 40.46522, lng: -98.65104}
- id: '3122920'
  slug: homer
  name: Homer
  state: ne
  kind: village
  geo: {lat: 42.3225, lng: -96.49121}
- id: '3123025'
  slug: hooper
  name: Hooper
  state: ne
  kind: city
  geo: {lat: 41.61144, lng: -96.54925}
- id: '3123200'
  slug: hordville
  name: Hordville
  state: ne
  kind: village
  geo: {lat: 41.07936, lng: -97.89035}
- id: '3123235'
  slug: hoskins
  name: Hoskins
  state: ne
  kind: village
  geo: {lat: 42.11264, lng: -97.30438}
- id: '3123270'
  slug: howard-city-boelus
  name: Howard City (Boelus)
  state: ne
  kind: village
  geo: {lat: 41.07541, lng: -98.71532}
- id: '3123340'
  slug: howells
  name: Howells
  state: ne
  kind: village
  geo: {lat: 41.72423, lng: -97.00464}
- id: '3123375'
  slug: hubbard
  name: Hubbard
  state: ne
  kind: village
  geo: {lat: 42.3859, lng: -96.59101}
- id: '3123410'
  slug: hubbell
  name: Hubbell
  state: ne
  kind: village
  geo: {lat: 40.00874, lng: -97.49701}
- id: '3123445'
  slug: humboldt
  name: Humboldt
  state: ne
  kind: city
  geo: {lat: 40.16582, lng: -95.94432}
- id: '3123480'
  slug: humphrey
  name: Humphrey
  state: ne
  kind: city
  geo: {lat: 41.68851, lng: -97.48515}
- id: '3123550'
  slug: huntley
  name: Huntley
  state: ne
  kind: village
  geo: {lat: 40.21052, lng: -99.29013}
- id: '3123655'
  slug: hyannis
  name: Hyannis
  state: ne
  kind: village
  geo: {lat: 42.0005, lng: -101.76223}
- id: '3123690'
  slug: imperial
  name: Imperial
  state: ne
  kind: city
  geo: {lat: 40.51442, lng: -101.63724}
- id: '3123725'
  slug: inavale
  name: Inavale
  state: ne
  kind: cdp
  geo: {lat: 40.09227, lng: -98.64839}
- id: '3123830'
  slug: indianola
  name: Indianola
  state: ne
  kind: city
  geo: {lat: 40.23463, lng: -100.41984}
- id: '3123970'
  slug: inglewood
  name: Inglewood
  state: ne
  kind: village
  geo: {lat: 41.41576, lng: -96.50181}
- id: '3124005'
  slug: inland
  name: Inland
  state: ne
  kind: cdp
  geo: {lat: 40.5953, lng: -98.22308}
- id: '3124075'
  slug: inman
  name: Inman
  state: ne
  kind: village
  geo: {lat: 42.38191, lng: -98.52981}
- id: '3124285'
  slug: ithaca
  name: Ithaca
  state: ne
  kind: village
  geo: {lat: 41.15934, lng: -96.5395}
- id: '3124355'
  slug: jackson
  name: Jackson
  state: ne
  kind: village
  geo: {lat: 42.44817, lng: -96.5713}
- id: '3124530'
  slug: jansen
  name: Jansen
  state: ne
  kind: village
  geo: {lat: 40.18395, lng: -97.08478}
- id: '3124670'
  slug: johnson
  name: Johnson
  state: ne
  kind: village
  geo: {lat: 40.41046, lng: -95.99986}
- id: '3124740'
  slug: johnstown
  name: Johnstown
  state: ne
  kind: village
  geo: {lat: 42.5721, lng: -100.05629}
- id: '3124915'
  slug: julian
  name: Julian
  state: ne
  kind: village
  geo: {lat: 40.5192, lng: -95.8671}
- id: '3124950'
  slug: juniata
  name: Juniata
  state: ne
  kind: village
  geo: {lat: 40.59017, lng: -98.50696}
- id: '3125055'
  slug: kearney
  name: Kearney
  state: ne
  kind: city
  geo: {lat: 40.70175, lng: -99.08231}
- id: '3125160'
  slug: kenesaw
  name: Kenesaw
  state: ne
  kind: village
  geo: {lat: 40.61894, lng: -98.65758}
- id: '3125230'
  slug: kennard
  name: Kennard
  state: ne
  kind: village
  geo: {lat: 41.47505, lng: -96.20358}
- id: '3125335'
  slug: keystone
  name: Keystone
  state: ne
  kind: cdp
  geo: {lat: 41.21874, lng: -101.58412}
- id: '3125405'
  slug: kilgore
  name: Kilgore
  state: ne
  kind: village
  geo: {lat: 42.9391, lng: -100.95731}
- id: '3125475'
  slug: kimball
  name: Kimball
  state: ne
  kind: city
  geo: {lat: 41.23243, lng: -103.65186}
- id: '3125510'
  slug: king-lake
  name: King Lake
  state: ne
  kind: cdp
  geo: {lat: 41.30967, lng: -96.30228}
- id: '3125720'
  slug: kramer
  name: Kramer
  state: ne
  kind: cdp
  geo: {lat: 40.59132, lng: -96.87328}
- id: '3126315'
  slug: la-platte
  name: La Platte
  state: ne
  kind: cdp
  geo: {lat: 41.07228, lng: -95.92653}
- id: '3126385'
  slug: la-vista
  name: La Vista
  state: ne
  kind: city
  geo: {lat: 41.18184, lng: -96.06824}
- id: '3126156'
  slug: lake-waconda
  name: Lake Waconda
  state: ne
  kind: cdp
  geo: {lat: 40.84059, lng: -95.85798}
- id: '3126150'
  slug: lakeview
  name: Lakeview
  state: ne
  kind: cdp
  geo: {lat: 41.49914, lng: -97.37374}
- id: '3126175'
  slug: lamar
  name: Lamar
  state: ne
  kind: village
  geo: {lat: 40.57247, lng: -101.97928}
- id: '3126350'
  slug: laurel
  name: Laurel
  state: ne
  kind: city
  geo: {lat: 42.42861, lng: -97.09636}
- id: '3126420'
  slug: lawrence
  name: Lawrence
  state: ne
  kind: village
  geo: {lat: 40.29017, lng: -98.25968}
- id: '3126455'
  slug: lebanon
  name: Lebanon
  state: ne
  kind: village
  geo: {lat: 40.04879, lng: -100.27594}
- id: '3126560'
  slug: leigh
  name: Leigh
  state: ne
  kind: village
  geo: {lat: 41.70326, lng: -97.24068}
- id: '3126595'
  slug: lemoyne
  name: Lemoyne
  state: ne
  kind: cdp
  geo: {lat: 41.27664, lng: -101.81336}
- id: '3126630'
  slug: leshara
  name: Leshara
  state: ne
  kind: village
  geo: {lat: 41.32979, lng: -96.4292}
- id: '3126805'
  slug: lewellen
  name: Lewellen
  state: ne
  kind: village
  geo: {lat: 41.33053, lng: -102.1437}
- id: '3126875'
  slug: lewiston
  name: Lewiston
  state: ne
  kind: village
  geo: {lat: 40.24305, lng: -96.40655}
- id: '3126910'
  slug: lexington
  name: Lexington
  state: ne
  kind: city
  geo: {lat: 40.77745, lng: -99.74675}
- id: '3126980'
  slug: liberty
  name: Liberty
  state: ne
  kind: village
  geo: {lat: 40.08569, lng: -96.48306}
- id: '3128000'
  slug: lincoln
  name: Lincoln
  state: ne
  kind: city
  geo: {lat: 40.81028, lng: -96.67486}
- id: '3128105'
  slug: lindsay
  name: Lindsay
  state: ne
  kind: village
  geo: {lat: 41.69928, lng: -97.69412}
- id: '3128140'
  slug: lindy
  name: Lindy
  state: ne
  kind: cdp
  geo: {lat: 42.73511, lng: -97.74995}
- id: '3128165'
  slug: linoma-beach
  name: Linoma Beach
  state: ne
  kind: cdp
  geo: {lat: 41.0573, lng: -96.31407}
- id: '3128245'
  slug: linwood
  name: Linwood
  state: ne
  kind: village
  geo: {lat: 41.41234, lng: -96.93235}
- id: '3128315'
  slug: lisco
  name: Lisco
  state: ne
  kind: cdp
  geo: {lat: 41.49867, lng: -102.62365}
- id: '3128350'
  slug: litchfield
  name: Litchfield
  state: ne
  kind: village
  geo: {lat: 41.15605, lng: -99.15305}
- id: '3128420'
  slug: lodgepole
  name: Lodgepole
  state: ne
  kind: village
  geo: {lat: 41.14893, lng: -102.63863}
- id: '3129050'
  slug: long-pine
  name: Long Pine
  state: ne
  kind: city
  geo: {lat: 42.53525, lng: -99.7027}
- id: '3129085'
  slug: loomis
  name: Loomis
  state: ne
  kind: village
  geo: {lat: 40.47828, lng: -99.50768}
- id: '3129120'
  slug: lorenzo
  name: Lorenzo
  state: ne
  kind: cdp
  geo: {lat: 41.05757, lng: -103.0821}
- id: '3129155'
  slug: loretto
  name: Loretto
  state: ne
  kind: cdp
  geo: {lat: 41.76344, lng: -98.08172}
- id: '3129175'
  slug: lorton
  name: Lorton
  state: ne
  kind: village
  geo: {lat: 40.59722, lng: -96.02418}
- id: '3129260'
  slug: louisville
  name: Louisville
  state: ne
  kind: city
  geo: {lat: 40.99647, lng: -96.16141}
- id: '3129470'
  slug: loup-city
  name: Loup City
  state: ne
  kind: city
  geo: {lat: 41.27668, lng: -98.96773}
- id: '3129645'
  slug: lushton
  name: Lushton
  state: ne
  kind: village
  geo: {lat: 40.72403, lng: -97.72365}
- id: '3129715'
  slug: lyman
  name: Lyman
  state: ne
  kind: village
  geo: {lat: 41.91704, lng: -104.03806}
- id: '3129750'
  slug: lynch
  name: Lynch
  state: ne
  kind: village
  geo: {lat: 42.83122, lng: -98.46685}
- id: '3129855'
  slug: lyons
  name: Lyons
  state: ne
  kind: city
  geo: {lat: 41.93588, lng: -96.47234}
- id: '3130170'
  slug: macy
  name: Macy
  state: ne
  kind: cdp
  geo: {lat: 42.11588, lng: -96.3666}
- id: '3130240'
  slug: madison
  name: Madison
  state: ne
  kind: city
  geo: {lat: 41.82829, lng: -97.45672}
- id: '3130275'
  slug: madrid
  name: Madrid
  state: ne
  kind: village
  geo: {lat: 40.85243, lng: -101.52789}
- id: '3130310'
  slug: magnet
  name: Magnet
  state: ne
  kind: village
  geo: {lat: 42.45612, lng: -97.46929}
- id: '3130345'
  slug: malcolm
  name: Malcolm
  state: ne
  kind: village
  geo: {lat: 40.90905, lng: -96.86606}
- id: '3130380'
  slug: malmo
  name: Malmo
  state: ne
  kind: village
  geo: {lat: 41.26646, lng: -96.72092}
- id: '3130415'
  slug: manley
  name: Manley
  state: ne
  kind: village
  geo: {lat: 40.91843, lng: -96.16573}
- id: '3130730'
  slug: marquette
  name: Marquette
  state: ne
  kind: village
  geo: {lat: 41.00634, lng: -98.00975}
- id: '3130835'
  slug: martell
  name: Martell
  state: ne
  kind: cdp
  geo: {lat: 40.63894, lng: -96.75879}
- id: '3130905'
  slug: martin
  name: Martin
  state: ne
  kind: cdp
  geo: {lat: 41.25814, lng: -101.70901}
- id: '3130940'
  slug: martinsburg
  name: Martinsburg
  state: ne
  kind: village
  geo: {lat: 42.50857, lng: -96.832}
- id: '3131045'
  slug: maskell
  name: Maskell
  state: ne
  kind: village
  geo: {lat: 42.69042, lng: -96.9809}
- id: '3131115'
  slug: mason-city
  name: Mason City
  state: ne
  kind: village
  geo: {lat: 41.22217, lng: -99.29879}
- id: '3131150'
  slug: max
  name: Max
  state: ne
  kind: cdp
  geo: {lat: 40.11432, lng: -101.40449}
- id: '3131220'
  slug: maxwell
  name: Maxwell
  state: ne
  kind: village
  geo: {lat: 41.07711, lng: -100.52631}
- id: '3131325'
  slug: maywood
  name: Maywood
  state: ne
  kind: village
  geo: {lat: 40.6587, lng: -100.62223}
- id: '3129925'
  slug: mccook
  name: McCook
  state: ne
  kind: city
  geo: {lat: 40.2049, lng: -100.62212}
- id: '3129960'
  slug: mccool-junction
  name: McCool Junction
  state: ne
  kind: village
  geo: {lat: 40.74462, lng: -97.60006}
- id: '3130030'
  slug: mcgrew
  name: McGrew
  state: ne
  kind: village
  geo: {lat: 41.74767, lng: -103.41717}
- id: '3130065'
  slug: mclean
  name: McLean
  state: ne
  kind: village
  geo: {lat: 42.38634, lng: -97.46818}
- id: '3131395'
  slug: mead
  name: Mead
  state: ne
  kind: village
  geo: {lat: 41.2244, lng: -96.48719}
- id: '3131465'
  slug: meadow-grove
  name: Meadow Grove
  state: ne
  kind: village
  geo: {lat: 42.02901, lng: -97.73604}
- id: '3131570'
  slug: melbeta
  name: Melbeta
  state: ne
  kind: village
  geo: {lat: 41.78144, lng: -103.51763}
- id: '3131605'
  slug: melia
  name: Melia
  state: ne
  kind: cdp
  geo: {lat: 41.09717, lng: -96.27644}
- id: '3131640'
  slug: memphis
  name: Memphis
  state: ne
  kind: village
  geo: {lat: 41.09456, lng: -96.43314}
- id: '3131780'
  slug: merna
  name: Merna
  state: ne
  kind: village
  geo: {lat: 41.48516, lng: -99.76106}
- id: '3131815'
  slug: merriman
  name: Merriman
  state: ne
  kind: village
  geo: {lat: 42.923, lng: -101.69973}
- id: '3132060'
  slug: milford
  name: Milford
  state: ne
  kind: city
  geo: {lat: 40.77257, lng: -97.05412}
- id: '3132130'
  slug: miller
  name: Miller
  state: ne
  kind: village
  geo: {lat: 40.92761, lng: -99.39012}
- id: '3132200'
  slug: milligan
  name: Milligan
  state: ne
  kind: village
  geo: {lat: 40.49996, lng: -97.38842}
- id: '3132305'
  slug: minatare
  name: Minatare
  state: ne
  kind: city
  geo: {lat: 41.81159, lng: -103.50092}
- id: '3132340'
  slug: minden
  name: Minden
  state: ne
  kind: city
  geo: {lat: 40.49819, lng: -98.967}
- id: '3132410'
  slug: mitchell
  name: Mitchell
  state: ne
  kind: city
  geo: {lat: 41.94266, lng: -103.80984}
- id: '3132550'
  slug: monowi
  name: Monowi
  state: ne
  kind: village
  geo: {lat: 42.83071, lng: -98.32956}
- id: '3132585'
  slug: monroe
  name: Monroe
  state: ne
  kind: village
  geo: {lat: 41.47405, lng: -97.59909}
- id: '3132760'
  slug: moorefield
  name: Moorefield
  state: ne
  kind: village
  geo: {lat: 40.68992, lng: -100.40033}
- id: '3132830'
  slug: morrill
  name: Morrill
  state: ne
  kind: village
  geo: {lat: 41.96409, lng: -103.92485}
- id: '3132865'
  slug: morse-bluff
  name: Morse Bluff
  state: ne
  kind: village
  geo: {lat: 41.43095, lng: -96.76651}
- id: '3133250'
  slug: mullen
  name: Mullen
  state: ne
  kind: village
  geo: {lat: 42.04296, lng: -101.04455}
- id: '3133320'
  slug: murdock
  name: Murdock
  state: ne
  kind: village
  geo: {lat: 40.92618, lng: -96.28088}
- id: '3133425'
  slug: murray
  name: Murray
  state: ne
  kind: village
  geo: {lat: 40.91639, lng: -95.92746}
- id: '3133530'
  slug: naper
  name: Naper
  state: ne
  kind: village
  geo: {lat: 42.96417, lng: -99.097}
- id: '3133565'
  slug: naponee
  name: Naponee
  state: ne
  kind: village
  geo: {lat: 40.07473, lng: -99.13863}
- id: '3133705'
  slug: nebraska-city
  name: Nebraska City
  state: ne
  kind: city
  geo: {lat: 40.67575, lng: -95.86166}
- id: '3133740'
  slug: nehawka
  name: Nehawka
  state: ne
  kind: village
  geo: {lat: 40.82964, lng: -95.99082}
- id: '3133775'
  slug: neligh
  name: Neligh
  state: ne
  kind: city
  geo: {lat: 42.12909, lng: -98.02923}
- id: '3133880'
  slug: nelson
  name: Nelson
  state: ne
  kind: city
  geo: {lat: 40.20117, lng: -98.06863}
- id: '3133950'
  slug: nemaha
  name: Nemaha
  state: ne
  kind: village
  geo: {lat: 40.3388, lng: -95.67597}
- id: '3133985'
  slug: nenzel
  name: Nenzel
  state: ne
  kind: village
  geo: {lat: 42.92735, lng: -101.1018}
- id: '3134090'
  slug: newcastle
  name: Newcastle
  state: ne
  kind: village
  geo: {lat: 42.65241, lng: -96.87403}
- id: '3134230'
  slug: newman-grove
  name: Newman Grove
  state: ne
  kind: city
  geo: {lat: 41.74681, lng: -97.77672}
- id: '3134265'
  slug: newport
  name: Newport
  state: ne
  kind: village
  geo: {lat: 42.60022, lng: -99.3283}
- id: '3134300'
  slug: nickerson
  name: Nickerson
  state: ne
  kind: village
  geo: {lat: 41.53472, lng: -96.47085}
- id: '3134370'
  slug: niobrara
  name: Niobrara
  state: ne
  kind: village
  geo: {lat: 42.74995, lng: -98.0315}
- id: '3134545'
  slug: nora
  name: Nora
  state: ne
  kind: village
  geo: {lat: 40.16414, lng: -97.97379}
- id: '3134615'
  slug: norfolk
  name: Norfolk
  state: ne
  kind: city
  geo: {lat: 42.02822, lng: -97.42781}
- id: '3134650'
  slug: norman
  name: Norman
  state: ne
  kind: village
  geo: {lat: 40.47915, lng: -98.7921}
- id: '3134720'
  slug: north-bend
  name: North Bend
  state: ne
  kind: city
  geo: {lat: 41.46197, lng: -96.78575}
- id: '3134825'
  slug: north-loup
  name: North Loup
  state: ne
  kind: village
  geo: {lat: 41.49544, lng: -98.77278}
- id: '3135000'
  slug: north-platte
  name: North Platte
  state: ne
  kind: city
  geo: {lat: 41.12496, lng: -100.75036}
- id: '3137105'
  slug: o-neill
  name: O'Neill
  state: ne
  kind: city
  geo: {lat: 42.46153, lng: -98.64696}
- id: '3135245'
  slug: oak
  name: Oak
  state: ne
  kind: village
  geo: {lat: 40.23815, lng: -97.90365}
- id: '3135385'
  slug: oakdale
  name: Oakdale
  state: ne
  kind: village
  geo: {lat: 42.07008, lng: -97.96716}
- id: '3135490'
  slug: oakland
  name: Oakland
  state: ne
  kind: city
  geo: {lat: 41.83508, lng: -96.46705}
- id: '3135560'
  slug: obert
  name: Obert
  state: ne
  kind: village
  geo: {lat: 42.68951, lng: -97.02722}
- id: '3135665'
  slug: oconto
  name: Oconto
  state: ne
  kind: village
  geo: {lat: 41.14166, lng: -99.76194}
- id: '3135700'
  slug: octavia
  name: Octavia
  state: ne
  kind: village
  geo: {lat: 41.34737, lng: -97.05895}
- id: '3135735'
  slug: odell
  name: Odell
  state: ne
  kind: village
  geo: {lat: 40.05031, lng: -96.80164}
- id: '3135770'
  slug: odessa
  name: Odessa
  state: ne
  kind: cdp
  geo: {lat: 40.69911, lng: -99.25441}
- id: '3135875'
  slug: offutt-afb
  name: Offutt AFB
  state: ne
  kind: cdp
  geo: {lat: 41.12099, lng: -95.92111}
- id: '3135980'
  slug: ogallala
  name: Ogallala
  state: ne
  kind: city
  geo: {lat: 41.1296, lng: -101.72068}
- id: '3136015'
  slug: ohiowa
  name: Ohiowa
  state: ne
  kind: village
  geo: {lat: 40.41364, lng: -97.45238}
- id: '3137000'
  slug: omaha
  name: Omaha
  state: ne
  kind: city
  geo: {lat: 41.2627, lng: -96.05348}
- id: '3137140'
  slug: ong
  name: Ong
  state: ne
  kind: village
  geo: {lat: 40.39833, lng: -97.83923}
- id: '3137210'
  slug: orchard
  name: Orchard
  state: ne
  kind: village
  geo: {lat: 42.33648, lng: -98.24092}
- id: '3137280'
  slug: ord
  name: Ord
  state: ne
  kind: city
  geo: {lat: 41.60278, lng: -98.91926}
- id: '3137420'
  slug: orleans
  name: Orleans
  state: ne
  kind: village
  geo: {lat: 40.13172, lng: -99.4551}
- id: '3137525'
  slug: osceola
  name: Osceola
  state: ne
  kind: city
  geo: {lat: 41.17848, lng: -97.55004}
- id: '3137560'
  slug: oshkosh
  name: Oshkosh
  state: ne
  kind: city
  geo: {lat: 41.40801, lng: -102.34521}
- id: '3137595'
  slug: osmond
  name: Osmond
  state: ne
  kind: city
  geo: {lat: 42.35816, lng: -97.59914}
- id: '3137630'
  slug: otoe
  name: Otoe
  state: ne
  kind: village
  geo: {lat: 40.72407, lng: -96.12061}
- id: '3137735'
  slug: overland
  name: Overland
  state: ne
  kind: cdp
  geo: {lat: 41.08024, lng: -97.9789}
- id: '3137770'
  slug: overton
  name: Overton
  state: ne
  kind: village
  geo: {lat: 40.74057, lng: -99.53741}
- id: '3137910'
  slug: oxford
  name: Oxford
  state: ne
  kind: village
  geo: {lat: 40.25303, lng: -99.63221}
- id: '3138085'
  slug: page
  name: Page
  state: ne
  kind: village
  geo: {lat: 42.40001, lng: -98.41766}
- id: '3138130'
  slug: palisade
  name: Palisade
  state: ne
  kind: village
  geo: {lat: 40.3484, lng: -101.10746}
- id: '3138160'
  slug: palmer
  name: Palmer
  state: ne
  kind: village
  geo: {lat: 41.22249, lng: -98.25984}
- id: '3138190'
  slug: palmyra
  name: Palmyra
  state: ne
  kind: village
  geo: {lat: 40.7057, lng: -96.39212}
- id: '3138225'
  slug: panama
  name: Panama
  state: ne
  kind: village
  geo: {lat: 40.5998, lng: -96.51117}
- id: '3138295'
  slug: papillion
  name: Papillion
  state: ne
  kind: city
  geo: {lat: 41.14321, lng: -96.07852}
- id: '3138365'
  slug: parks
  name: Parks
  state: ne
  kind: cdp
  geo: {lat: 40.04362, lng: -101.72511}
- id: '3138575'
  slug: pawnee-city
  name: Pawnee City
  state: ne
  kind: city
  geo: {lat: 40.11063, lng: -96.15313}
- id: '3138610'
  slug: paxton
  name: Paxton
  state: ne
  kind: village
  geo: {lat: 41.12337, lng: -101.35196}
- id: '3138750'
  slug: pender
  name: Pender
  state: ne
  kind: village
  geo: {lat: 42.11065, lng: -96.71162}
- id: '3138960'
  slug: peru
  name: Peru
  state: ne
  kind: city
  geo: {lat: 40.47851, lng: -95.73139}
- id: '3138995'
  slug: petersburg
  name: Petersburg
  state: ne
  kind: village
  geo: {lat: 41.85367, lng: -98.0812}
- id: '3139030'
  slug: phillips
  name: Phillips
  state: ne
  kind: village
  geo: {lat: 40.89767, lng: -98.21459}
- id: '3139065'
  slug: pickrell
  name: Pickrell
  state: ne
  kind: village
  geo: {lat: 40.37832, lng: -96.72912}
- id: '3139100'
  slug: pierce
  name: Pierce
  state: ne
  kind: city
  geo: {lat: 42.19948, lng: -97.5292}
- id: '3139135'
  slug: pilger
  name: Pilger
  state: ne
  kind: village
  geo: {lat: 42.00749, lng: -97.05488}
- id: '3139170'
  slug: plainview
  name: Plainview
  state: ne
  kind: city
  geo: {lat: 42.35335, lng: -97.78714}
- id: '3139310'
  slug: platte-center
  name: Platte Center
  state: ne
  kind: village
  geo: {lat: 41.53743, lng: -97.48847}
- id: '3139345'
  slug: plattsmouth
  name: Plattsmouth
  state: ne
  kind: city
  geo: {lat: 41.00534, lng: -95.89286}
- id: '3139380'
  slug: pleasant-dale
  name: Pleasant Dale
  state: ne
  kind: village
  geo: {lat: 40.79121, lng: -96.93297}
- id: '3139450'
  slug: pleasanton
  name: Pleasanton
  state: ne
  kind: village
  geo: {lat: 40.97002, lng: -99.0879}
- id: '3139590'
  slug: plymouth
  name: Plymouth
  state: ne
  kind: village
  geo: {lat: 40.30252, lng: -96.98849}
- id: '3139660'
  slug: polk
  name: Polk
  state: ne
  kind: village
  geo: {lat: 41.07521, lng: -97.78377}
- id: '3139695'
  slug: ponca
  name: Ponca
  state: ne
  kind: city
  geo: {lat: 42.56493, lng: -96.70915}
- id: '3139835'
  slug: poole
  name: Poole
  state: ne
  kind: cdp
  geo: {lat: 40.99227, lng: -98.96059}
- id: '3139870'
  slug: potter
  name: Potter
  state: ne
  kind: village
  geo: {lat: 41.21731, lng: -103.30743}
- id: '3139975'
  slug: prague
  name: Prague
  state: ne
  kind: village
  geo: {lat: 41.30951, lng: -96.80816}
- id: '3140255'
  slug: prairie-home
  name: Prairie Home
  state: ne
  kind: cdp
  geo: {lat: 40.86201, lng: -96.52454}
- id: '3140325'
  slug: preston
  name: Preston
  state: ne
  kind: cdp
  geo: {lat: 40.03459, lng: -95.51811}
- id: '3140360'
  slug: primrose
  name: Primrose
  state: ne
  kind: village
  geo: {lat: 41.6238, lng: -98.2374}
- id: '3140395'
  slug: princeton
  name: Princeton
  state: ne
  kind: cdp
  geo: {lat: 40.57603, lng: -96.70595}
- id: '3140430'
  slug: prosser
  name: Prosser
  state: ne
  kind: village
  geo: {lat: 40.68738, lng: -98.57797}
- id: '3140535'
  slug: raeville
  name: Raeville
  state: ne
  kind: cdp
  geo: {lat: 41.89558, lng: -98.05362}
- id: '3140570'
  slug: ragan
  name: Ragan
  state: ne
  kind: village
  geo: {lat: 40.31077, lng: -99.28963}
- id: '3140605'
  slug: ralston
  name: Ralston
  state: ne
  kind: city
  geo: {lat: 41.20001, lng: -96.03782}
- id: '3140675'
  slug: randolph
  name: Randolph
  state: ne
  kind: city
  geo: {lat: 42.37796, lng: -97.35773}
- id: '3140710'
  slug: ravenna
  name: Ravenna
  state: ne
  kind: city
  geo: {lat: 41.02934, lng: -98.89819}
- id: '3140780'
  slug: raymond
  name: Raymond
  state: ne
  kind: village
  geo: {lat: 40.95682, lng: -96.78145}
- id: '3140920'
  slug: red-cloud
  name: Red Cloud
  state: ne
  kind: city
  geo: {lat: 40.08642, lng: -98.52222}
- id: '3141130'
  slug: republican-city
  name: Republican City
  state: ne
  kind: village
  geo: {lat: 40.09875, lng: -99.22225}
- id: '3141235'
  slug: reynolds
  name: Reynolds
  state: ne
  kind: village
  geo: {lat: 40.05981, lng: -97.33595}
- id: '3141340'
  slug: richfield
  name: Richfield
  state: ne
  kind: cdp
  geo: {lat: 41.11076, lng: -96.07632}
- id: '3141375'
  slug: richland
  name: Richland
  state: ne
  kind: village
  geo: {lat: 41.43686, lng: -97.21491}
- id: '3141480'
  slug: rising-city
  name: Rising City
  state: ne
  kind: village
  geo: {lat: 41.1981, lng: -97.29712}
- id: '3141515'
  slug: riverdale
  name: Riverdale
  state: ne
  kind: village
  geo: {lat: 40.78389, lng: -99.16046}
- id: '3141760'
  slug: riverton
  name: Riverton
  state: ne
  kind: village
  geo: {lat: 40.08971, lng: -98.75964}
- id: '3141830'
  slug: roca
  name: Roca
  state: ne
  kind: village
  geo: {lat: 40.65847, lng: -96.6614}
- id: '3142075'
  slug: rockville
  name: Rockville
  state: ne
  kind: village
  geo: {lat: 41.11848, lng: -98.83108}
- id: '3142145'
  slug: rogers
  name: Rogers
  state: ne
  kind: village
  geo: {lat: 41.46458, lng: -96.91644}
- id: '3142250'
  slug: rosalie
  name: Rosalie
  state: ne
  kind: village
  geo: {lat: 42.05735, lng: -96.51276}
- id: '3142285'
  slug: roscoe
  name: Roscoe
  state: ne
  kind: cdp
  geo: {lat: 41.13161, lng: -101.58519}
- id: '3142355'
  slug: roseland
  name: Roseland
  state: ne
  kind: village
  geo: {lat: 40.4697, lng: -98.5587}
- id: '3142495'
  slug: royal
  name: Royal
  state: ne
  kind: village
  geo: {lat: 42.33294, lng: -98.12505}
- id: '3142670'
  slug: rulo
  name: Rulo
  state: ne
  kind: village
  geo: {lat: 40.05166, lng: -95.43057}
- id: '3142775'
  slug: rushville
  name: Rushville
  state: ne
  kind: city
  geo: {lat: 42.71338, lng: -102.46656}
- id: '3142810'
  slug: ruskin
  name: Ruskin
  state: ne
  kind: village
  geo: {lat: 40.14401, lng: -97.86704}
- id: '3143370'
  slug: salem
  name: Salem
  state: ne
  kind: village
  geo: {lat: 40.07689, lng: -95.72852}
- id: '3143475'
  slug: santee
  name: Santee
  state: ne
  kind: village
  geo: {lat: 42.8387, lng: -97.84945}
- id: '3143650'
  slug: sarben
  name: Sarben
  state: ne
  kind: cdp
  geo: {lat: 41.16628, lng: -101.3044}
- id: '3143685'
  slug: sargent
  name: Sargent
  state: ne
  kind: city
  geo: {lat: 41.63974, lng: -99.36885}
- id: '3143755'
  slug: saronville
  name: Saronville
  state: ne
  kind: village
  geo: {lat: 40.60284, lng: -97.93885}
- id: '3144035'
  slug: schuyler
  name: Schuyler
  state: ne
  kind: city
  geo: {lat: 41.45013, lng: -97.06159}
- id: '3144070'
  slug: scotia
  name: Scotia
  state: ne
  kind: village
  geo: {lat: 41.46778, lng: -98.70242}
- id: '3144245'
  slug: scottsbluff
  name: Scottsbluff
  state: ne
  kind: city
  geo: {lat: 41.86809, lng: -103.66204}
- id: '3144280'
  slug: scribner
  name: Scribner
  state: ne
  kind: city
  geo: {lat: 41.66524, lng: -96.66527}
- id: '3144385'
  slug: seneca
  name: Seneca
  state: ne
  kind: cdp
  geo: {lat: 42.04395, lng: -100.83205}
- id: '3144420'
  slug: seward
  name: Seward
  state: ne
  kind: city
  geo: {lat: 40.90921, lng: -97.0961}
- id: '3144595'
  slug: shelby
  name: Shelby
  state: ne
  kind: village
  geo: {lat: 41.19425, lng: -97.42627}
- id: '3144700'
  slug: shelton
  name: Shelton
  state: ne
  kind: village
  geo: {lat: 40.77834, lng: -98.72948}
- id: '3145085'
  slug: shickley
  name: Shickley
  state: ne
  kind: village
  geo: {lat: 40.41652, lng: -97.72409}
- id: '3145190'
  slug: sholes
  name: Sholes
  state: ne
  kind: village
  geo: {lat: 42.33481, lng: -97.29462}
- id: '3145225'
  slug: shubert
  name: Shubert
  state: ne
  kind: village
  geo: {lat: 40.23591, lng: -95.68362}
- id: '3145295'
  slug: sidney
  name: Sidney
  state: ne
  kind: city
  geo: {lat: 41.13363, lng: -102.96954}
- id: '3145400'
  slug: silver-creek
  name: Silver Creek
  state: ne
  kind: village
  geo: {lat: 41.31534, lng: -97.66513}
- id: '3145575'
  slug: smithfield
  name: Smithfield
  state: ne
  kind: village
  geo: {lat: 40.5733, lng: -99.74094}
- id: '3145610'
  slug: snyder
  name: Snyder
  state: ne
  kind: village
  geo: {lat: 41.70457, lng: -96.78683}
- id: '3145680'
  slug: south-bend
  name: South Bend
  state: ne
  kind: village
  geo: {lat: 41.00254, lng: -96.24738}
- id: '3146030'
  slug: south-sioux-city
  name: South Sioux City
  state: ne
  kind: city
  geo: {lat: 42.46212, lng: -96.41296}
- id: '3146135'
  slug: spalding
  name: Spalding
  state: ne
  kind: village
  geo: {lat: 41.68929, lng: -98.36255}
- id: '3146275'
  slug: spencer
  name: Spencer
  state: ne
  kind: village
  geo: {lat: 42.87559, lng: -98.69988}
- id: '3146380'
  slug: sprague
  name: Sprague
  state: ne
  kind: village
  geo: {lat: 40.62651, lng: -96.74468}
- id: '3146520'
  slug: springfield
  name: Springfield
  state: ne
  kind: city
  geo: {lat: 41.10725, lng: -96.14854}
- id: '3146625'
  slug: springview
  name: Springview
  state: ne
  kind: village
  geo: {lat: 42.82488, lng: -99.74754}
- id: '3143055'
  slug: st-edward
  name: St. Edward
  state: ne
  kind: city
  geo: {lat: 41.57145, lng: -97.8612}
- id: '3143090'
  slug: st-helena
  name: St. Helena
  state: ne
  kind: village
  geo: {lat: 42.81065, lng: -97.24889}
- id: '3143160'
  slug: st-libory
  name: St. Libory
  state: ne
  kind: cdp
  geo: {lat: 41.08214, lng: -98.35908}
- id: '3143265'
  slug: st-paul
  name: St. Paul
  state: ne
  kind: city
  geo: {lat: 41.21367, lng: -98.45945}
- id: '3146695'
  slug: stamford
  name: Stamford
  state: ne
  kind: village
  geo: {lat: 40.13124, lng: -99.59444}
- id: '3146800'
  slug: stanton
  name: Stanton
  state: ne
  kind: city
  geo: {lat: 41.94805, lng: -97.21228}
- id: '3146835'
  slug: staplehurst
  name: Staplehurst
  state: ne
  kind: village
  geo: {lat: 40.97466, lng: -97.17319}
- id: '3146870'
  slug: stapleton
  name: Stapleton
  state: ne
  kind: village
  geo: {lat: 41.4802, lng: -100.51255}
- id: '3147010'
  slug: steele-city
  name: Steele City
  state: ne
  kind: village
  geo: {lat: 40.03656, lng: -97.02299}
- id: '3147080'
  slug: steinauer
  name: Steinauer
  state: ne
  kind: village
  geo: {lat: 40.20737, lng: -96.23286}
- id: '3147115'
  slug: stella
  name: Stella
  state: ne
  kind: village
  geo: {lat: 40.2323, lng: -95.77342}
- id: '3147150'
  slug: sterling
  name: Sterling
  state: ne
  kind: village
  geo: {lat: 40.46129, lng: -96.37736}
- id: '3147220'
  slug: stockham
  name: Stockham
  state: ne
  kind: village
  geo: {lat: 40.71641, lng: -97.94337}
- id: '3147290'
  slug: stockville
  name: Stockville
  state: ne
  kind: village
  geo: {lat: 40.53363, lng: -100.38443}
- id: '3147360'
  slug: strang
  name: Strang
  state: ne
  kind: village
  geo: {lat: 40.41486, lng: -97.58709}
- id: '3147395'
  slug: stratton
  name: Stratton
  state: ne
  kind: village
  geo: {lat: 40.15082, lng: -101.2276}
- id: '3147465'
  slug: stromsburg
  name: Stromsburg
  state: ne
  kind: city
  geo: {lat: 41.11642, lng: -97.59061}
- id: '3147500'
  slug: stuart
  name: Stuart
  state: ne
  kind: village
  geo: {lat: 42.60079, lng: -99.14046}
- id: '3147675'
  slug: sumner
  name: Sumner
  state: ne
  kind: village
  geo: {lat: 40.94902, lng: -99.50808}
- id: '3147745'
  slug: sunol
  name: Sunol
  state: ne
  kind: cdp
  geo: {lat: 41.15411, lng: -102.76275}
- id: '3147815'
  slug: superior
  name: Superior
  state: ne
  kind: city
  geo: {lat: 40.02173, lng: -98.06184}
- id: '3147850'
  slug: surprise
  name: Surprise
  state: ne
  kind: village
  geo: {lat: 41.10444, lng: -97.30901}
- id: '3147920'
  slug: sutherland
  name: Sutherland
  state: ne
  kind: village
  geo: {lat: 41.16013, lng: -101.12267}
- id: '3147955'
  slug: sutton
  name: Sutton
  state: ne
  kind: city
  geo: {lat: 40.60705, lng: -97.85734}
- id: '3148060'
  slug: swanton
  name: Swanton
  state: ne
  kind: village
  geo: {lat: 40.3796, lng: -97.07982}
- id: '3148235'
  slug: syracuse
  name: Syracuse
  state: ne
  kind: city
  geo: {lat: 40.6635, lng: -96.18273}
- id: '3148270'
  slug: table-rock
  name: Table Rock
  state: ne
  kind: village
  geo: {lat: 40.17828, lng: -96.08871}
- id: '3148305'
  slug: talmage
  name: Talmage
  state: ne
  kind: village
  geo: {lat: 40.5316, lng: -96.02385}
- id: '3148340'
  slug: tamora
  name: Tamora
  state: ne
  kind: cdp
  geo: {lat: 40.89444, lng: -97.22927}
- id: '3148410'
  slug: tarnov
  name: Tarnov
  state: ne
  kind: village
  geo: {lat: 41.6148, lng: -97.50248}
- id: '3148445'
  slug: taylor
  name: Taylor
  state: ne
  kind: village
  geo: {lat: 41.7696, lng: -99.38138}
- id: '3148480'
  slug: tecumseh
  name: Tecumseh
  state: ne
  kind: city
  geo: {lat: 40.37182, lng: -96.18871}
- id: '3148515'
  slug: tekamah
  name: Tekamah
  state: ne
  kind: city
  geo: {lat: 41.7778, lng: -96.2245}
- id: '3148585'
  slug: terrytown
  name: Terrytown
  state: ne
  kind: city
  geo: {lat: 41.84713, lng: -103.67055}
- id: '3148690'
  slug: thayer
  name: Thayer
  state: ne
  kind: village
  geo: {lat: 40.97025, lng: -97.49669}
- id: '3148760'
  slug: thedford
  name: Thedford
  state: ne
  kind: village
  geo: {lat: 41.97917, lng: -100.57473}
- id: '3148900'
  slug: thurston
  name: Thurston
  state: ne
  kind: village
  geo: {lat: 42.17474, lng: -96.7016}
- id: '3148935'
  slug: tilden
  name: Tilden
  state: ne
  kind: city
  geo: {lat: 42.04349, lng: -97.83181}
- id: '3149005'
  slug: tobias
  name: Tobias
  state: ne
  kind: village
  geo: {lat: 40.4185, lng: -97.33662}
- id: '3149145'
  slug: trenton
  name: Trenton
  state: ne
  kind: village
  geo: {lat: 40.17473, lng: -101.01357}
- id: '3149285'
  slug: trumbull
  name: Trumbull
  state: ne
  kind: village
  geo: {lat: 40.68004, lng: -98.27345}
- id: '3149320'
  slug: tryon
  name: Tryon
  state: ne
  kind: cdp
  geo: {lat: 41.55844, lng: -100.95359}
- id: '3149425'
  slug: uehling
  name: Uehling
  state: ne
  kind: village
  geo: {lat: 41.7347, lng: -96.50564}
- id: '3149460'
  slug: ulysses
  name: Ulysses
  state: ne
  kind: village
  geo: {lat: 41.07208, lng: -97.20311}
- id: '3149530'
  slug: unadilla
  name: Unadilla
  state: ne
  kind: village
  geo: {lat: 40.68304, lng: -96.26989}
- id: '3149635'
  slug: union
  name: Union
  state: ne
  kind: village
  geo: {lat: 40.81444, lng: -95.92184}
- id: '3149880'
  slug: upland
  name: Upland
  state: ne
  kind: village
  geo: {lat: 40.31953, lng: -98.90237}
- id: '3149915'
  slug: utica
  name: Utica
  state: ne
  kind: village
  geo: {lat: 40.89528, lng: -97.34535}
- id: '3149950'
  slug: valentine
  name: Valentine
  state: ne
  kind: city
  geo: {lat: 42.87389, lng: -100.54701}
- id: '3150020'
  slug: valley
  name: Valley
  state: ne
  kind: city
  geo: {lat: 41.317, lng: -96.36226}
- id: '3150125'
  slug: valparaiso
  name: Valparaiso
  state: ne
  kind: village
  geo: {lat: 41.08006, lng: -96.8336}
- id: '3150230'
  slug: venango
  name: Venango
  state: ne
  kind: village
  geo: {lat: 40.76366, lng: -102.04418}
- id: '3150265'
  slug: venice
  name: Venice
  state: ne
  kind: cdp
  geo: {lat: 41.23927, lng: -96.35191}
- id: '3150335'
  slug: verdel
  name: Verdel
  state: ne
  kind: village
  geo: {lat: 42.8114, lng: -98.1933}
- id: '3150370'
  slug: verdigre
  name: Verdigre
  state: ne
  kind: village
  geo: {lat: 42.59725, lng: -98.0356}
- id: '3150510'
  slug: verdon
  name: Verdon
  state: ne
  kind: village
  geo: {lat: 40.14909, lng: -95.7112}
- id: '3150790'
  slug: virginia
  name: Virginia
  state: ne
  kind: village
  geo: {lat: 40.24586, lng: -96.49882}
- id: '3150895'
  slug: waco
  name: Waco
  state: ne
  kind: village
  geo: {lat: 40.897, lng: -97.46175}
- id: '3150965'
  slug: wahoo
  name: Wahoo
  state: ne
  kind: city
  geo: {lat: 41.21712, lng: -96.61784}
- id: '3151070'
  slug: wakefield
  name: Wakefield
  state: ne
  kind: city
  geo: {lat: 42.26665, lng: -96.86293}
- id: '3151175'
  slug: wallace
  name: Wallace
  state: ne
  kind: village
  geo: {lat: 40.83758, lng: -101.16448}
- id: '3151245'
  slug: walthill
  name: Walthill
  state: ne
  kind: village
  geo: {lat: 42.14885, lng: -96.49287}
- id: '3151280'
  slug: walton
  name: Walton
  state: ne
  kind: cdp
  geo: {lat: 40.79622, lng: -96.56529}
- id: '3151350'
  slug: wann
  name: Wann
  state: ne
  kind: cdp
  geo: {lat: 41.14189, lng: -96.36416}
- id: '3151595'
  slug: washington
  name: Washington
  state: ne
  kind: village
  geo: {lat: 41.39761, lng: -96.20751}
- id: '3151630'
  slug: waterbury
  name: Waterbury
  state: ne
  kind: village
  geo: {lat: 42.45724, lng: -96.73558}
- id: '3151665'
  slug: waterloo
  name: Waterloo
  state: ne
  kind: village
  geo: {lat: 41.2858, lng: -96.28833}
- id: '3151700'
  slug: wauneta
  name: Wauneta
  state: ne
  kind: village
  geo: {lat: 40.41611, lng: -101.3721}
- id: '3151735'
  slug: wausa
  name: Wausa
  state: ne
  kind: village
  geo: {lat: 42.49783, lng: -97.5393}
- id: '3151770'
  slug: waverly
  name: Waverly
  state: ne
  kind: city
  geo: {lat: 40.91176, lng: -96.53377}
- id: '3151840'
  slug: wayne
  name: Wayne
  state: ne
  kind: city
  geo: {lat: 42.23748, lng: -97.00886}
- id: '3152015'
  slug: weeping-water
  name: Weeping Water
  state: ne
  kind: city
  geo: {lat: 40.86912, lng: -96.14035}
- id: '3152085'
  slug: wellfleet
  name: Wellfleet
  state: ne
  kind: village
  geo: {lat: 40.75391, lng: -100.73182}
- id: '3152575'
  slug: west-point
  name: West Point
  state: ne
  kind: city
  geo: {lat: 41.83774, lng: -96.70592}
- id: '3152295'
  slug: western
  name: Western
  state: ne
  kind: village
  geo: {lat: 40.39308, lng: -97.1984}
- id: '3152330'
  slug: westerville
  name: Westerville
  state: ne
  kind: cdp
  geo: {lat: 41.3962, lng: -99.3818}
- id: '3152540'
  slug: weston
  name: Weston
  state: ne
  kind: village
  geo: {lat: 41.19314, lng: -96.74198}
- id: '3152855'
  slug: white-clay
  name: White Clay
  state: ne
  kind: cdp
  geo: {lat: 42.99702, lng: -102.55502}
- id: '3152925'
  slug: whitney
  name: Whitney
  state: ne
  kind: village
  geo: {lat: 42.78376, lng: -103.2567}
- id: '3152960'
  slug: wilber
  name: Wilber
  state: ne
  kind: city
  geo: {lat: 40.48091, lng: -96.96486}
- id: '3152995'
  slug: wilcox
  name: Wilcox
  state: ne
  kind: village
  geo: {lat: 40.3644, lng: -99.16926}
- id: '3153205'
  slug: willow-island
  name: Willow Island
  state: ne
  kind: cdp
  geo: {lat: 40.89004, lng: -100.07071}
- id: '3153240'
  slug: wilsonville
  name: Wilsonville
  state: ne
  kind: village
  geo: {lat: 40.1119, lng: -100.10668}
- id: '3153275'
  slug: winnebago
  name: Winnebago
  state: ne
  kind: village
  geo: {lat: 42.23838, lng: -96.47152}
- id: '3153345'
  slug: winnetoon
  name: Winnetoon
  state: ne
  kind: village
  geo: {lat: 42.51353, lng: -97.96013}
- id: '3153380'
  slug: winside
  name: Winside
  state: ne
  kind: village
  geo: {lat: 42.17744, lng: -97.17539}
- id: '3153415'
  slug: winslow
  name: Winslow
  state: ne
  kind: village
  geo: {lat: 41.61013, lng: -96.5047}
- id: '3153450'
  slug: wisner
  name: Wisner
  state: ne
  kind: city
  geo: {lat: 41.98969, lng: -96.91493}
- id: '3153520'
  slug: wolbach
  name: Wolbach
  state: ne
  kind: village
  geo: {lat: 41.40173, lng: -98.39016}
- id: '3153555'
  slug: wood-lake
  name: Wood Lake
  state: ne
  kind: village
  geo: {lat: 42.63834, lng: -100.23712}
- id: '3153660'
  slug: wood-river
  name: Wood River
  state: ne
  kind: city
  geo: {lat: 40.8198, lng: -98.60435}
- id: '3153575'
  slug: woodland-hills
  name: Woodland Hills
  state: ne
  kind: cdp
  geo: {lat: 40.75148, lng: -96.42209}
- id: '3153580'
  slug: woodland-park
  name: Woodland Park
  state: ne
  kind: cdp
  geo: {lat: 42.05424, lng: -97.34519}
- id: '3153835'
  slug: wymore
  name: Wymore
  state: ne
  kind: city
  geo: {lat: 40.12284, lng: -96.66415}
- id: '3153905'
  slug: wynot
  name: Wynot
  state: ne
  kind: village
  geo: {lat: 42.7398, lng: -97.16974}
- id: '3154020'
  slug: yankee-hill
  name: Yankee Hill
  state: ne
  kind: cdp
  geo: {lat: 40.76597, lng: -96.73298}
- id: '3154045'
  slug: york
  name: York
  state: ne
  kind: city
  geo: {lat: 40.86939, lng: -97.59274}
- id: '3154115'
  slug: yutan
  name: Yutan
  state: ne
  kind: city
  geo: {lat: 41.24299, lng: -96.39573}
