- id: '4900540'
  slug: alpine
  name: Alpine
  state: ut
  kind: city
  geo: {lat: 40.46295, lng: -111.77244}
- id: '4900650'
  slug: alta
  name: Alta
  state: ut
  kind: town
  geo: {lat: 40.58241, lng: -111.62032}
- id: '4900760'
  slug: altamont
  name: Altamont
  state: ut
  kind: town
  geo: {lat: 40.35898, lng: -110.28802}
- id: '4900870'
  slug: alton
  name: Alton
  state: ut
  kind: town
  geo: {lat: 37.42654, lng: -112.51027}
- id: '4901090'
  slug: amalga
  name: Amalga
  state: ut
  kind: town
  geo: {lat: 41.85625, lng: -111.89715}
- id: '4901310'
  slug: american-fork
  name: American Fork
  state: ut
  kind: city
  geo: {lat: 40.37788, lng: -111.79507}
- id: '4901530'
  slug: aneth
  name: Aneth
  state: ut
  kind: cdp
  geo: {lat: 37.20635, lng: -109.15721}
- id: '4901750'
  slug: annabella
  name: Annabella
  state: ut
  kind: town
  geo: {lat: 38.70601, lng: -112.05857}
- id: '4901860'
  slug: antimony
  name: Antimony
  state: ut
  kind: town
  geo: {lat: 38.10303, lng: -111.98232}
- id: '4901905'
  slug: apple-valley
  name: Apple Valley
  state: ut
  kind: town
  geo: {lat: 37.08097, lng: -113.1034}
- id: '4902740'
  slug: aurora
  name: Aurora
  state: ut
  kind: city
  geo: {lat: 38.91996, lng: -111.93362}
- id: '4902960'
  slug: avon
  name: Avon
  state: ut
  kind: cdp
  geo: {lat: 41.53533, lng: -111.81243}
- id: '4903345'
  slug: ballard
  name: Ballard
  state: ut
  kind: town
  geo: {lat: 40.29491, lng: -109.94935}
- id: '4903950'
  slug: bear-river-city
  name: Bear River City
  state: ut
  kind: city
  geo: {lat: 41.61237, lng: -112.12495}
- id: '4904060'
  slug: beaver
  name: Beaver
  state: ut
  kind: city
  geo: {lat: 38.27587, lng: -112.6381}
- id: '4904720'
  slug: benjamin
  name: Benjamin
  state: ut
  kind: cdp
  geo: {lat: 40.09687, lng: -111.72897}
- id: '4905050'
  slug: benson
  name: Benson
  state: ut
  kind: cdp
  geo: {lat: 41.75286, lng: -111.92585}
- id: '4905380'
  slug: beryl-junction
  name: Beryl Junction
  state: ut
  kind: cdp
  geo: {lat: 37.70098, lng: -113.6535}
- id: '4905490'
  slug: bicknell
  name: Bicknell
  state: ut
  kind: town
  geo: {lat: 38.34066, lng: -111.54418}
- id: '4905534'
  slug: big-water
  name: Big Water
  state: ut
  kind: town
  geo: {lat: 37.07287, lng: -111.66076}
- id: '4906370'
  slug: blanding
  name: Blanding
  state: ut
  kind: city
  geo: {lat: 37.62314, lng: -109.51295}
- id: '4906590'
  slug: bluebell
  name: Bluebell
  state: ut
  kind: cdp
  geo: {lat: 40.35137, lng: -110.22382}
- id: '4906700'
  slug: bluff
  name: Bluff
  state: ut
  kind: town
  geo: {lat: 37.29035, lng: -109.5961}
- id: '4906810'
  slug: bluffdale
  name: Bluffdale
  state: ut
  kind: city
  geo: {lat: 40.47455, lng: -111.94026}
- id: '4906920'
  slug: bonanza
  name: Bonanza
  state: ut
  kind: cdp
  geo: {lat: 40.03047, lng: -109.18844}
- id: '4907470'
  slug: boulder
  name: Boulder
  state: ut
  kind: town
  geo: {lat: 37.92278, lng: -111.43185}
- id: '4907690'
  slug: bountiful
  name: Bountiful
  state: ut
  kind: city
  geo: {lat: 40.87248, lng: -111.8612}
- id: '4908020'
  slug: brian-head
  name: Brian Head
  state: ut
  kind: town
  geo: {lat: 37.7063, lng: -112.83483}
- id: '4908460'
  slug: brigham-city
  name: Brigham City
  state: ut
  kind: city
  geo: {lat: 41.5059, lng: -112.05142}
- id: '4908570'
  slug: brighton
  name: Brighton
  state: ut
  kind: town
  geo: {lat: 40.61066, lng: -111.60392}
- id: '4908787'
  slug: bryce-canyon-city
  name: Bryce Canyon City
  state: ut
  kind: town
  geo: {lat: 37.68196, lng: -112.16157}
- id: '4909725'
  slug: cache
  name: Cache
  state: ut
  kind: cdp
  geo: {lat: 41.82865, lng: -112.00568}
- id: '4910330'
  slug: cannonville
  name: Cannonville
  state: ut
  kind: town
  geo: {lat: 37.55483, lng: -112.05376}
- id: '4910440'
  slug: carbonville
  name: Carbonville
  state: ut
  kind: cdp
  geo: {lat: 39.62688, lng: -110.83326}
- id: '4910660'
  slug: castle-dale
  name: Castle Dale
  state: ut
  kind: city
  geo: {lat: 39.22166, lng: -111.02268}
- id: '4911000'
  slug: castle-valley
  name: Castle Valley
  state: ut
  kind: town
  geo: {lat: 38.63212, lng: -109.39604}
- id: '4911320'
  slug: cedar-city
  name: Cedar City
  state: ut
  kind: city
  geo: {lat: 37.68385, lng: -113.09557}
- id: '4911430'
  slug: cedar-fort
  name: Cedar Fort
  state: ut
  kind: town
  geo: {lat: 40.34173, lng: -112.1088}
- id: '4911435'
  slug: cedar-highlands
  name: Cedar Highlands
  state: ut
  kind: cdp
  geo: {lat: 37.63584, lng: -113.04104}
- id: '4911440'
  slug: cedar-hills
  name: Cedar Hills
  state: ut
  kind: city
  geo: {lat: 40.41203, lng: -111.75427}
- id: '4911870'
  slug: centerfield
  name: Centerfield
  state: ut
  kind: town
  geo: {lat: 39.12745, lng: -111.81842}
- id: '4911980'
  slug: centerville
  name: Centerville
  state: ut
  kind: city
  geo: {lat: 40.9263, lng: -111.88334}
- id: '4912200'
  slug: central
  name: Central
  state: ut
  kind: cdp
  geo: {lat: 37.41501, lng: -113.62625}
- id: '4912260'
  slug: central-valley
  name: Central Valley
  state: ut
  kind: town
  geo: {lat: 38.69933, lng: -112.09668}
- id: '4912420'
  slug: charleston
  name: Charleston
  state: ut
  kind: town
  geo: {lat: 40.46728, lng: -111.45949}
- id: '4912970'
  slug: circleville
  name: Circleville
  state: ut
  kind: town
  geo: {lat: 38.1684, lng: -112.27161}
- id: '4913190'
  slug: clarkston
  name: Clarkston
  state: ut
  kind: town
  geo: {lat: 41.92048, lng: -112.05038}
- id: '4913300'
  slug: clawson
  name: Clawson
  state: ut
  kind: town
  geo: {lat: 39.13139, lng: -111.09893}
- id: '4913740'
  slug: clear-creek
  name: Clear Creek
  state: ut
  kind: cdp
  geo: {lat: 39.64334, lng: -111.15484}
- id: '4913850'
  slug: clearfield
  name: Clearfield
  state: ut
  kind: city
  geo: {lat: 41.09701, lng: -112.01792}
- id: '4914070'
  slug: cleveland
  name: Cleveland
  state: ut
  kind: town
  geo: {lat: 39.34927, lng: -110.85541}
- id: '4914290'
  slug: clinton
  name: Clinton
  state: ut
  kind: city
  geo: {lat: 41.13874, lng: -112.06642}
- id: '4914840'
  slug: coalville
  name: Coalville
  state: ut
  kind: city
  geo: {lat: 40.90734, lng: -111.42138}
- id: '4915720'
  slug: copperton
  name: Copperton
  state: ut
  kind: city
  geo: {lat: 40.56612, lng: -112.09792}
- id: '4915830'
  slug: corinne
  name: Corinne
  state: ut
  kind: city
  geo: {lat: 41.55146, lng: -112.12502}
- id: '4915940'
  slug: cornish
  name: Cornish
  state: ut
  kind: town
  geo: {lat: 41.96716, lng: -111.95873}
- id: '4916270'
  slug: cottonwood-heights
  name: Cottonwood Heights
  state: ut
  kind: city
  geo: {lat: 40.61368, lng: -111.81455}
- id: '4916490'
  slug: cove
  name: Cove
  state: ut
  kind: cdp
  geo: {lat: 41.96826, lng: -111.77939}
- id: '4918090'
  slug: dammeron-valley
  name: Dammeron Valley
  state: ut
  kind: cdp
  geo: {lat: 37.30417, lng: -113.66587}
- id: '4918140'
  slug: daniel
  name: Daniel
  state: ut
  kind: town
  geo: {lat: 40.46672, lng: -111.40951}
- id: '4918910'
  slug: delta
  name: Delta
  state: ut
  kind: city
  geo: {lat: 39.36327, lng: -112.54376}
- id: '4919020'
  slug: deseret
  name: Deseret
  state: ut
  kind: cdp
  geo: {lat: 39.28762, lng: -112.65112}
- id: '4919680'
  slug: deweyville
  name: Deweyville
  state: ut
  kind: town
  geo: {lat: 41.69303, lng: -112.08835}
- id: '4920120'
  slug: draper
  name: Draper
  state: ut
  kind: city
  geo: {lat: 40.49715, lng: -111.86464}
- id: '4920340'
  slug: duchesne
  name: Duchesne
  state: ut
  kind: city
  geo: {lat: 40.1753, lng: -110.39415}
- id: '4920450'
  slug: dugway
  name: Dugway
  state: ut
  kind: cdp
  geo: {lat: 40.23069, lng: -112.75405}
- id: '4920780'
  slug: dutch-john
  name: Dutch John
  state: ut
  kind: town
  geo: {lat: 40.92707, lng: -109.40312}
- id: '4920810'
  slug: eagle-mountain
  name: Eagle Mountain
  state: ut
  kind: city
  geo: {lat: 40.31427, lng: -112.01198}
- id: '4920850'
  slug: east-basin
  name: East Basin
  state: ut
  kind: cdp
  geo: {lat: 40.7368, lng: -111.46907}
- id: '4920890'
  slug: east-carbon
  name: East Carbon
  state: ut
  kind: city
  geo: {lat: 39.53303, lng: -110.42945}
- id: '4921880'
  slug: echo
  name: Echo
  state: ut
  kind: cdp
  geo: {lat: 40.98026, lng: -111.43925}
- id: '4921990'
  slug: eden
  name: Eden
  state: ut
  kind: cdp
  geo: {lat: 41.30616, lng: -111.80378}
- id: '4922210'
  slug: elberta
  name: Elberta
  state: ut
  kind: cdp
  geo: {lat: 39.95579, lng: -111.95692}
- id: '4922370'
  slug: elk-ridge
  name: Elk Ridge
  state: ut
  kind: city
  geo: {lat: 40.01036, lng: -111.678}
- id: '4922540'
  slug: elmo
  name: Elmo
  state: ut
  kind: town
  geo: {lat: 39.38771, lng: -110.81561}
- id: '4922650'
  slug: elsinore
  name: Elsinore
  state: ut
  kind: town
  geo: {lat: 38.68376, lng: -112.14005}
- id: '4922760'
  slug: elwood
  name: Elwood
  state: ut
  kind: town
  geo: {lat: 41.67321, lng: -112.13665}
- id: '4922870'
  slug: emery
  name: Emery
  state: ut
  kind: town
  geo: {lat: 38.92518, lng: -111.25224}
- id: '4922875'
  slug: emigration-canyon
  name: Emigration Canyon
  state: ut
  kind: city
  geo: {lat: 40.78857, lng: -111.7414}
- id: '4923200'
  slug: enoch
  name: Enoch
  state: ut
  kind: city
  geo: {lat: 37.76657, lng: -113.04526}
- id: '4923310'
  slug: enterprise-3310
  name: Enterprise
  state: ut
  kind: cdp
  geo: {lat: 41.10699, lng: -111.73071}
- id: '4923420'
  slug: enterprise-3420
  name: Enterprise
  state: ut
  kind: city
  geo: {lat: 37.57163, lng: -113.74303}
- id: '4923530'
  slug: ephraim
  name: Ephraim
  state: ut
  kind: city
  geo: {lat: 39.35907, lng: -111.58598}
- id: '4923640'
  slug: erda
  name: Erda
  state: ut
  kind: city
  geo: {lat: 40.61808, lng: -112.30894}
- id: '4923750'
  slug: escalante
  name: Escalante
  state: ut
  kind: city
  geo: {lat: 37.76488, lng: -111.5984}
- id: '4924080'
  slug: eureka
  name: Eureka
  state: ut
  kind: city
  geo: {lat: 39.95866, lng: -112.11508}
- id: '4924410'
  slug: fairfield
  name: Fairfield
  state: ut
  kind: town
  geo: {lat: 40.23599, lng: -112.07522}
- id: '4924630'
  slug: fairview
  name: Fairview
  state: ut
  kind: city
  geo: {lat: 39.62997, lng: -111.43686}
- id: '4924740'
  slug: farmington
  name: Farmington
  state: ut
  kind: city
  geo: {lat: 40.98467, lng: -111.90631}
- id: '4924850'
  slug: farr-west
  name: Farr West
  state: ut
  kind: city
  geo: {lat: 41.30156, lng: -112.03181}
- id: '4925070'
  slug: fayette
  name: Fayette
  state: ut
  kind: town
  geo: {lat: 39.22464, lng: -111.85419}
- id: '4925180'
  slug: ferron
  name: Ferron
  state: ut
  kind: city
  geo: {lat: 39.0916, lng: -111.13363}
- id: '4925290'
  slug: fielding
  name: Fielding
  state: ut
  kind: town
  geo: {lat: 41.81224, lng: -112.117}
- id: '4925510'
  slug: fillmore
  name: Fillmore
  state: ut
  kind: city
  geo: {lat: 38.96426, lng: -112.33867}
- id: '4925910'
  slug: flaming-gorge
  name: Flaming Gorge
  state: ut
  kind: cdp
  geo: {lat: 40.88915, lng: -109.47593}
- id: '4926610'
  slug: fort-duchesne
  name: Fort Duchesne
  state: ut
  kind: cdp
  geo: {lat: 40.2818, lng: -109.87724}
- id: '4926720'
  slug: fountain-green
  name: Fountain Green
  state: ut
  kind: city
  geo: {lat: 39.62809, lng: -111.6413}
- id: '4926940'
  slug: francis
  name: Francis
  state: ut
  kind: town
  geo: {lat: 40.61251, lng: -111.28217}
- id: '4927270'
  slug: fremont
  name: Fremont
  state: ut
  kind: cdp
  geo: {lat: 38.45545, lng: -111.61495}
- id: '4927490'
  slug: fruit-heights
  name: Fruit Heights
  state: ut
  kind: city
  geo: {lat: 41.02893, lng: -111.90459}
- id: '4927902'
  slug: garden
  name: Garden
  state: ut
  kind: cdp
  geo: {lat: 41.87427, lng: -111.41703}
- id: '4927930'
  slug: garden-city
  name: Garden City
  state: ut
  kind: town
  geo: {lat: 41.93709, lng: -111.41216}
- id: '4928150'
  slug: garland
  name: Garland
  state: ut
  kind: city
  geo: {lat: 41.73627, lng: -112.16279}
- id: '4928810'
  slug: genola
  name: Genola
  state: ut
  kind: town
  geo: {lat: 40.01199, lng: -111.84798}
- id: '4929360'
  slug: glendale
  name: Glendale
  state: ut
  kind: town
  geo: {lat: 37.33423, lng: -112.6035}
- id: '4929580'
  slug: glenwood
  name: Glenwood
  state: ut
  kind: town
  geo: {lat: 38.76245, lng: -111.9876}
- id: '4930130'
  slug: goshen
  name: Goshen
  state: ut
  kind: town
  geo: {lat: 39.95111, lng: -111.90083}
- id: '4930900'
  slug: granite
  name: Granite
  state: ut
  kind: cdp
  geo: {lat: 40.57566, lng: -111.79125}
- id: '4931120'
  slug: grantsville
  name: Grantsville
  state: ut
  kind: city
  geo: {lat: 40.61135, lng: -112.46908}
- id: '4931670'
  slug: green-river
  name: Green River
  state: ut
  kind: city
  geo: {lat: 38.99346, lng: -110.17342}
- id: '4932660'
  slug: gunnison
  name: Gunnison
  state: ut
  kind: city
  geo: {lat: 39.15693, lng: -111.81352}
- id: '4933002'
  slug: halchita
  name: Halchita
  state: ut
  kind: cdp
  geo: {lat: 37.15056, lng: -109.9037}
- id: '4933027'
  slug: halls-crossing
  name: Halls Crossing
  state: ut
  kind: cdp
  geo: {lat: 37.46582, lng: -110.66544}
- id: '4933100'
  slug: hanksville
  name: Hanksville
  state: ut
  kind: town
  geo: {lat: 38.372, lng: -110.71345}
- id: '4933540'
  slug: harrisville
  name: Harrisville
  state: ut
  kind: city
  geo: {lat: 41.28532, lng: -111.98597}
- id: '4933760'
  slug: hatch
  name: Hatch
  state: ut
  kind: town
  geo: {lat: 37.64919, lng: -112.43488}
- id: '4934200'
  slug: heber
  name: Heber
  state: ut
  kind: city
  geo: {lat: 40.54165, lng: -111.38792}
- id: '4934530'
  slug: helper
  name: Helper
  state: ut
  kind: city
  geo: {lat: 39.68963, lng: -110.8596}
- id: '4934640'
  slug: henefer
  name: Henefer
  state: ut
  kind: town
  geo: {lat: 41.01381, lng: -111.49327}
- id: '4934750'
  slug: henrieville
  name: Henrieville
  state: ut
  kind: town
  geo: {lat: 37.56389, lng: -112.00191}
- id: '4934970'
  slug: herriman
  name: Herriman
  state: ut
  kind: city
  geo: {lat: 40.49182, lng: -112.02043}
- id: '4935120'
  slug: hideout
  name: Hideout
  state: ut
  kind: town
  geo: {lat: 40.64596, lng: -111.40584}
- id: '4935190'
  slug: highland
  name: Highland
  state: ut
  kind: city
  geo: {lat: 40.42754, lng: -111.79561}
- id: '4935300'
  slug: hildale
  name: Hildale
  state: ut
  kind: city
  geo: {lat: 37.01542, lng: -112.99985}
- id: '4935740'
  slug: hinckley
  name: Hinckley
  state: ut
  kind: town
  geo: {lat: 39.3336, lng: -112.67348}
- id: '4935823'
  slug: hobble-creek
  name: Hobble Creek
  state: ut
  kind: cdp
  geo: {lat: 40.19172, lng: -111.49671}
- id: '4935960'
  slug: holden
  name: Holden
  state: ut
  kind: town
  geo: {lat: 39.1001, lng: -112.27041}
- id: '4936070'
  slug: holladay
  name: Holladay
  state: ut
  kind: city
  geo: {lat: 40.65992, lng: -111.8227}
- id: '4936290'
  slug: honeyville
  name: Honeyville
  state: ut
  kind: city
  geo: {lat: 41.63612, lng: -112.08575}
- id: '4936400'
  slug: hooper
  name: Hooper
  state: ut
  kind: city
  geo: {lat: 41.16258, lng: -112.34196}
- id: '4936620'
  slug: howell
  name: Howell
  state: ut
  kind: town
  geo: {lat: 41.77875, lng: -112.44802}
- id: '4936730'
  slug: hoytsville
  name: Hoytsville
  state: ut
  kind: cdp
  geo: {lat: 40.87577, lng: -111.38473}
- id: '4936950'
  slug: huntington
  name: Huntington
  state: ut
  kind: city
  geo: {lat: 39.33012, lng: -110.96281}
- id: '4937060'
  slug: huntsville
  name: Huntsville
  state: ut
  kind: town
  geo: {lat: 41.25986, lng: -111.77999}
- id: '4937170'
  slug: hurricane
  name: Hurricane
  state: ut
  kind: city
  geo: {lat: 37.14847, lng: -113.35886}
- id: '4937390'
  slug: hyde-park
  name: Hyde Park
  state: ut
  kind: city
  geo: {lat: 41.80108, lng: -111.80989}
- id: '4937500'
  slug: hyrum
  name: Hyrum
  state: ut
  kind: city
  geo: {lat: 41.6328, lng: -111.84551}
- id: '4937690'
  slug: independence
  name: Independence
  state: ut
  kind: town
  geo: {lat: 40.41084, lng: -111.29571}
- id: '4937924'
  slug: interlaken
  name: Interlaken
  state: ut
  kind: town
  geo: {lat: 40.54118, lng: -111.47535}
- id: '4938710'
  slug: ivins
  name: Ivins
  state: ut
  kind: city
  geo: {lat: 37.1738, lng: -113.68083}
- id: '4939040'
  slug: jensen
  name: Jensen
  state: ut
  kind: cdp
  geo: {lat: 40.36953, lng: -109.35557}
- id: '4939370'
  slug: joseph
  name: Joseph
  state: ut
  kind: town
  geo: {lat: 38.62485, lng: -112.21982}
- id: '4939590'
  slug: junction
  name: Junction
  state: ut
  kind: town
  geo: {lat: 38.23615, lng: -112.22462}
- id: '4939810'
  slug: kamas
  name: Kamas
  state: ut
  kind: city
  geo: {lat: 40.65, lng: -111.27342}
- id: '4939920'
  slug: kanab
  name: Kanab
  state: ut
  kind: city
  geo: {lat: 37.026, lng: -112.52372}
- id: '4940030'
  slug: kanarraville
  name: Kanarraville
  state: ut
  kind: town
  geo: {lat: 37.53797, lng: -113.18104}
- id: '4940250'
  slug: kanosh
  name: Kanosh
  state: ut
  kind: town
  geo: {lat: 38.80139, lng: -112.43743}
- id: '4940360'
  slug: kaysville
  name: Kaysville
  state: ut
  kind: city
  geo: {lat: 41.02934, lng: -111.94507}
- id: '4940470'
  slug: kearns
  name: Kearns
  state: ut
  kind: city
  geo: {lat: 40.65194, lng: -112.00939}
- id: '4941020'
  slug: kenilworth
  name: Kenilworth
  state: ut
  kind: cdp
  geo: {lat: 39.68033, lng: -110.81454}
- id: '4941350'
  slug: kingston
  name: Kingston
  state: ut
  kind: town
  geo: {lat: 38.20667, lng: -112.17927}
- id: '4941680'
  slug: koosharem
  name: Koosharem
  state: ut
  kind: town
  geo: {lat: 38.51467, lng: -111.88128}
- id: '4943110'
  slug: la-sal
  name: La Sal
  state: ut
  kind: cdp
  geo: {lat: 38.30115, lng: -109.26565}
- id: '4943440'
  slug: la-verkin
  name: La Verkin
  state: ut
  kind: city
  geo: {lat: 37.23153, lng: -113.25056}
- id: '4942010'
  slug: lake-point
  name: Lake Point
  state: ut
  kind: city
  geo: {lat: 40.68337, lng: -112.26557}
- id: '4942230'
  slug: lake-shore
  name: Lake Shore
  state: ut
  kind: cdp
  geo: {lat: 40.12944, lng: -111.73618}
- id: '4942560'
  slug: laketown
  name: Laketown
  state: ut
  kind: town
  geo: {lat: 41.82932, lng: -111.33268}
- id: '4942890'
  slug: lapoint
  name: Lapoint
  state: ut
  kind: cdp
  geo: {lat: 40.40422, lng: -109.79698}
- id: '4943660'
  slug: layton
  name: Layton
  state: ut
  kind: city
  geo: {lat: 41.07742, lng: -111.96073}
- id: '4943880'
  slug: leamington
  name: Leamington
  state: ut
  kind: town
  geo: {lat: 39.53131, lng: -112.28523}
- id: '4944100'
  slug: leeds
  name: Leeds
  state: ut
  kind: town
  geo: {lat: 37.23719, lng: -113.34707}
- id: '4944320'
  slug: lehi
  name: Lehi
  state: ut
  kind: city
  geo: {lat: 40.41708, lng: -111.87115}
- id: '4944650'
  slug: levan
  name: Levan
  state: ut
  kind: town
  geo: {lat: 39.55616, lng: -111.86058}
- id: '4944760'
  slug: lewiston
  name: Lewiston
  state: ut
  kind: city
  geo: {lat: 41.96845, lng: -111.88581}
- id: '4944870'
  slug: liberty
  name: Liberty
  state: ut
  kind: cdp
  geo: {lat: 41.34254, lng: -111.86488}
- id: '4945090'
  slug: lindon
  name: Lindon
  state: ut
  kind: city
  geo: {lat: 40.342, lng: -111.71727}
- id: '4945530'
  slug: loa
  name: Loa
  state: ut
  kind: town
  geo: {lat: 38.40376, lng: -111.64514}
- id: '4945860'
  slug: logan
  name: Logan
  state: ut
  kind: city
  geo: {lat: 41.74026, lng: -111.84176}
- id: '4946410'
  slug: lyman
  name: Lyman
  state: ut
  kind: town
  geo: {lat: 38.39663, lng: -111.58934}
- id: '4946740'
  slug: lynndyl
  name: Lynndyl
  state: ut
  kind: town
  geo: {lat: 39.50858, lng: -112.39344}
- id: '4947180'
  slug: maeser
  name: Maeser
  state: ut
  kind: cdp
  geo: {lat: 40.47184, lng: -109.57862}
- id: '4947290'
  slug: magna
  name: Magna
  state: ut
  kind: city
  geo: {lat: 40.75954, lng: -112.18273}
- id: '4947620'
  slug: manila
  name: Manila
  state: ut
  kind: town
  geo: {lat: 40.99216, lng: -109.72103}
- id: '4947730'
  slug: manti
  name: Manti
  state: ut
  kind: city
  geo: {lat: 39.26647, lng: -111.63533}
- id: '4947840'
  slug: mantua
  name: Mantua
  state: ut
  kind: town
  geo: {lat: 41.49798, lng: -111.93574}
- id: '4947950'
  slug: mapleton
  name: Mapleton
  state: ut
  kind: city
  geo: {lat: 40.11876, lng: -111.57425}
- id: '4948170'
  slug: marion
  name: Marion
  state: ut
  kind: cdp
  geo: {lat: 40.68102, lng: -111.27732}
- id: '4948300'
  slug: marriott-slaterville
  name: Marriott-Slaterville
  state: ut
  kind: city
  geo: {lat: 41.26105, lng: -112.03625}
- id: '4948610'
  slug: marysvale
  name: Marysvale
  state: ut
  kind: town
  geo: {lat: 38.43665, lng: -112.26197}
- id: '4948720'
  slug: mayfield
  name: Mayfield
  state: ut
  kind: town
  geo: {lat: 39.11931, lng: -111.70804}
- id: '4948830'
  slug: meadow
  name: Meadow
  state: ut
  kind: town
  geo: {lat: 38.88622, lng: -112.40714}
- id: '4949160'
  slug: mendon
  name: Mendon
  state: ut
  kind: city
  geo: {lat: 41.71154, lng: -111.97754}
- id: '4949380'
  slug: mexican-hat
  name: Mexican Hat
  state: ut
  kind: cdp
  geo: {lat: 37.17426, lng: -109.88358}
- id: '4949710'
  slug: midvale
  name: Midvale
  state: ut
  kind: city
  geo: {lat: 40.61472, lng: -111.89282}
- id: '4949820'
  slug: midway
  name: Midway
  state: ut
  kind: city
  geo: {lat: 40.52021, lng: -111.47552}
- id: '4950040'
  slug: milford
  name: Milford
  state: ut
  kind: city
  geo: {lat: 38.3945, lng: -113.01226}
- id: '4950150'
  slug: millcreek
  name: Millcreek
  state: ut
  kind: city
  geo: {lat: 40.68902, lng: -111.82956}
- id: '4950370'
  slug: millville
  name: Millville
  state: ut
  kind: city
  geo: {lat: 41.6851, lng: -111.82114}
- id: '4950590'
  slug: minersville
  name: Minersville
  state: ut
  kind: town
  geo: {lat: 38.24801, lng: -112.97899}
- id: '4950700'
  slug: moab
  name: Moab
  state: ut
  kind: city
  geo: {lat: 38.57008, lng: -109.54781}
- id: '4950810'
  slug: modena
  name: Modena
  state: ut
  kind: cdp
  geo: {lat: 37.79471, lng: -113.92746}
- id: '4951140'
  slug: mona
  name: Mona
  state: ut
  kind: city
  geo: {lat: 39.8118, lng: -111.84153}
- id: '4951360'
  slug: monroe
  name: Monroe
  state: ut
  kind: city
  geo: {lat: 38.62301, lng: -112.11961}
- id: '4951470'
  slug: montezuma-creek
  name: Montezuma Creek
  state: ut
  kind: cdp
  geo: {lat: 37.25165, lng: -109.28956}
- id: '4951580'
  slug: monticello
  name: Monticello
  state: ut
  kind: city
  geo: {lat: 37.86853, lng: -109.3362}
- id: '4951910'
  slug: morgan
  name: Morgan
  state: ut
  kind: city
  geo: {lat: 41.04173, lng: -111.68054}
- id: '4952130'
  slug: moroni
  name: Moroni
  state: ut
  kind: city
  geo: {lat: 39.52703, lng: -111.58307}
- id: '4953010'
  slug: mount-pleasant
  name: Mount Pleasant
  state: ut
  kind: city
  geo: {lat: 39.54074, lng: -111.45587}
- id: '4952460'
  slug: mountain-green
  name: Mountain Green
  state: ut
  kind: cdp
  geo: {lat: 41.14767, lng: -111.78763}
- id: '4953230'
  slug: murray
  name: Murray
  state: ut
  kind: city
  geo: {lat: 40.65065, lng: -111.88657}
- id: '4953340'
  slug: myton
  name: Myton
  state: ut
  kind: city
  geo: {lat: 40.19326, lng: -110.06251}
- id: '4953560'
  slug: naples
  name: Naples
  state: ut
  kind: city
  geo: {lat: 40.43175, lng: -109.49127}
- id: '4953890'
  slug: navajo-mountain
  name: Navajo Mountain
  state: ut
  kind: cdp
  geo: {lat: 37.04703, lng: -110.78993}
- id: '4954110'
  slug: neola
  name: Neola
  state: ut
  kind: cdp
  geo: {lat: 40.43481, lng: -110.03082}
- id: '4954220'
  slug: nephi
  name: Nephi
  state: ut
  kind: city
  geo: {lat: 39.70476, lng: -111.83337}
- id: '4954440'
  slug: new-harmony
  name: New Harmony
  state: ut
  kind: town
  geo: {lat: 37.48004, lng: -113.30925}
- id: '4954330'
  slug: newcastle
  name: Newcastle
  state: ut
  kind: cdp
  geo: {lat: 37.66285, lng: -113.56437}
- id: '4954550'
  slug: newton
  name: Newton
  state: ut
  kind: town
  geo: {lat: 41.86116, lng: -111.99075}
- id: '4954660'
  slug: nibley
  name: Nibley
  state: ut
  kind: city
  geo: {lat: 41.67301, lng: -111.84685}
- id: '4954990'
  slug: north-logan
  name: North Logan
  state: ut
  kind: city
  geo: {lat: 41.77554, lng: -111.80665}
- id: '4955100'
  slug: north-ogden
  name: North Ogden
  state: ut
  kind: city
  geo: {lat: 41.31461, lng: -111.95969}
- id: '4955210'
  slug: north-salt-lake
  name: North Salt Lake
  state: ut
  kind: city
  geo: {lat: 40.84712, lng: -111.91878}
- id: '4955430'
  slug: oak-city
  name: Oak City
  state: ut
  kind: town
  geo: {lat: 39.37474, lng: -112.33834}
- id: '4955650'
  slug: oakley
  name: Oakley
  state: ut
  kind: city
  geo: {lat: 40.74052, lng: -111.2741}
- id: '4955760'
  slug: oasis
  name: Oasis
  state: ut
  kind: cdp
  geo: {lat: 39.29231, lng: -112.62895}
- id: '4955980'
  slug: ogden
  name: Ogden
  state: ut
  kind: city
  geo: {lat: 41.22839, lng: -111.96815}
- id: '4956440'
  slug: oljato-monument-valley
  name: Oljato-Monument Valley
  state: ut
  kind: cdp
  geo: {lat: 37.03075, lng: -110.25109}
- id: '4956750'
  slug: ophir
  name: Ophir
  state: ut
  kind: cdp
  geo: {lat: 40.37006, lng: -112.25596}
- id: '4956860'
  slug: orangeville
  name: Orangeville
  state: ut
  kind: city
  geo: {lat: 39.23082, lng: -111.05917}
- id: '4957080'
  slug: orderville
  name: Orderville
  state: ut
  kind: town
  geo: {lat: 37.25158, lng: -112.65712}
- id: '4957300'
  slug: orem
  name: Orem
  state: ut
  kind: city
  geo: {lat: 40.29807, lng: -111.69946}
- id: '4957630'
  slug: palmyra
  name: Palmyra
  state: ut
  kind: cdp
  geo: {lat: 40.13418, lng: -111.69305}
- id: '4957740'
  slug: panguitch
  name: Panguitch
  state: ut
  kind: city
  geo: {lat: 37.82285, lng: -112.43417}
- id: '4957850'
  slug: paradise
  name: Paradise
  state: ut
  kind: town
  geo: {lat: 41.56818, lng: -111.83335}
- id: '4957960'
  slug: paragonah
  name: Paragonah
  state: ut
  kind: town
  geo: {lat: 37.88538, lng: -112.77109}
- id: '4958070'
  slug: park-city
  name: Park City
  state: ut
  kind: city
  geo: {lat: 40.65733, lng: -111.49376}
- id: '4958510'
  slug: parowan
  name: Parowan
  state: ut
  kind: city
  geo: {lat: 37.8327, lng: -112.83038}
- id: '4958730'
  slug: payson
  name: Payson
  state: ut
  kind: city
  geo: {lat: 40.03588, lng: -111.7388}
- id: '4959280'
  slug: peoa
  name: Peoa
  state: ut
  kind: cdp
  geo: {lat: 40.73257, lng: -111.3294}
- id: '4959390'
  slug: perry
  name: Perry
  state: ut
  kind: city
  geo: {lat: 41.46452, lng: -112.04054}
- id: '4959555'
  slug: peter
  name: Peter
  state: ut
  kind: cdp
  geo: {lat: 41.77743, lng: -112.00064}
- id: '4960270'
  slug: pine-valley
  name: Pine Valley
  state: ut
  kind: cdp
  geo: {lat: 37.39037, lng: -113.50603}
- id: '4960710'
  slug: plain-city
  name: Plain City
  state: ut
  kind: city
  geo: {lat: 41.3067, lng: -112.0943}
- id: '4960930'
  slug: pleasant-grove
  name: Pleasant Grove
  state: ut
  kind: city
  geo: {lat: 40.3715, lng: -111.74128}
- id: '4961150'
  slug: pleasant-view
  name: Pleasant View
  state: ut
  kind: city
  geo: {lat: 41.32489, lng: -112.00104}
- id: '4961260'
  slug: plymouth
  name: Plymouth
  state: ut
  kind: town
  geo: {lat: 41.87359, lng: -112.14678}
- id: '4961590'
  slug: portage
  name: Portage
  state: ut
  kind: town
  geo: {lat: 41.97563, lng: -112.24051}
- id: '4962030'
  slug: price
  name: Price
  state: ut
  kind: city
  geo: {lat: 39.604, lng: -110.80035}
- id: '4962360'
  slug: providence
  name: Providence
  state: ut
  kind: city
  geo: {lat: 41.70352, lng: -111.81336}
- id: '4962470'
  slug: provo
  name: Provo
  state: ut
  kind: city
  geo: {lat: 40.24531, lng: -111.64506}
- id: '4962910'
  slug: randlett
  name: Randlett
  state: ut
  kind: cdp
  geo: {lat: 40.22675, lng: -109.83081}
- id: '4963020'
  slug: randolph
  name: Randolph
  state: ut
  kind: town
  geo: {lat: 41.66553, lng: -111.18463}
- id: '4963240'
  slug: redmond
  name: Redmond
  state: ut
  kind: town
  geo: {lat: 39.00526, lng: -111.86724}
- id: '4963570'
  slug: richfield
  name: Richfield
  state: ut
  kind: city
  geo: {lat: 38.76132, lng: -112.09286}
- id: '4963680'
  slug: richmond
  name: Richmond
  state: ut
  kind: city
  geo: {lat: 41.92307, lng: -111.80782}
- id: '4964120'
  slug: river-heights
  name: River Heights
  state: ut
  kind: city
  geo: {lat: 41.72213, lng: -111.81912}
- id: '4964010'
  slug: riverdale
  name: Riverdale
  state: ut
  kind: city
  geo: {lat: 41.17314, lng: -112.00226}
- id: '4964230'
  slug: riverside
  name: Riverside
  state: ut
  kind: cdp
  geo: {lat: 41.81059, lng: -112.14032}
- id: '4964340'
  slug: riverton
  name: Riverton
  state: ut
  kind: city
  geo: {lat: 40.51763, lng: -111.96352}
- id: '4964560'
  slug: rockville
  name: Rockville
  state: ut
  kind: town
  geo: {lat: 37.14782, lng: -113.05479}
- id: '4964590'
  slug: rocky-ridge
  name: Rocky Ridge
  state: ut
  kind: town
  geo: {lat: 39.91975, lng: -111.82575}
- id: '4964670'
  slug: roosevelt
  name: Roosevelt
  state: ut
  kind: city
  geo: {lat: 40.28773, lng: -109.98798}
- id: '4965110'
  slug: roy
  name: Roy
  state: ut
  kind: city
  geo: {lat: 41.17146, lng: -112.04848}
- id: '4965240'
  slug: rush-valley
  name: Rush Valley
  state: ut
  kind: town
  geo: {lat: 40.36129, lng: -112.45064}
- id: '4965770'
  slug: salem
  name: Salem
  state: ut
  kind: city
  geo: {lat: 40.0553, lng: -111.66737}
- id: '4965880'
  slug: salina
  name: Salina
  state: ut
  kind: city
  geo: {lat: 38.93884, lng: -111.86521}
- id: '4967000'
  slug: salt-lake-city
  name: Salt Lake City
  state: ut
  kind: city
  geo: {lat: 40.77693, lng: -111.93099}
- id: '4967400'
  slug: samak
  name: Samak
  state: ut
  kind: cdp
  geo: {lat: 40.63891, lng: -111.2413}
- id: '4967440'
  slug: sandy
  name: Sandy
  state: ut
  kind: city
  geo: {lat: 40.57171, lng: -111.84987}
- id: '4967660'
  slug: santa-clara
  name: Santa Clara
  state: ut
  kind: city
  geo: {lat: 37.1314, lng: -113.65665}
- id: '4967770'
  slug: santaquin
  name: Santaquin
  state: ut
  kind: city
  geo: {lat: 39.96989, lng: -111.79443}
- id: '4967825'
  slug: saratoga-springs
  name: Saratoga Springs
  state: ut
  kind: city
  geo: {lat: 40.34461, lng: -111.91589}
- id: '4967880'
  slug: scipio
  name: Scipio
  state: ut
  kind: town
  geo: {lat: 39.24908, lng: -112.10441}
- id: '4967990'
  slug: scofield
  name: Scofield
  state: ut
  kind: town
  geo: {lat: 39.71983, lng: -111.16226}
- id: '4968650'
  slug: sigurd
  name: Sigurd
  state: ut
  kind: town
  geo: {lat: 38.86622, lng: -111.96314}
- id: '4969280'
  slug: silver-summit
  name: Silver Summit
  state: ut
  kind: cdp
  geo: {lat: 40.74893, lng: -111.51391}
- id: '4969640'
  slug: smithfield
  name: Smithfield
  state: ut
  kind: city
  geo: {lat: 41.83547, lng: -111.82752}
- id: '4969970'
  slug: snowville
  name: Snowville
  state: ut
  kind: town
  geo: {lat: 41.97282, lng: -112.71641}
- id: '4970190'
  slug: snyderville
  name: Snyderville
  state: ut
  kind: cdp
  geo: {lat: 40.70412, lng: -111.54337}
- id: '4970850'
  slug: south-jordan
  name: South Jordan
  state: ut
  kind: city
  geo: {lat: 40.55501, lng: -111.99234}
- id: '4970960'
  slug: south-ogden
  name: South Ogden
  state: ut
  kind: city
  geo: {lat: 41.17223, lng: -111.95769}
- id: '4971070'
  slug: south-salt-lake
  name: South Salt Lake
  state: ut
  kind: city
  geo: {lat: 40.70565, lng: -111.89862}
- id: '4971180'
  slug: south-weber
  name: South Weber
  state: ut
  kind: city
  geo: {lat: 41.13467, lng: -111.94163}
- id: '4971255'
  slug: south-willard
  name: South Willard
  state: ut
  kind: cdp
  geo: {lat: 41.3623, lng: -112.04198}
- id: '4971290'
  slug: spanish-fork
  name: Spanish Fork
  state: ut
  kind: city
  geo: {lat: 40.11314, lng: -111.64291}
- id: '4971455'
  slug: spanish-valley
  name: Spanish Valley
  state: ut
  kind: cdp
  geo: {lat: 38.47426, lng: -109.42097}
- id: '4971730'
  slug: spring-city
  name: Spring City
  state: ut
  kind: city
  geo: {lat: 39.47983, lng: -111.49176}
- id: '4972060'
  slug: spring-glen
  name: Spring Glen
  state: ut
  kind: cdp
  geo: {lat: 39.65601, lng: -110.84608}
- id: '4972170'
  slug: spring-lake
  name: Spring Lake
  state: ut
  kind: cdp
  geo: {lat: 40.00853, lng: -111.75064}
- id: '4971840'
  slug: springdale
  name: Springdale
  state: ut
  kind: town
  geo: {lat: 37.18167, lng: -113.00501}
- id: '4972280'
  slug: springville
  name: Springville
  state: ut
  kind: city
  geo: {lat: 40.16427, lng: -111.61952}
- id: '4965330'
  slug: st-george
  name: St. George
  state: ut
  kind: city
  geo: {lat: 37.07701, lng: -113.57653}
- id: '4972720'
  slug: stansbury-park
  name: Stansbury Park
  state: ut
  kind: cdp
  geo: {lat: 40.63396, lng: -112.30637}
- id: '4972940'
  slug: sterling
  name: Sterling
  state: ut
  kind: town
  geo: {lat: 39.19332, lng: -111.6904}
- id: '4973050'
  slug: stockton
  name: Stockton
  state: ut
  kind: town
  geo: {lat: 40.44413, lng: -112.37442}
- id: '4974040'
  slug: summit
  name: Summit
  state: ut
  kind: cdp
  geo: {lat: 37.80534, lng: -112.93313}
- id: '4974095'
  slug: summit-park
  name: Summit Park
  state: ut
  kind: cdp
  geo: {lat: 40.74233, lng: -111.58724}
- id: '4974260'
  slug: sundance
  name: Sundance
  state: ut
  kind: cdp
  geo: {lat: 40.39272, lng: -111.59088}
- id: '4974480'
  slug: sunset
  name: Sunset
  state: ut
  kind: city
  geo: {lat: 41.13806, lng: -112.02839}
- id: '4974590'
  slug: sutherland
  name: Sutherland
  state: ut
  kind: cdp
  geo: {lat: 39.38958, lng: -112.63994}
- id: '4974810'
  slug: syracuse
  name: Syracuse
  state: ut
  kind: city
  geo: {lat: 41.08543, lng: -112.07167}
- id: '4974920'
  slug: tabiona
  name: Tabiona
  state: ut
  kind: town
  geo: {lat: 40.35422, lng: -110.70956}
- id: '4975360'
  slug: taylorsville
  name: Taylorsville
  state: ut
  kind: city
  geo: {lat: 40.65694, lng: -111.94933}
- id: '4975470'
  slug: teasdale
  name: Teasdale
  state: ut
  kind: cdp
  geo: {lat: 38.2851, lng: -111.47237}
- id: '4975800'
  slug: thatcher
  name: Thatcher
  state: ut
  kind: cdp
  geo: {lat: 41.68152, lng: -112.32004}
- id: '4976180'
  slug: thompson-springs
  name: Thompson Springs
  state: ut
  kind: cdp
  geo: {lat: 38.96357, lng: -109.70372}
- id: '4976280'
  slug: timber-lakes
  name: Timber Lakes
  state: ut
  kind: cdp
  geo: {lat: 40.47496, lng: -111.25584}
- id: '4976680'
  slug: tooele
  name: Tooele
  state: ut
  kind: city
  geo: {lat: 40.5394, lng: -112.30784}
- id: '4976900'
  slug: toquerville
  name: Toquerville
  state: ut
  kind: city
  geo: {lat: 37.26655, lng: -113.29514}
- id: '4977010'
  slug: torrey
  name: Torrey
  state: ut
  kind: town
  geo: {lat: 38.30734, lng: -111.42713}
- id: '4977120'
  slug: tremonton
  name: Tremonton
  state: ut
  kind: city
  geo: {lat: 41.71818, lng: -112.18772}
- id: '4977230'
  slug: trenton
  name: Trenton
  state: ut
  kind: town
  geo: {lat: 41.91388, lng: -111.93581}
- id: '4977560'
  slug: tropic
  name: Tropic
  state: ut
  kind: town
  geo: {lat: 37.63305, lng: -112.08796}
- id: '4977697'
  slug: tselakai-dezza
  name: Tselakai Dezza
  state: ut
  kind: cdp
  geo: {lat: 37.21, lng: -109.60909}
- id: '4977890'
  slug: uintah
  name: Uintah
  state: ut
  kind: town
  geo: {lat: 41.14136, lng: -111.93238}
- id: '4980090'
  slug: vernal
  name: Vernal
  state: ut
  kind: city
  geo: {lat: 40.45167, lng: -109.53808}
- id: '4980200'
  slug: vernon
  name: Vernon
  state: ut
  kind: town
  geo: {lat: 40.09559, lng: -112.44577}
- id: '4980310'
  slug: veyo
  name: Veyo
  state: ut
  kind: cdp
  geo: {lat: 37.3375, lng: -113.69303}
- id: '4980420'
  slug: vineyard
  name: Vineyard
  state: ut
  kind: town
  geo: {lat: 40.30506, lng: -111.75478}
- id: '4980530'
  slug: virgin
  name: Virgin
  state: ut
  kind: town
  geo: {lat: 37.19474, lng: -113.20554}
- id: '4980860'
  slug: wales
  name: Wales
  state: ut
  kind: town
  geo: {lat: 39.48518, lng: -111.63608}
- id: '4980970'
  slug: wallsburg
  name: Wallsburg
  state: ut
  kind: town
  geo: {lat: 40.38687, lng: -111.41946}
- id: '4981190'
  slug: wanship
  name: Wanship
  state: ut
  kind: cdp
  geo: {lat: 40.81676, lng: -111.41509}
- id: '4981960'
  slug: washington
  name: Washington
  state: ut
  kind: city
  geo: {lat: 37.12668, lng: -113.48776}
- id: '4982070'
  slug: washington-terrace
  name: Washington Terrace
  state: ut
  kind: city
  geo: {lat: 41.16832, lng: -111.97815}
- id: '4982510'
  slug: wellington
  name: Wellington
  state: ut
  kind: city
  geo: {lat: 39.53586, lng: -110.73437}
- id: '4982620'
  slug: wellsville
  name: Wellsville
  state: ut
  kind: city
  geo: {lat: 41.62342, lng: -111.94209}
- id: '4982730'
  slug: wendover
  name: Wendover
  state: ut
  kind: city
  geo: {lat: 40.72402, lng: -114.0251}
- id: '4982840'
  slug: west-bountiful
  name: West Bountiful
  state: ut
  kind: city
  geo: {lat: 40.90127, lng: -111.90845}
- id: '4982930'
  slug: west-haven
  name: West Haven
  state: ut
  kind: city
  geo: {lat: 41.20907, lng: -112.05361}
- id: '4982950'
  slug: west-jordan
  name: West Jordan
  state: ut
  kind: city
  geo: {lat: 40.60267, lng: -112.00126}
- id: '4983252'
  slug: west-mountain
  name: West Mountain
  state: ut
  kind: cdp
  geo: {lat: 40.05182, lng: -111.78335}
- id: '4983390'
  slug: west-point
  name: West Point
  state: ut
  kind: city
  geo: {lat: 41.12172, lng: -112.09822}
- id: '4983470'
  slug: west-valley-city
  name: West Valley City
  state: ut
  kind: city
  geo: {lat: 40.68849, lng: -112.01176}
- id: '4983730'
  slug: west-wood
  name: West Wood
  state: ut
  kind: cdp
  geo: {lat: 39.60516, lng: -110.84242}
- id: '4984050'
  slug: white-city
  name: White City
  state: ut
  kind: city
  geo: {lat: 40.56874, lng: -111.86264}
- id: '4984095'
  slug: white-mesa
  name: White Mesa
  state: ut
  kind: cdp
  geo: {lat: 37.45962, lng: -109.45996}
- id: '4984160'
  slug: whiterocks
  name: Whiterocks
  state: ut
  kind: cdp
  geo: {lat: 40.47215, lng: -109.94122}
- id: '4984710'
  slug: willard
  name: Willard
  state: ut
  kind: city
  geo: {lat: 41.40317, lng: -112.04254}
- id: '4984950'
  slug: wolf-creek
  name: Wolf Creek
  state: ut
  kind: cdp
  geo: {lat: 41.3253, lng: -111.82876}
- id: '4985040'
  slug: woodland
  name: Woodland
  state: ut
  kind: cdp
  geo: {lat: 40.5838, lng: -111.23576}
- id: '4985050'
  slug: woodland-hills
  name: Woodland Hills
  state: ut
  kind: city
  geo: {lat: 40.01337, lng: -111.656}
- id: '4985260'
  slug: woodruff
  name: Woodruff
  state: ut
  kind: town
  geo: {lat: 41.52118, lng: -111.16393}
- id: '4985370'
  slug: woods-cross
  name: Woods Cross
  state: ut
  kind: city
  geo: {lat: 40.87319, lng: -111.91777}
