- id: '5600245'
  slug: afton
  name: Afton
  state: wy
  kind: town
  geo: {lat: 42.72634, lng: -110.93203}
- id: '5600680'
  slug: albany
  name: Albany
  state: wy
  kind: cdp
  geo: {lat: 41.18686, lng: -106.12549}
- id: '5600825'
  slug: albin
  name: Albin
  state: wy
  kind: town
  geo: {lat: 41.41694, lng: -104.10155}
- id: '5601115'
  slug: alcova
  name: Alcova
  state: wy
  kind: cdp
  geo: {lat: 42.55333, lng: -106.72946}
- id: '5601695'
  slug: alpine
  name: Alpine
  state: wy
  kind: town
  geo: {lat: 43.17286, lng: -111.02088}
- id: '5601888'
  slug: alpine-northeast
  name: Alpine Northeast
  state: wy
  kind: cdp
  geo: {lat: 43.19379, lng: -111.00715}
- id: '5601936'
  slug: alpine-northwest
  name: Alpine Northwest
  state: wy
  kind: cdp
  geo: {lat: 43.18382, lng: -111.03558}
- id: '5601985'
  slug: alta
  name: Alta
  state: wy
  kind: cdp
  geo: {lat: 43.77362, lng: -111.03126}
- id: '5602877'
  slug: antelope-hills
  name: Antelope Hills
  state: wy
  kind: cdp
  geo: {lat: 43.08114, lng: -106.31258}
- id: '5603000'
  slug: arapahoe
  name: Arapahoe
  state: wy
  kind: cdp
  geo: {lat: 42.99257, lng: -108.45273}
- id: '5603245'
  slug: arlington
  name: Arlington
  state: wy
  kind: cdp
  geo: {lat: 41.60526, lng: -106.19974}
- id: '5603652'
  slug: arrowhead-springs
  name: Arrowhead Springs
  state: wy
  kind: cdp
  geo: {lat: 41.50817, lng: -109.15508}
- id: '5603725'
  slug: arvada
  name: Arvada
  state: wy
  kind: cdp
  geo: {lat: 44.66218, lng: -106.14198}
- id: '5604015'
  slug: atlantic-city
  name: Atlantic City
  state: wy
  kind: cdp
  geo: {lat: 42.5012, lng: -108.7329}
- id: '5604160'
  slug: auburn
  name: Auburn
  state: wy
  kind: cdp
  geo: {lat: 42.79694, lng: -111.02151}
- id: '5604740'
  slug: baggs
  name: Baggs
  state: wy
  kind: town
  geo: {lat: 41.03466, lng: -107.65728}
- id: '5604885'
  slug: bairoil
  name: Bairoil
  state: wy
  kind: town
  geo: {lat: 42.2372, lng: -107.56105}
- id: '5605245'
  slug: bar-nunn
  name: Bar Nunn
  state: wy
  kind: town
  geo: {lat: 42.92199, lng: -106.34743}
- id: '5605320'
  slug: basin
  name: Basin
  state: wy
  kind: town
  geo: {lat: 44.38056, lng: -108.04709}
- id: '5605625'
  slug: bear-river
  name: Bear River
  state: wy
  kind: town
  geo: {lat: 41.38551, lng: -111.0282}
- id: '5606045'
  slug: bedford
  name: Bedford
  state: wy
  kind: cdp
  geo: {lat: 42.89468, lng: -110.92857}
- id: '5606407'
  slug: bessemer-bend
  name: Bessemer Bend
  state: wy
  kind: cdp
  geo: {lat: 42.75612, lng: -106.51752}
- id: '5606480'
  slug: beulah
  name: Beulah
  state: wy
  kind: cdp
  geo: {lat: 44.54596, lng: -104.08279}
- id: '5606770'
  slug: big-horn
  name: Big Horn
  state: wy
  kind: cdp
  geo: {lat: 44.67908, lng: -106.99707}
- id: '5607060'
  slug: big-piney
  name: Big Piney
  state: wy
  kind: town
  geo: {lat: 42.54017, lng: -110.11934}
- id: '5608365'
  slug: bondurant
  name: Bondurant
  state: wy
  kind: cdp
  geo: {lat: 43.19486, lng: -110.40258}
- id: '5609235'
  slug: boulder
  name: Boulder
  state: wy
  kind: cdp
  geo: {lat: 42.74614, lng: -109.70673}
- id: '5609307'
  slug: boulder-flats
  name: Boulder Flats
  state: wy
  kind: cdp
  geo: {lat: 42.91557, lng: -108.7993}
- id: '5610175'
  slug: brookhurst
  name: Brookhurst
  state: wy
  kind: cdp
  geo: {lat: 42.86098, lng: -106.22879}
- id: '5610685'
  slug: buffalo
  name: Buffalo
  state: wy
  kind: city
  geo: {lat: 44.33855, lng: -106.71534}
- id: '5611120'
  slug: burlington
  name: Burlington
  state: wy
  kind: town
  geo: {lat: 44.44707, lng: -108.43202}
- id: '5611265'
  slug: burns
  name: Burns
  state: wy
  kind: town
  geo: {lat: 41.19087, lng: -104.35904}
- id: '5611700'
  slug: byron
  name: Byron
  state: wy
  kind: town
  geo: {lat: 44.79674, lng: -108.50846}
- id: '5612860'
  slug: carpenter
  name: Carpenter
  state: wy
  kind: cdp
  geo: {lat: 41.04561, lng: -104.36437}
- id: '5613005'
  slug: carter
  name: Carter
  state: wy
  kind: cdp
  geo: {lat: 41.44044, lng: -110.43033}
- id: '5613150'
  slug: casper
  name: Casper
  state: wy
  kind: city
  geo: {lat: 42.84212, lng: -106.32128}
- id: '5613222'
  slug: casper-mountain
  name: Casper Mountain
  state: wy
  kind: cdp
  geo: {lat: 42.74155, lng: -106.30815}
- id: '5613440'
  slug: centennial
  name: Centennial
  state: wy
  kind: cdp
  geo: {lat: 41.30684, lng: -106.13761}
- id: '5613900'
  slug: cheyenne
  name: Cheyenne
  state: wy
  kind: city
  geo: {lat: 41.12828, lng: -104.79915}
- id: '5614097'
  slug: chugcreek
  name: Chugcreek
  state: wy
  kind: cdp
  geo: {lat: 42.05347, lng: -104.9079}
- id: '5614165'
  slug: chugwater
  name: Chugwater
  state: wy
  kind: town
  geo: {lat: 41.75575, lng: -104.82294}
- id: '5615325'
  slug: clearmont
  name: Clearmont
  state: wy
  kind: town
  geo: {lat: 44.63985, lng: -106.3813}
- id: '5615400'
  slug: clearview-acres
  name: Clearview Acres
  state: wy
  kind: cdp
  geo: {lat: 41.5842, lng: -109.28003}
- id: '5615760'
  slug: cody
  name: Cody
  state: wy
  kind: city
  geo: {lat: 44.52124, lng: -109.05747}
- id: '5615905'
  slug: cokeville
  name: Cokeville
  state: wy
  kind: town
  geo: {lat: 42.07924, lng: -110.9519}
- id: '5617210'
  slug: cora
  name: Cora
  state: wy
  kind: cdp
  geo: {lat: 42.95766, lng: -109.99159}
- id: '5617645'
  slug: cowley
  name: Cowley
  state: wy
  kind: town
  geo: {lat: 44.88345, lng: -108.46927}
- id: '5618225'
  slug: crowheart
  name: Crowheart
  state: wy
  kind: cdp
  geo: {lat: 43.33978, lng: -109.22976}
- id: '5618950'
  slug: daniel
  name: Daniel
  state: wy
  kind: cdp
  geo: {lat: 42.86574, lng: -110.07647}
- id: '5619385'
  slug: dayton
  name: Dayton
  state: wy
  kind: town
  geo: {lat: 44.87335, lng: -107.26243}
- id: '5619530'
  slug: deaver
  name: Deaver
  state: wy
  kind: town
  geo: {lat: 44.88902, lng: -108.59602}
- id: '5620110'
  slug: diamondville
  name: Diamondville
  state: wy
  kind: town
  geo: {lat: 41.77782, lng: -110.53651}
- id: '5620690'
  slug: dixon
  name: Dixon
  state: wy
  kind: town
  geo: {lat: 41.0349, lng: -107.53614}
- id: '5621125'
  slug: douglas
  name: Douglas
  state: wy
  kind: city
  geo: {lat: 42.75477, lng: -105.3978}
- id: '5621415'
  slug: dubois
  name: Dubois
  state: wy
  kind: town
  geo: {lat: 43.54596, lng: -109.64763}
- id: '5622720'
  slug: east-thermopolis
  name: East Thermopolis
  state: wy
  kind: town
  geo: {lat: 43.64409, lng: -108.19788}
- id: '5623010'
  slug: eden
  name: Eden
  state: wy
  kind: cdp
  geo: {lat: 42.06016, lng: -109.43915}
- id: '5623155'
  slug: edgerton
  name: Edgerton
  state: wy
  kind: town
  geo: {lat: 43.41339, lng: -106.24736}
- id: '5624350'
  slug: el-rancho
  name: El Rancho
  state: wy
  kind: cdp
  geo: {lat: 42.26798, lng: -105.04767}
- id: '5624025'
  slug: elk-mountain
  name: Elk Mountain
  state: wy
  kind: town
  geo: {lat: 41.6883, lng: -106.4135}
- id: '5624750'
  slug: encampment
  name: Encampment
  state: wy
  kind: town
  geo: {lat: 41.20876, lng: -106.79482}
- id: '5625185'
  slug: esterbrook
  name: Esterbrook
  state: wy
  kind: cdp
  geo: {lat: 42.40611, lng: -105.38591}
- id: '5625330'
  slug: ethete
  name: Ethete
  state: wy
  kind: cdp
  geo: {lat: 43.00083, lng: -108.72303}
- id: '5625475'
  slug: etna
  name: Etna
  state: wy
  kind: cdp
  geo: {lat: 43.03343, lng: -111.01295}
- id: '5625620'
  slug: evanston
  name: Evanston
  state: wy
  kind: city
  geo: {lat: 41.26009, lng: -110.96374}
- id: '5625765'
  slug: evansville
  name: Evansville
  state: wy
  kind: town
  geo: {lat: 42.87599, lng: -106.26775}
- id: '5625910'
  slug: fairview
  name: Fairview
  state: wy
  kind: cdp
  geo: {lat: 42.68708, lng: -110.98663}
- id: '5626055'
  slug: farson
  name: Farson
  state: wy
  kind: cdp
  geo: {lat: 42.15442, lng: -109.4248}
- id: '5627650'
  slug: fontenelle
  name: Fontenelle
  state: wy
  kind: cdp
  geo: {lat: 42.00326, lng: -110.06219}
- id: '5627940'
  slug: fort-bridger
  name: Fort Bridger
  state: wy
  kind: cdp
  geo: {lat: 41.31833, lng: -110.38939}
- id: '5628230'
  slug: fort-laramie
  name: Fort Laramie
  state: wy
  kind: town
  geo: {lat: 42.21308, lng: -104.5174}
- id: '5628665'
  slug: fort-washakie
  name: Fort Washakie
  state: wy
  kind: cdp
  geo: {lat: 43.00691, lng: -108.92042}
- id: '5629300'
  slug: fox-farm-college
  name: Fox Farm-College
  state: wy
  kind: cdp
  geo: {lat: 41.11055, lng: -104.78696}
- id: '5629400'
  slug: fox-park
  name: Fox Park
  state: wy
  kind: cdp
  geo: {lat: 41.08013, lng: -106.15339}
- id: '5629825'
  slug: frannie
  name: Frannie
  state: wy
  kind: town
  geo: {lat: 44.97103, lng: -108.62054}
- id: '5630115'
  slug: freedom
  name: Freedom
  state: wy
  kind: cdp
  geo: {lat: 42.98534, lng: -111.02961}
- id: '5630985'
  slug: garland
  name: Garland
  state: wy
  kind: cdp
  geo: {lat: 44.77772, lng: -108.65416}
- id: '5631855'
  slug: gillette
  name: Gillette
  state: wy
  kind: city
  geo: {lat: 44.27258, lng: -105.49894}
- id: '5632290'
  slug: glendo
  name: Glendo
  state: wy
  kind: town
  geo: {lat: 42.50486, lng: -105.02499}
- id: '5632435'
  slug: glenrock
  name: Glenrock
  state: wy
  kind: town
  geo: {lat: 42.85946, lng: -105.84504}
- id: '5632870'
  slug: granger
  name: Granger
  state: wy
  kind: town
  geo: {lat: 41.59793, lng: -109.96523}
- id: '5633740'
  slug: green-river
  name: Green River
  state: wy
  kind: city
  geo: {lat: 41.51292, lng: -109.4708}
- id: '5633885'
  slug: greybull
  name: Greybull
  state: wy
  kind: town
  geo: {lat: 44.48653, lng: -108.05574}
- id: '5634030'
  slug: grover
  name: Grover
  state: wy
  kind: cdp
  geo: {lat: 42.80199, lng: -110.94054}
- id: '5634320'
  slug: guernsey
  name: Guernsey
  state: wy
  kind: town
  geo: {lat: 42.26479, lng: -104.74289}
- id: '5635335'
  slug: hanna
  name: Hanna
  state: wy
  kind: town
  geo: {lat: 41.8698, lng: -106.55964}
- id: '5635552'
  slug: hartrandt
  name: Hartrandt
  state: wy
  kind: cdp
  geo: {lat: 42.88358, lng: -106.34922}
- id: '5635625'
  slug: hartville
  name: Hartville
  state: wy
  kind: town
  geo: {lat: 42.32763, lng: -104.7245}
- id: '5636060'
  slug: hawk-springs
  name: Hawk Springs
  state: wy
  kind: cdp
  geo: {lat: 41.78525, lng: -104.26508}
- id: '5637727'
  slug: hill-view-heights
  name: Hill View Heights
  state: wy
  kind: cdp
  geo: {lat: 43.81457, lng: -104.15066}
- id: '5637510'
  slug: hillsdale
  name: Hillsdale
  state: wy
  kind: cdp
  geo: {lat: 41.20798, lng: -104.47439}
- id: '5637945'
  slug: hoback
  name: Hoback
  state: wy
  kind: cdp
  geo: {lat: 43.30763, lng: -110.74487}
- id: '5638307'
  slug: homa-hills
  name: Homa Hills
  state: wy
  kind: cdp
  geo: {lat: 42.99002, lng: -106.38499}
- id: '5638960'
  slug: hudson
  name: Hudson
  state: wy
  kind: town
  geo: {lat: 42.90269, lng: -108.58204}
- id: '5639105'
  slug: hulett
  name: Hulett
  state: wy
  kind: town
  geo: {lat: 44.68324, lng: -104.59818}
- id: '5639250'
  slug: huntley
  name: Huntley
  state: wy
  kind: cdp
  geo: {lat: 41.93162, lng: -104.14401}
- id: '5639395'
  slug: hyattville
  name: Hyattville
  state: wy
  kind: cdp
  geo: {lat: 44.24978, lng: -107.61496}
- id: '5640120'
  slug: jackson
  name: Jackson
  state: wy
  kind: town
  geo: {lat: 43.47194, lng: -110.77527}
- id: '5640265'
  slug: james-town
  name: James Town
  state: wy
  kind: cdp
  geo: {lat: 41.56397, lng: -109.5365}
- id: '5640555'
  slug: jeffrey-city
  name: Jeffrey City
  state: wy
  kind: cdp
  geo: {lat: 42.48304, lng: -107.82913}
- id: '5640945'
  slug: johnstown
  name: Johnstown
  state: wy
  kind: cdp
  geo: {lat: 43.11383, lng: -108.68995}
- id: '5641353'
  slug: kaycee
  name: Kaycee
  state: wy
  kind: town
  geo: {lat: 43.71004, lng: -106.63728}
- id: '5641860'
  slug: kelly
  name: Kelly
  state: wy
  kind: cdp
  geo: {lat: 43.6219, lng: -110.63205}
- id: '5642005'
  slug: kemmerer
  name: Kemmerer
  state: wy
  kind: city
  geo: {lat: 41.77848, lng: -110.55282}
- id: '5642730'
  slug: kirby
  name: Kirby
  state: wy
  kind: town
  geo: {lat: 43.80328, lng: -108.18097}
- id: '5643455'
  slug: la-barge
  name: La Barge
  state: wy
  kind: town
  geo: {lat: 42.26078, lng: -110.1972}
- id: '5643745'
  slug: lagrange
  name: LaGrange
  state: wy
  kind: town
  geo: {lat: 41.63857, lng: -104.163}
- id: '5644252'
  slug: lakeview-north
  name: Lakeview North
  state: wy
  kind: cdp
  geo: {lat: 42.09698, lng: -104.95862}
- id: '5644615'
  slug: lance-creek
  name: Lance Creek
  state: wy
  kind: cdp
  geo: {lat: 43.04474, lng: -104.66384}
- id: '5644760'
  slug: lander
  name: Lander
  state: wy
  kind: city
  geo: {lat: 42.8309, lng: -108.73062}
- id: '5645050'
  slug: laramie
  name: Laramie
  state: wy
  kind: city
  geo: {lat: 41.31154, lng: -105.60688}
- id: '5646790'
  slug: lingle
  name: Lingle
  state: wy
  kind: town
  geo: {lat: 42.13867, lng: -104.34604}
- id: '5646935'
  slug: little-america
  name: Little America
  state: wy
  kind: cdp
  geo: {lat: 41.54936, lng: -109.88488}
- id: '5647370'
  slug: lonetree
  name: Lonetree
  state: wy
  kind: cdp
  geo: {lat: 41.0344, lng: -110.14405}
- id: '5647805'
  slug: lost-springs
  name: Lost Springs
  state: wy
  kind: town
  geo: {lat: 42.76517, lng: -104.92549}
- id: '5647950'
  slug: lovell
  name: Lovell
  state: wy
  kind: town
  geo: {lat: 44.8358, lng: -108.39189}
- id: '5648240'
  slug: lucerne
  name: Lucerne
  state: wy
  kind: cdp
  geo: {lat: 43.71802, lng: -108.18471}
- id: '5648530'
  slug: lusk
  name: Lusk
  state: wy
  kind: town
  geo: {lat: 42.76126, lng: -104.4584}
- id: '5648675'
  slug: lyman
  name: Lyman
  state: wy
  kind: town
  geo: {lat: 41.32754, lng: -110.29745}
- id: '5649775'
  slug: mammoth
  name: Mammoth
  state: wy
  kind: cdp
  geo: {lat: 44.97321, lng: -110.69294}
- id: '5649980'
  slug: manderson
  name: Manderson
  state: wy
  kind: town
  geo: {lat: 44.26976, lng: -107.9642}
- id: '5650270'
  slug: manville
  name: Manville
  state: wy
  kind: town
  geo: {lat: 42.77945, lng: -104.61745}
- id: '5650415'
  slug: marbleton
  name: Marbleton
  state: wy
  kind: town
  geo: {lat: 42.55741, lng: -110.10046}
- id: '5649400'
  slug: mckinnon
  name: McKinnon
  state: wy
  kind: cdp
  geo: {lat: 41.03144, lng: -109.9383}
- id: '5651285'
  slug: meadow-acres
  name: Meadow Acres
  state: wy
  kind: cdp
  geo: {lat: 42.85935, lng: -106.09462}
- id: '5651575'
  slug: medicine-bow
  name: Medicine Bow
  state: wy
  kind: town
  geo: {lat: 41.89954, lng: -106.20192}
- id: '5651720'
  slug: meeteetse
  name: Meeteetse
  state: wy
  kind: town
  geo: {lat: 44.14939, lng: -108.86324}
- id: '5652445'
  slug: midwest
  name: Midwest
  state: wy
  kind: town
  geo: {lat: 43.41077, lng: -106.27729}
- id: '5653460'
  slug: mills
  name: Mills
  state: wy
  kind: town
  geo: {lat: 42.84988, lng: -106.39083}
- id: '5654185'
  slug: moorcroft
  name: Moorcroft
  state: wy
  kind: town
  geo: {lat: 44.26448, lng: -104.94756}
- id: '5654402'
  slug: moose-wilson-road
  name: Moose Wilson Road
  state: wy
  kind: cdp
  geo: {lat: 43.53149, lng: -110.83483}
- id: '5655200'
  slug: mountain-view-5200
  name: Mountain View
  state: wy
  kind: cdp
  geo: {lat: 42.87744, lng: -106.41467}
- id: '5655345'
  slug: mountain-view-5345
  name: Mountain View
  state: wy
  kind: town
  geo: {lat: 41.27235, lng: -110.33407}
- id: '5656215'
  slug: newcastle
  name: Newcastle
  state: wy
  kind: city
  geo: {lat: 43.85027, lng: -104.19649}
- id: '5656520'
  slug: nordic
  name: Nordic
  state: wy
  kind: cdp
  geo: {lat: 43.07932, lng: -110.99132}
- id: '5656700'
  slug: north-rock-springs
  name: North Rock Springs
  state: wy
  kind: cdp
  geo: {lat: 41.66907, lng: -109.28793}
- id: '5657375'
  slug: oakley
  name: Oakley
  state: wy
  kind: cdp
  geo: {lat: 41.75097, lng: -110.52611}
- id: '5657810'
  slug: opal
  name: Opal
  state: wy
  kind: town
  geo: {lat: 41.76792, lng: -110.32439}
- id: '5658100'
  slug: orin
  name: Orin
  state: wy
  kind: cdp
  geo: {lat: 42.65163, lng: -105.17764}
- id: '5658680'
  slug: osage
  name: Osage
  state: wy
  kind: cdp
  geo: {lat: 43.98482, lng: -104.43465}
- id: '5658970'
  slug: osmond
  name: Osmond
  state: wy
  kind: cdp
  geo: {lat: 42.67771, lng: -110.94076}
- id: '5659332'
  slug: owl-creek
  name: Owl Creek
  state: wy
  kind: cdp
  geo: {lat: 43.78187, lng: -108.56782}
- id: '5659985'
  slug: parkman
  name: Parkman
  state: wy
  kind: cdp
  geo: {lat: 44.95709, lng: -107.31346}
- id: '5660130'
  slug: pavillion
  name: Pavillion
  state: wy
  kind: town
  geo: {lat: 43.24401, lng: -108.68902}
- id: '5661435'
  slug: pine-bluffs
  name: Pine Bluffs
  state: wy
  kind: town
  geo: {lat: 41.18021, lng: -104.07478}
- id: '5661610'
  slug: pine-haven
  name: Pine Haven
  state: wy
  kind: town
  geo: {lat: 44.35339, lng: -104.81045}
- id: '5661580'
  slug: pinedale
  name: Pinedale
  state: wy
  kind: town
  geo: {lat: 42.86758, lng: -109.87053}
- id: '5662160'
  slug: point-of-rocks
  name: Point of Rocks
  state: wy
  kind: cdp
  geo: {lat: 41.68316, lng: -108.77562}
- id: '5662269'
  slug: powder-horn
  name: Powder Horn
  state: wy
  kind: cdp
  geo: {lat: 44.6912, lng: -106.97272}
- id: '5662305'
  slug: powder-river
  name: Powder River
  state: wy
  kind: cdp
  geo: {lat: 43.05212, lng: -106.99057}
- id: '5662450'
  slug: powell
  name: Powell
  state: wy
  kind: city
  geo: {lat: 44.76178, lng: -108.75758}
- id: '5662812'
  slug: purple-sage
  name: Purple Sage
  state: wy
  kind: cdp
  geo: {lat: 41.5514, lng: -109.3199}
- id: '5663100'
  slug: rafter-j-ranch
  name: Rafter J Ranch
  state: wy
  kind: cdp
  geo: {lat: 43.43051, lng: -110.79146}
- id: '5663465'
  slug: ralston
  name: Ralston
  state: wy
  kind: cdp
  geo: {lat: 44.70676, lng: -108.88563}
- id: '5663755'
  slug: ranchester
  name: Ranchester
  state: wy
  kind: town
  geo: {lat: 44.9076, lng: -107.16732}
- id: '5663800'
  slug: ranchettes
  name: Ranchettes
  state: wy
  kind: cdp
  geo: {lat: 41.21895, lng: -104.77293}
- id: '5663900'
  slug: rawlins
  name: Rawlins
  state: wy
  kind: city
  geo: {lat: 41.78513, lng: -107.22465}
- id: '5664400'
  slug: red-butte
  name: Red Butte
  state: wy
  kind: cdp
  geo: {lat: 42.8062, lng: -106.43462}
- id: '5665060'
  slug: reliance
  name: Reliance
  state: wy
  kind: cdp
  geo: {lat: 41.66819, lng: -109.19769}
- id: '5666075'
  slug: riverside
  name: Riverside
  state: wy
  kind: town
  geo: {lat: 41.21541, lng: -106.78134}
- id: '5666220'
  slug: riverton
  name: Riverton
  state: wy
  kind: city
  geo: {lat: 43.02626, lng: -108.3813}
- id: '5666655'
  slug: robertson
  name: Robertson
  state: wy
  kind: cdp
  geo: {lat: 41.18157, lng: -110.42739}
- id: '5667090'
  slug: rock-river
  name: Rock River
  state: wy
  kind: town
  geo: {lat: 41.73174, lng: -105.97515}
- id: '5667235'
  slug: rock-springs
  name: Rock Springs
  state: wy
  kind: city
  geo: {lat: 41.5947, lng: -109.22092}
- id: '5667440'
  slug: rolling-hills
  name: Rolling Hills
  state: wy
  kind: town
  geo: {lat: 42.90381, lng: -105.84454}
- id: '5667670'
  slug: ryan-park
  name: Ryan Park
  state: wy
  kind: cdp
  geo: {lat: 41.31315, lng: -106.48961}
- id: '5668685'
  slug: saratoga
  name: Saratoga
  state: wy
  kind: town
  geo: {lat: 41.45239, lng: -106.81173}
- id: '5669700'
  slug: shell
  name: Shell
  state: wy
  kind: cdp
  geo: {lat: 44.53452, lng: -107.78448}
- id: '5669845'
  slug: sheridan
  name: Sheridan
  state: wy
  kind: city
  geo: {lat: 44.79622, lng: -106.96417}
- id: '5670570'
  slug: shoshoni
  name: Shoshoni
  state: wy
  kind: town
  geo: {lat: 43.23953, lng: -108.10988}
- id: '5671150'
  slug: sinclair
  name: Sinclair
  state: wy
  kind: town
  geo: {lat: 41.77608, lng: -107.11994}
- id: '5671295'
  slug: slater
  name: Slater
  state: wy
  kind: cdp
  geo: {lat: 41.87763, lng: -104.78871}
- id: '5671350'
  slug: sleepy-hollow
  name: Sleepy Hollow
  state: wy
  kind: cdp
  geo: {lat: 44.23269, lng: -105.4309}
- id: '5671440'
  slug: smoot
  name: Smoot
  state: wy
  kind: cdp
  geo: {lat: 42.61839, lng: -110.91549}
- id: '5671800'
  slug: south-greeley
  name: South Greeley
  state: wy
  kind: cdp
  geo: {lat: 41.09315, lng: -104.80662}
- id: '5671947'
  slug: south-park
  name: South Park
  state: wy
  kind: cdp
  geo: {lat: 43.4255, lng: -110.79855}
- id: '5673180'
  slug: star-valley-ranch
  name: Star Valley Ranch
  state: wy
  kind: town
  geo: {lat: 42.97969, lng: -110.96352}
- id: '5673615'
  slug: story
  name: Story
  state: wy
  kind: cdp
  geo: {lat: 44.57308, lng: -106.91417}
- id: '5674195'
  slug: sundance
  name: Sundance
  state: wy
  kind: town
  geo: {lat: 44.40482, lng: -104.36621}
- id: '5674775'
  slug: superior
  name: Superior
  state: wy
  kind: town
  geo: {lat: 41.75951, lng: -108.96424}
- id: '5675355'
  slug: table-rock
  name: Table Rock
  state: wy
  kind: cdp
  geo: {lat: 41.62204, lng: -108.40404}
- id: '5675572'
  slug: taylor
  name: Taylor
  state: wy
  kind: cdp
  geo: {lat: 42.0692, lng: -110.98631}
- id: '5675790'
  slug: ten-sleep
  name: Ten Sleep
  state: wy
  kind: town
  geo: {lat: 44.03508, lng: -107.44819}
- id: '5675935'
  slug: teton-village
  name: Teton Village
  state: wy
  kind: cdp
  geo: {lat: 43.59068, lng: -110.84198}
- id: '5676370'
  slug: thayne
  name: Thayne
  state: wy
  kind: town
  geo: {lat: 42.91989, lng: -110.99526}
- id: '5676515'
  slug: thermopolis
  name: Thermopolis
  state: wy
  kind: town
  geo: {lat: 43.64762, lng: -108.21454}
- id: '5677530'
  slug: torrington
  name: Torrington
  state: wy
  kind: city
  geo: {lat: 42.06307, lng: -104.17298}
- id: '5678400'
  slug: turnerville
  name: Turnerville
  state: wy
  kind: cdp
  geo: {lat: 42.86242, lng: -110.90073}
- id: '5679125'
  slug: upton
  name: Upton
  state: wy
  kind: town
  geo: {lat: 44.10402, lng: -104.63654}
- id: '5679270'
  slug: urie
  name: Urie
  state: wy
  kind: cdp
  geo: {lat: 41.30886, lng: -110.3352}
- id: '5679705'
  slug: van-tassell
  name: Van Tassell
  state: wy
  kind: town
  geo: {lat: 42.66428, lng: -104.09133}
- id: '5680285'
  slug: veteran
  name: Veteran
  state: wy
  kind: cdp
  geo: {lat: 41.96267, lng: -104.38625}
- id: '5680575'
  slug: vista-west
  name: Vista West
  state: wy
  kind: cdp
  geo: {lat: 42.86236, lng: -106.43671}
- id: '5681300'
  slug: wamsutter
  name: Wamsutter
  state: wy
  kind: town
  geo: {lat: 41.66798, lng: -107.97914}
- id: '5681640'
  slug: warren-afb
  name: Warren AFB
  state: wy
  kind: cdp
  geo: {lat: 41.14705, lng: -104.86163}
- id: '5681703'
  slug: washam
  name: Washam
  state: wy
  kind: cdp
  geo: {lat: 41.0056, lng: -109.69913}
- id: '5682967'
  slug: westview-circle
  name: Westview Circle
  state: wy
  kind: cdp
  geo: {lat: 42.06164, lng: -105.06758}
- id: '5683040'
  slug: wheatland
  name: Wheatland
  state: wy
  kind: town
  geo: {lat: 42.05171, lng: -104.95947}
- id: '5683100'
  slug: whiting
  name: Whiting
  state: wy
  kind: cdp
  geo: {lat: 42.00888, lng: -104.97105}
- id: '5683765'
  slug: wilson
  name: Wilson
  state: wy
  kind: cdp
  geo: {lat: 43.47523, lng: -110.91454}
- id: '5684852'
  slug: woods-landing-jelm
  name: Woods Landing-Jelm
  state: wy
  kind: cdp
  geo: {lat: 41.10146, lng: -106.0288}
- id: '5684925'
  slug: worland
  name: Worland
  state: wy
  kind: city
  geo: {lat: 44.0204, lng: -107.96165}
- id: '5685015'
  slug: wright
  name: Wright
  state: wy
  kind: town
  geo: {lat: 43.74915, lng: -105.49483}
- id: '5686737'
  slug: y-o-ranch
  name: Y-O Ranch
  state: wy
  kind: cdp
  geo: {lat: 42.03516, lng: -104.92297}
- id: '5686665'
  slug: yoder
  name: Yoder
  state: wy
  kind: town
  geo: {lat: 41.91698, lng: -104.29539}
