- id: sc/bamberg/bamberg-ehrhardt-midddle
  name: Bamberg Ehrhardt Midddle
  categories:
  - meal-program
  address: {street: 897 North Street, city: Bamberg, state: sc, zip: '29003'}
  description: Free summer meals for kids and teens (2026 season) — sponsored by Bamberg County SchoolDis..
  place: '4503790'
  geo: {lat: 33.30241, lng: -81.03129}
  phone: (803) 245-3058
  external_ids: {usda_master: Cycle 06_SC_SSO_0095}
  sources:
  - usda/summer-meal-sites
  verified: {'on': '2026-07-19', method: api}
- id: sc/bamberg/bamberg-head-start-center
  name: BAMBERG HEAD START CENTER
  categories:
  - child-care
  address:
    street: 211 Zeigler St
    city: Bamberg
    state: sc
    zip: '29003'
  place: '4503790'
  geo:
    lat: 33.30257
    lng: -81.04037
  phone: 803-245-5521
  sources:
  - acf/head-start-locations
  verified:
    'on': '2026-07-19'
    method: api
- id: sc/bamberg/bamberg-specialty-services
  name: Bamberg Specialty Services
  categories:
  - community-health-center
  cost: sliding-scale
  address:
    street: 185 McGee St
    city: Bamberg
    state: sc
    zip: '29003'
  place: '4503790'
  geo:
    lat: 33.30719
    lng: -81.03043
  phone: 803-956-6100
  website: https://www.lowcountryhealthcaresystem.com
  external_ids:
    bphc: BPS-H80-027897
  sources:
  - hrsa/health-center-sites
  verified:
    'on': '2026-07-19'
    method: api
- id: sc/bamberg/low-country-health-care-system-inc-dba-padgett-f
  name: Low Country Health Care System, Inc. dba Padgett Family Practice
  categories:
  - community-health-center
  cost: sliding-scale
  address:
    street: 526 North St
    city: Bamberg
    state: sc
    zip: '29003'
  place: '4503790'
  geo:
    lat: 33.30755
    lng: -81.02945
  phone: 803-245-2433
  external_ids:
    bphc: BPS-H80-022082
  sources:
  - hrsa/health-center-sites
  verified:
    'on': '2026-07-19'
    method: api
- id: sc/bamberg/michael-c-watson-treatment-facility
  name: Michael C Watson Treatment Facility
  categories:
  - su-treatment
  - mh-treatment
  address:
    street: 2549 Main Highway
    city: Bamberg
    state: sc
    zip: '29003'
  place: '4503790'
  geo:
    lat: 33.30397
    lng: -81.03331
  phone: 803-245-4360
  website: https://www.tccada.com
  services:
  - Outpatient
  - Clients with co-occurring mental and substance use disorders
  cost: sliding-scale
  sources:
  - samhsa/findtreatment
  verified:
    'on': '2026-07-19'
    method: api
- id: sc/bamberg/mount-carmel-umc
  name: Mount Carmel Umc
  categories:
  - meal-program
  address: {street: 12457 Heritage Hny, city: Bamberg, state: sc, zip: '29003'}
  description: Free summer meals for kids and teens (2026 season) — sponsored by Smart Box.
  place: '4503790'
  geo: {lat: 33.29886, lng: -81.04203}
  phone: (803) 508-5837
  external_ids: {usda_master: Cycle 04_SC_SFSP_0616}
  sources:
  - usda/summer-meal-sites
  verified: {'on': '2026-07-19', method: api}
- id: sc/bamberg/orangeburg-umc
  name: Orangeburg Umc
  categories:
  - meal-program
  address: {street: 3950 Orangeburg Road, city: Bamberg, state: sc, zip: '29003'}
  description: Free summer meals for kids and teens (2026 season) — sponsored by Smart Box.
  place: '4503790'
  geo: {lat: 33.28625, lng: -81.03413}
  phone: (803) 508-5837
  external_ids: {usda_master: Cycle 04_SC_SFSP_0618}
  sources:
  - usda/summer-meal-sites
  verified: {'on': '2026-07-19', method: api}
- id: sc/bamberg/richard-carroll-elementary-open
  name: Richard Carroll Elementary Open
  categories:
  - meal-program
  address: {street: 1180 Main Hwy, city: Bamberg, state: sc, zip: '29003'}
  description: Free summer meals for kids and teens (2026 season) — sponsored by Bamberg County School
    Dis..
  place: '4503790'
  geo: {lat: 33.32212, lng: -81.02949}
  phone: (803) 245-2517
  external_ids: {usda_master: Cycle 06_SC_SSO_0094}
  sources:
  - usda/summer-meal-sites
  verified: {'on': '2026-07-19', method: api}
- id: sc/bamberg/st-john-baptist-church
  name: St. John Baptist Church
  categories:
  - meal-program
  address: {street: 204 Weimer Street, city: Bamberg, state: sc, zip: '29003'}
  description: Free summer meals for kids and teens (2026 season) — sponsored by Smart Box.
  place: '4503790'
  geo: {lat: 33.29374, lng: -81.03997}
  phone: (803) 508-5837
  external_ids: {usda_master: Cycle 06_SC_SFSP_1136}
  sources:
  - usda/summer-meal-sites
  verified: {'on': '2026-07-19', method: api}
