- id: sc/florence/chrysalis-center
  name: Chrysalis Center
  categories:
  - su-treatment
  address:
    street: 1430 South Cashua Drive
    city: Florence
    state: sc
    zip: '29501'
  place: '4525810'
  geo:
    lat: 34.16684
    lng: -79.82527
  phone: 843-673-0660
  website: https://www.circlepark.com
  sources:
  - samhsa/findtreatment
  verified:
    'on': '2026-07-19'
    method: api
- id: sc/florence/circle-park-behavioral-health-services-florence
  name: Circle Park Behavioral Health Services Florence Cnty Commission on AODA
  categories:
  - su-treatment
  - mh-treatment
  address:
    street: 238 South Coit Street
    city: Florence
    state: sc
    zip: '29501'
  place: '4525810'
  geo:
    lat: 34.19456
    lng: -79.76997
  phone: 843-665-9349
  website: https://www.circlepark.com
  sources:
  - samhsa/findtreatment
  verified:
    'on': '2026-07-19'
    method: api
- id: sc/florence/fdtc-hs-ehs-center
  name: FDTC HS & EHS CENTER
  categories:
  - child-care
  address:
    street: 2715 W Lucas St
    city: Florence
    state: sc
    zip: '29501'
  place: '4525810'
  geo:
    lat: 34.24461
    lng: -79.81586
  phone: 843-676-8525
  sources:
  - acf/head-start-locations
  verified:
    'on': '2026-07-19'
    method: api
- id: sc/florence/florence-treatment-specialists
  name: Florence Treatment Specialists
  categories:
  - su-treatment
  address:
    street: 1591 South Irby Street
    city: Florence
    state: sc
    zip: '29505'
  place: '4525810'
  geo:
    lat: 34.16486
    lng: -79.76562
  phone: 843-206-0840
  website: https://florencetreatmentspecialists.com
  sources:
  - samhsa/findtreatment
  verified:
    'on': '2026-07-19'
    method: api
- id: sc/florence/genesis-healthcare-inc-dba-genesis-healthcare-fl
  name: Genesis Healthcare, Inc. dba Genesis Healthcare Florence
  categories:
  - community-health-center
  address:
    street: 1523 Heritage Ln
    city: Florence
    state: sc
    zip: '29505'
  place: '4525810'
  geo:
    lat: 34.16601
    lng: -79.77943
  phone: 843-673-9992
  website: https://www.genesisfqhc.org
  external_ids:
    bphc: BPS-H80-017257
  sources:
  - hrsa/health-center-sites
  verified:
    'on': '2026-07-19'
    method: api
- id: sc/florence/hopehealth-at-the-manor
  name: HopeHealth at the Manor
  categories:
  - community-health-center
  address:
    street: 2100 Twin Church Rd
    city: Florence
    state: sc
    zip: '29501'
  place: '4525810'
  geo:
    lat: 34.15153
    lng: -79.85992
  phone: 843-667-9414
  external_ids:
    bphc: BPS-H80-039730
  sources:
  - hrsa/health-center-sites
  verified:
    'on': '2026-07-19'
    method: api
- id: sc/florence/hopehealth-celebration-blvd
  name: HopeHealth Celebration Blvd
  categories:
  - community-health-center
  address:
    street: 1362 Celebration Blvd
    city: Florence
    state: sc
    zip: '29501'
  place: '4525810'
  geo:
    lat: 34.16866
    lng: -79.82875
  phone: 843-667-9414
  external_ids:
    bphc: BPS-H80-034907
  sources:
  - hrsa/health-center-sites
  verified:
    'on': '2026-07-19'
    method: api
- id: sc/florence/hopehealth-community-center
  name: HopeHealth Community Center
  categories:
  - community-health-center
  address:
    street: 301 N Dargan St
    city: Florence
    state: sc
    zip: '29506'
  place: '4525810'
  geo:
    lat: 34.20091
    lng: -79.76623
  phone: 843-667-9414
  external_ids:
    bphc: BPS-H80-039487
  sources:
  - hrsa/health-center-sites
  verified:
    'on': '2026-07-19'
    method: api
- id: sc/florence/hopehealth-darlington-street
  name: HopeHealth Darlington Street
  categories:
  - community-health-center
  address:
    street: 155 W Darlington St
    city: Florence
    state: sc
    zip: '29501'
  place: '4525810'
  geo:
    lat: 34.20074
    lng: -79.76733
  phone: 843-667-9414
  external_ids:
    bphc: BPS-H80-035093
  sources:
  - hrsa/health-center-sites
  verified:
    'on': '2026-07-19'
    method: api
- id: sc/florence/hopehealth-fmu
  name: HopeHealth @ FMU
  categories:
  - community-health-center
  address:
    street: 121 S Evander Dr
    city: Florence
    state: sc
    zip: '29506'
  place: '4525810'
  geo:
    lat: 34.19587
    lng: -79.65937
  phone: 843-432-2935
  external_ids:
    bphc: BPS-H80-010450
  sources:
  - hrsa/health-center-sites
  verified:
    'on': '2026-07-19'
    method: api
- id: sc/florence/hopehealth-inc
  name: HopeHealth Inc
  categories:
  - su-treatment
  - mh-treatment
  address:
    street: 360 North Irby Street
    city: Florence
    state: sc
    zip: '29501'
  place: '4525810'
  geo:
    lat: 34.20207
    lng: -79.76768
  phone: 843-667-9414
  website: https://www.hope-health.org/
  sources:
  - samhsa/findtreatment
  verified:
    'on': '2026-07-19'
    method: api
- id: sc/florence/hopehealth-inc-2
  name: HopeHealth, Inc.
  categories:
  - community-health-center
  address:
    street: 600 E Palmetto St
    city: Florence
    state: sc
    zip: '29506'
  place: '4525810'
  geo:
    lat: 34.19362
    lng: -79.75892
  phone: 843-667-9414
  website: https://www.hope-health.org
  external_ids:
    bphc: BPS-H80-008173
  sources:
  - hrsa/health-center-sites
  verified:
    'on': '2026-07-19'
    method: api
- id: sc/florence/hopehealth-irby-street
  name: HopeHealth Irby Street
  categories:
  - community-health-center
  address:
    street: 360 N Irby St
    city: Florence
    state: sc
    zip: '29501'
  place: '4525810'
  geo:
    lat: 34.20203
    lng: -79.76745
  phone: 843-667-9414
  external_ids:
    bphc: BPS-H80-017703
  sources:
  - hrsa/health-center-sites
  verified:
    'on': '2026-07-19'
    method: api
- id: sc/florence/hopehealth-pine-needles
  name: HopeHealth Pine Needles
  categories:
  - community-health-center
  address:
    street: 3380 Pine Needles Rd
    city: Florence
    state: sc
    zip: '29501'
  place: '4525810'
  geo:
    lat: 34.17656
    lng: -79.85776
  phone: 843-432-3670
  external_ids:
    bphc: BPS-H80-032816
  sources:
  - hrsa/health-center-sites
  verified:
    'on': '2026-07-19'
    method: api
- id: sc/florence/hopehealth-second-loop-rd
  name: HopeHealth Second Loop Rd
  categories:
  - community-health-center
  address:
    street: 1920 2nd Loop Rd
    city: Florence
    state: sc
    zip: '29501'
  place: '4525810'
  geo:
    lat: 34.17111
    lng: -79.80145
  phone: 843-432-3700
  external_ids:
    bphc: BPS-H80-031426
  sources:
  - hrsa/health-center-sites
  verified:
    'on': '2026-07-19'
    method: api
- id: sc/florence/housing-authority-of-florence
  name: Housing Authority Of Florence
  categories:
  - housing-assistance
  address: {street: 400 E Pine St, city: Florence, state: sc, zip: '29506'}
  description: Public housing and Housing Choice Voucher agency
  place: '4525810'
  geo: {lat: 34.19208, lng: -79.76074}
  phone: 843-669-4163
  sources:
  - hud/resource-locator
  verified: {'on': '2026-07-19', method: api}
- id: sc/florence/mack-t-hines-ehs-center
  name: MACK T. HINES EHS CENTER
  categories:
  - child-care
  address:
    street: 410 Jarrott St
    city: Florence
    state: sc
    zip: '29506'
  place: '4525810'
  geo:
    lat: 34.19173
    lng: -79.75913
  phone: 843-292-8001
  sources:
  - acf/head-start-locations
  verified:
    'on': '2026-07-19'
    method: api
- id: sc/florence/pee-dee-mental-health-center-florence-clinic
  name: Pee Dee Mental Health Center Florence Clinic
  categories:
  - su-treatment
  - mh-treatment
  address:
    street: 125 East Cheves Street
    city: Florence
    state: sc
    zip: '29506'
  place: '4525810'
  geo:
    lat: 34.1969
    lng: -79.76526
  phone: 843-317-4073
  website: https://
  sources:
  - samhsa/findtreatment
  verified:
    'on': '2026-07-19'
    method: api
- id: sc/florence/postive-generation-in-christ-inc
  name: Postive Generation in Christ Inc
  categories:
  - su-treatment
  - mh-treatment
  address:
    street: 608 Gregg Avenue
    city: Florence
    state: sc
    zip: '29501'
  place: '4525810'
  geo:
    lat: 34.19426
    lng: -79.77779
  phone: 843-879-4763
  website: https://www.pgicinc.org
  sources:
  - samhsa/findtreatment
  verified:
    'on': '2026-07-19'
    method: api
- id: sc/florence/sober-living-solutions-llc-dba-the-owls-nest-rec
  name: Sober Living Solutions LLC DBA The Owls Nest Recovery Center
  categories:
  - su-treatment
  address:
    street: 2528 West Palmetto Street
    city: Florence
    state: sc
    zip: '29501'
  place: '4525810'
  phone: 843-669-6088
  website: https://www.owlsnestrecovery.com/
  sources:
  - samhsa/findtreatment
  verified:
    'on': '2026-07-19'
    method: api
- id: sc/florence/south-carolina-vocational-rehab
  name: South Carolina Vocational Rehab
  categories:
  - su-treatment
  address:
    street: 1709 Stokes Road
    city: Florence
    state: sc
    zip: '29501'
  place: '4525810'
  geo:
    lat: 34.23099
    lng: -79.80551
  phone: 843-662-9378
  website: https://www.scvrd.net
  sources:
  - samhsa/findtreatment
  verified:
    'on': '2026-07-19'
    method: api
- id: sc/florence/starting-point-of-florence-pc
  name: Starting Point of Florence PC
  categories:
  - su-treatment
  address:
    street: 1341 North Cashua Drive
    city: Florence
    state: sc
    zip: '29501'
  place: '4525810'
  geo:
    lat: 34.21951
    lng: -79.79715
  phone: 800-805-6989
  website: https://www.crossroadstreatmentcenters.com
  sources:
  - samhsa/findtreatment
  verified:
    'on': '2026-07-19'
    method: api
- id: sc/florence/thelma-brown-head-start-center
  name: THELMA BROWN HEAD START CENTER
  categories:
  - child-care
  address:
    street: 304 N Alexander St
    city: Florence
    state: sc
    zip: '29501'
  place: '4525810'
  geo:
    lat: 34.20041
    lng: -79.78367
  phone: 843-678-3417
  sources:
  - acf/head-start-locations
  verified:
    'on': '2026-07-19'
    method: api
- id: sc/florence/trinity-early-head-start-center
  name: TRINITY EARLY HEAD START CENTER
  categories:
  - child-care
  address:
    street: 124 W Darlington St
    city: Florence
    state: sc
    zip: '29501'
  place: '4525810'
  geo:
    lat: 34.20031
    lng: -79.7676
  phone: 843-407-5498
  sources:
  - acf/head-start-locations
  verified:
    'on': '2026-07-19'
    method: api
- id: sc/florence/trinity-early-head-start-center-2
  name: Trinity Early Head Start Center
  categories:
  - child-care
  address:
    street: 124 West Darlington Street
    city: Florence
    state: sc
    zip: '29506'
  place: '4525810'
  geo:
    lat: 34.20028
    lng: -79.76772
  sources:
  - acf/head-start-locations
  verified:
    'on': '2026-07-19'
    method: api
- id: sc/florence/woods-road-hs-center
  name: WOODS ROAD HS CENTER
  categories:
  - child-care
  address:
    street: 1400 Woods Rd
    city: Florence
    state: sc
    zip: '29501'
  place: '4525810'
  geo:
    lat: 34.18615
    lng: -79.79238
  phone: 843-678-3423
  sources:
  - acf/head-start-locations
  verified:
    'on': '2026-07-19'
    method: api
