- id: sc/georgetown/choppee-head-start-center
  name: CHOPPEE HEAD START CENTER
  categories:
  - child-care
  address:
    street: 8055 Choppee Rd
    city: Georgetown
    state: sc
    zip: '29440'
  place: '4528870'
  geo:
    lat: 33.54591
    lng: -79.33208
  phone: 843-485-4231
  sources:
  - acf/head-start-locations
  verified:
    'on': '2026-07-19'
    method: api
- id: sc/georgetown/duncan-s-blessing-box
  name: Duncan's Blessing Box
  categories:
  - food-pantry
  place: '4528870'
  geo:
    lat: 33.3691
    lng: -79.28348
  external_ids:
    lfp: '5409'
  sources:
  - littlefreepantry/map
  verified:
    'on': '2026-07-19'
    method: scrape
- id: sc/georgetown/georgetown-county-alcohol-and-drug-abuse-commiss
  name: Georgetown County Alcohol and Drug Abuse Commission
  categories:
  - su-treatment
  address:
    street: 1423 Winyah Street
    city: Georgetown
    state: sc
    zip: '29440'
  place: '4528870'
  geo:
    lat: 33.37033
    lng: -79.29248
  phone: 843-546-6081
  website: https://gcadac.net
  sources:
  - samhsa/findtreatment
  verified:
    'on': '2026-07-19'
    method: api
- id: sc/georgetown/georgetown-head-start
  name: GEORGETOWN HEAD START
  categories:
  - child-care
  address:
    street: 410 S Kaminski St
    street2: Bldg C
    city: Georgetown
    state: sc
    zip: '29440'
  place: '4528870'
  geo:
    lat: 33.36866
    lng: -79.29642
  phone: 843-545-1272
  sources:
  - acf/head-start-locations
  verified:
    'on': '2026-07-19'
    method: api
- id: sc/georgetown/georgetown-health-services-center
  name: Georgetown Health Services Center
  categories:
  - community-health-center
  address:
    street: 422 N Fraser St
    city: Georgetown
    state: sc
    zip: '29440'
  place: '4528870'
  geo:
    lat: 33.37621
    lng: -79.28739
  phone: 843-436-1333
  website: https://www.stjamessanteefhc.com
  external_ids:
    bphc: BPS-H80-012121
  sources:
  - hrsa/health-center-sites
  verified:
    'on': '2026-07-19'
    method: api
- id: sc/georgetown/georgetown-pediatric-center
  name: Georgetown Pediatric Center
  categories:
  - community-health-center
  address:
    street: 57 Jessamine Ave
    city: Georgetown
    state: sc
    zip: '29440'
  place: '4528870'
  geo:
    lat: 33.4095
    lng: -79.28724
  phone: 843-546-8686
  external_ids:
    bphc: BPS-H80-014475
  sources:
  - hrsa/health-center-sites
  verified:
    'on': '2026-07-19'
    method: api
- id: sc/georgetown/georgetown-treatment-specialists
  name: Georgetown Treatment Specialists
  categories:
  - su-treatment
  address:
    street: 1306 North Fraser Street
    city: Georgetown
    state: sc
    zip: '29440'
  place: '4528870'
  geo:
    lat: 33.39231
    lng: -79.28866
  phone: 843-325-2927
  website: https://
  sources:
  - samhsa/findtreatment
  verified:
    'on': '2026-07-19'
    method: api
- id: sc/georgetown/housing-authority-of-georgetown
  name: Housing Authority Of Georgetown
  categories:
  - housing-assistance
  address: {street: 1 Lincoln St, city: Georgetown, state: sc, zip: '29440'}
  description: Public housing and Housing Choice Voucher agency
  place: '4528870'
  geo: {lat: 33.38354, lng: -79.29222}
  phone: 843-546-9621
  sources:
  - hud/resource-locator
  verified: {'on': '2026-07-19', method: api}
- id: sc/georgetown/small-minds-of-tomorrow-ii
  name: Small Minds of Tomorrow II
  categories:
  - child-care
  address:
    street: 52 Hinds St
    city: Georgetown
    state: sc
    zip: '29440'
  place: '4528870'
  geo:
    lat: 33.33507
    lng: -79.30963
  phone: 843-461-4006
  sources:
  - acf/head-start-locations
  verified:
    'on': '2026-07-19'
    method: api
- id: sc/georgetown/st-james-health-and-wellness-mobile-services
  name: St. James Health and Wellness Mobile Services
  categories:
  - community-health-center
  address:
    street: 4145 Powell Rd
    city: Georgetown
    state: sc
    zip: '29440'
  place: '4528870'
  geo:
    lat: 33.30715
    lng: -79.46475
  phone: 843-887-3274
  website: https://www.stjamessanteefhc.com
  external_ids:
    bphc: BPS-H80-038510
  sources:
  - hrsa/health-center-sites
  verified:
    'on': '2026-07-19'
    method: api
- id: sc/georgetown/st-james-health-wellness-pharmacy
  name: St. James Health & Wellness Pharmacy
  categories:
  - community-health-center
  address:
    street: 1743 N Fraser St
    city: Georgetown
    state: sc
    zip: '29440'
  place: '4528870'
  geo:
    lat: 33.39903
    lng: -79.28964
  phone: 843-990-7993
  website: https://www.stjamessanteefhc.com
  external_ids:
    bphc: BPS-H80-041997
  sources:
  - hrsa/health-center-sites
  verified:
    'on': '2026-07-19'
    method: api
- id: sc/georgetown/st-james-santee-family-hlth-ctr
  name: ST. JAMES-SANTEE FAMILY HLTH CTR
  categories:
  - community-health-center
  address:
    street: 8189 Choppee Rd
    city: Georgetown
    state: sc
    zip: '29440'
  place: '4528870'
  geo:
    lat: 33.54743
    lng: -79.33297
  phone: 843-545-8723
  website: https://www.stjamessanteefhc.com
  external_ids:
    bphc: BPS-H80-004202
  sources:
  - hrsa/health-center-sites
  verified:
    'on': '2026-07-19'
    method: api
- id: sc/georgetown/st-james-santeefamily-health-center-inc-sampit-s
  name: St. James-SanteeFamily Health Center, Inc-Sampit Site
  categories:
  - community-health-center
  address:
    street: 2482 Powell Rd
    city: Georgetown
    state: sc
    zip: '29440'
  place: '4528870'
  geo:
    lat: 33.33012
    lng: -79.47338
  phone: 843-527-7533
  external_ids:
    bphc: BPS-H80-008943
  sources:
  - hrsa/health-center-sites
  verified:
    'on': '2026-07-19'
    method: api
- id: sc/georgetown/waccamaw-center-for-mental-health-georgetown-cli
  name: Waccamaw Center for Mental Health Georgetown Clinic
  categories:
  - su-treatment
  - mh-treatment
  address:
    street: 525 Lafayette Circle
    city: Georgetown
    state: sc
    zip: '29440'
  place: '4528870'
  geo:
    lat: 33.38487
    lng: -79.2989
  phone: 843-546-6107
  website: https://
  sources:
  - samhsa/findtreatment
  verified:
    'on': '2026-07-19'
    method: api
