- id: sc/greer/carolina-center-for-behavioral-health
  name: Carolina Center for Behavioral Health
  categories:
  - su-treatment
  - mh-treatment
  address:
    street: 2700 East Phillips Road
    city: Greer
    state: sc
    zip: '29650'
  place: '4530985'
  geo:
    lat: 34.86507
    lng: -82.22915
  phone: 864-235-2335
  website: https://www.thecarolinacenter.com
  sources:
  - samhsa/findtreatment
  verified:
    'on': '2026-07-19'
    method: api
- id: sc/greer/greater-greenville-mental-health-greer-clinic
  name: Greater Greenville Mental Health Greer Clinic
  categories:
  - su-treatment
  - mh-treatment
  address:
    street: 220 Executive Drive
    city: Greer
    state: sc
    zip: '29651'
  place: '4530985'
  geo:
    lat: 34.95231
    lng: -82.23553
  phone: 864-879-2111
  website: https://
  sources:
  - samhsa/findtreatment
  verified:
    'on': '2026-07-19'
    method: api
- id: sc/greer/greer
  name: GREER
  categories:
  - community-health-center
  address:
    street: '111 Berry Ave # A'
    city: Greer
    state: sc
    zip: '29651'
  place: '4530985'
  geo:
    lat: 34.94624
    lng: -82.22309
  phone: 864-801-2035
  website: https://www.newhorizonfhs.org
  external_ids:
    bphc: BPS-H80-002239
  sources:
  - hrsa/health-center-sites
  verified:
    'on': '2026-07-19'
    method: api
- id: sc/greer/housing-authority-of-greer
  name: Housing Authority Of Greer
  categories:
  - housing-assistance
  address: {street: 103 School St, city: Greer, state: sc, zip: '29651'}
  description: Public housing and Housing Choice Voucher agency
  place: '4530985'
  geo: {lat: 34.93749, lng: -82.22794}
  phone: 864-877-5471
  sources:
  - hud/resource-locator
  verified: {'on': '2026-07-19', method: api}
- id: sc/greer/medasic
  name: Medasic
  categories:
  - su-treatment
  address:
    street: 300 John Street
    city: Greer
    state: sc
    zip: '29651'
  place: '4530985'
  geo:
    lat: 34.949
    lng: -82.219
  phone: 864-479-0280
  website: https://www.medasic.com
  sources:
  - samhsa/findtreatment
  verified:
    'on': '2026-07-19'
    method: api
- id: sc/greer/washington-baptist-church
  name: Washington Baptist Church
  categories:
  - food-pantry
  place: '4530985'
  geo:
    lat: 34.99931
    lng: -82.25016
  external_ids:
    lfp: '5388'
  sources:
  - littlefreepantry/map
  verified:
    'on': '2026-07-19'
    method: scrape
