- id: sc/lake-city/hopehealth-j-paul-truluck-school-based-health-ce
  name: HopeHealth J. Paul Truluck School-based Health Center
  categories:
  - community-health-center
  address:
    street: 319 Carlisle St
    city: Lake City
    state: sc
    zip: '29560'
  place: '4539310'
  geo:
    lat: 33.87486
    lng: -79.76523
  phone: 843-667-9414
  external_ids:
    bphc: BPS-H80-040029
  sources:
  - hrsa/health-center-sites
  verified:
    'on': '2026-07-19'
    method: api
- id: sc/lake-city/hopehealth-lake-city-sauls-street
  name: HopeHealth Lake City- Sauls Street
  categories:
  - community-health-center
  address:
    street: 148 Sauls St, Suite A
    city: Lake City
    state: sc
    zip: '29560'
  place: '4539310'
  geo:
    lat: 33.87295
    lng: -79.7528
  phone: 843-394-1051
  external_ids:
    bphc: BPS-H80-035404
  sources:
  - hrsa/health-center-sites
  verified:
    'on': '2026-07-19'
    method: api
- id: sc/lake-city/hopehealth-lake-city-school-based-health-center
  name: HopeHealth Lake City School-based Health Center
  categories:
  - community-health-center
  address:
    street: 652 N Matthews Rd
    city: Lake City
    state: sc
    zip: '29560'
  place: '4539310'
  geo:
    lat: 33.88834
    lng: -79.76565
  phone: 843-432-3677
  website: https://www.hope-health.org
  external_ids:
    bphc: BPS-H80-012324
  sources:
  - hrsa/health-center-sites
  verified:
    'on': '2026-07-19'
    method: api
- id: sc/lake-city/housing-authority-of-lake-city
  name: Housing Authority Of Lake City
  categories:
  - housing-assistance
  address: {street: 398 N Matthews Rd, city: Lake City, state: sc, zip: '29560'}
  description: Public housing and Housing Choice Voucher agency
  place: '4539310'
  geo: {lat: 33.8834, lng: -79.76515}
  phone: 843-374-4048
  sources:
  - hud/resource-locator
  verified: {'on': '2026-07-19', method: api}
- id: sc/lake-city/lake-city-hs-ehs-home-base
  name: LAKE CITY HS & EHS (HOME bASE)
  categories:
  - child-care
  address:
    street: 209 Graham Rd
    city: Lake City
    state: sc
    zip: '29560'
  place: '4539310'
  geo:
    lat: 33.85896
    lng: -79.75703
  phone: 843-394-5466
  sources:
  - acf/head-start-locations
  verified:
    'on': '2026-07-19'
    method: api
- id: sc/lake-city/pee-dee-mental-health-center-lake-city-clinic
  name: Pee Dee Mental Health Center Lake City Clinic
  categories:
  - su-treatment
  - mh-treatment
  address:
    street: 675 North Matthews Road
    city: Lake City
    state: sc
    zip: '29560'
  place: '4539310'
  geo:
    lat: 33.88929
    lng: -79.76427
  phone: 843-394-7600
  website: https://
  sources:
  - samhsa/findtreatment
  verified:
    'on': '2026-07-19'
    method: api
- id: sc/lake-city/wesley-chapel-umc-early-head-start-center
  name: WESLEY CHAPEL UMC EARLY HEAD START CENTER
  categories:
  - child-care
  address:
    street: 112 Deep River St
    city: Lake City
    state: sc
    zip: '29560'
  place: '4539310'
  geo:
    lat: 33.864
    lng: -79.75941
  phone: 843-394-5466
  sources:
  - acf/head-start-locations
  verified:
    'on': '2026-07-19'
    method: api
