- id: sc/little-river/buck-creek-baptist-church
  name: Buck Creek Baptist Church
  org: sc/lowcountry-food-bank
  categories:
  - food-pantry
  address: {street: 11483 Hwy 905 N, city: Longs, state: sc, zip: '29568'}
  place: '4542010'
  geo: {lat: 33.95596, lng: -78.70659}
  phone: 843-399-6387
  external_ids: {sc-lowcountry-food-bank: '552'}
  sources:
  - foodbank/sc-lowcountry-food-bank
  verified: {'on': '2026-07-20', method: api}
- id: sc/little-river/buck-creek-baptist-church-2
  name: Buck Creek Baptist Church
  org: sc/harvest-hope-food-bank
  categories:
  - food-pantry
  address: {street: 11483 N Highway 905, city: Longs, state: sc, zip: '29568'}
  place: '4542010'
  geo: {lat: 33.95219, lng: -78.72337}
  phone: 843-399-6387
  external_ids: {sc-harvest-hope-food-bank: '44'}
  sources:
  - foodbank/sc-harvest-hope-food-bank
  verified: {'on': '2026-07-20', method: api}
- id: sc/little-river/little-free-pantry
  name: Little Free Pantry
  categories:
  - food-pantry
  place: '4542010'
  geo: {lat: 33.88796, lng: -78.68948}
  website: https://mapping.littlefreepantry.org/pantry/1345
  external_ids: {lfp: '1345'}
  sources:
  - littlefreepantry/map
  verified: {'on': '2026-07-19', method: scrape}
- id: sc/little-river/little-river-medical-center-inc-main-site
  name: 'LITTLE RIVER MEDICAL CENTER, INC.: MAIN SITE'
  categories:
  - community-health-center
  cost: sliding-scale
  address: {street: 4303 Live Oak Dr, city: Little River, state: sc, zip: '29566'}
  place: '4542010'
  geo: {lat: 33.88321, lng: -78.59859}
  phone: 843-663-8024
  website: https://www.lrmcenter.com
  external_ids: {bphc: BPS-H80-005180}
  sources:
  - hrsa/health-center-sites
  verified: {'on': '2026-07-19', method: api}
- id: sc/little-river/north-myrtle-beach-high
  name: North Myrtle Beach High
  categories:
  - meal-program
  address: {street: 3750 Sea Mountain Highway, city: Little River, state: sc, zip: '29566'}
  description: Free summer meals for kids and teens (2026 season) — sponsored by Horry County.
  place: '4542010'
  geo: {lat: 33.86413, lng: -78.66654}
  phone: (843) 488-6927
  external_ids: {usda_master: Cycle 06_SC_SFSP_0406}
  sources:
  - usda/summer-meal-sites
  verified: {'on': '2026-07-19', method: api}
- id: sc/little-river/north-myrtle-beach-middle
  name: North Myrtle Beach Middle
  categories:
  - meal-program
  address: {street: 11240 Hwy 90, city: Little River, state: sc, zip: '29566'}
  description: Free summer meals for kids and teens (2026 season) — sponsored by Horry County.
  place: '4542010'
  geo: {lat: 33.85327, lng: -78.6803}
  phone: (843) 399-3650
  external_ids: {usda_master: Cycle 06_SC_SFSP_0160}
  sources:
  - usda/summer-meal-sites
  verified: {'on': '2026-07-19', method: api}
- id: sc/little-river/st-delight-community-outreach
  name: St. Delight Community Outreach
  org: sc/lowcountry-food-bank
  categories:
  - food-pantry
  address: {street: 801 St Delight Rd, city: Little River, state: sc, zip: '29566'}
  place: '4542010'
  geo: {lat: 33.86851, lng: -78.63811}
  phone: 843-399-2647
  external_ids: {sc-lowcountry-food-bank: '681'}
  sources:
  - foodbank/sc-lowcountry-food-bank
  verified: {'on': '2026-07-20', method: api}
- id: sc/little-river/st-joseph-missionary-baptist
  name: St. Joseph Missionary Baptist
  org: sc/lowcountry-food-bank
  categories:
  - food-pantry
  address: {street: 1005 Sandridge Rd, city: Little River, state: sc, zip: '29566'}
  place: '4542010'
  geo: {lat: 33.84289, lng: -78.68804}
  phone: 843-399-1100
  external_ids: {sc-lowcountry-food-bank: '685'}
  sources:
  - foodbank/sc-lowcountry-food-bank
  verified: {'on': '2026-07-20', method: api}
