- id: sc/loris/dogwood-hill-baptist-church
  name: Dogwood Hill Baptist Church
  org: sc/lowcountry-food-bank
  categories:
  - food-pantry
  address: {street: 1040 Mt Zion Rd, city: Loris, state: sc, zip: '29569'}
  place: '4542730'
  geo: {lat: 34.11441, lng: -78.90259}
  phone: 843-756-3450
  external_ids: {sc-lowcountry-food-bank: '577'}
  sources:
  - foodbank/sc-lowcountry-food-bank
  verified: {'on': '2026-07-20', method: api}
- id: sc/loris/dogwood-hill-baptist-church-2
  name: Dogwood Hill Baptist Church
  org: sc/harvest-hope-food-bank
  categories:
  - food-pantry
  address: {street: 1040 Mount Zion Rd, city: Loris, state: sc, zip: '29569'}
  place: '4542730'
  geo: {lat: 34.11399, lng: -78.90289}
  phone: 843-756-3450
  external_ids: {sc-harvest-hope-food-bank: '47'}
  sources:
  - foodbank/sc-harvest-hope-food-bank
  verified: {'on': '2026-07-20', method: api}
- id: sc/loris/loris-elementary
  name: Loris Elementary
  categories:
  - meal-program
  address: {street: 301 Loris Lions Road, city: Loris, state: sc, zip: '29569'}
  description: Free summer meals for kids and teens (2026 season) — sponsored by Horry County.
  place: '4542730'
  geo: {lat: 34.04361, lng: -78.86057}
  phone: (843) 488-6927
  external_ids: {usda_master: Cycle 06_SC_SFSP_0414}
  sources:
  - usda/summer-meal-sites
  verified: {'on': '2026-07-19', method: api}
- id: sc/loris/loris-high
  name: Loris High
  categories:
  - meal-program
  address: {street: 301 Loris Lions Road, city: Loris, state: sc, zip: '29569'}
  description: Free summer meals for kids and teens (2026 season) — sponsored by Horry County.
  place: '4542730'
  geo: {lat: 34.04361, lng: -78.86057}
  phone: (843) 488-6927
  external_ids: {usda_master: Cycle 06_SC_SFSP_0408}
  sources:
  - usda/summer-meal-sites
  verified: {'on': '2026-07-19', method: api}
- id: sc/loris/lrmc-loris-site
  name: LRMC - Loris Site
  categories:
  - community-health-center
  cost: sliding-scale
  address: {street: 3817 Main St, city: Loris, state: sc, zip: '29569'}
  place: '4542730'
  geo: {lat: 34.05775, lng: -78.89321}
  phone: 843-663-8000
  website: https://www.lrmcenter.com
  external_ids: {bphc: BPS-H80-008713}
  sources:
  - hrsa/health-center-sites
  verified: {'on': '2026-07-19', method: api}
- id: sc/loris/refresh-our-heroes
  name: Refresh Our Heroes
  org: sc/lowcountry-food-bank
  categories:
  - food-pantry
  address: {street: 3501 SC-917, city: Loris, state: sc, zip: '29569'}
  place: '4542730'
  geo: {lat: 34.09945, lng: -78.98619}
  phone: 843-995-3909
  external_ids: {sc-lowcountry-food-bank: '770'}
  sources:
  - foodbank/sc-lowcountry-food-bank
  verified: {'on': '2026-07-20', method: api}
