- id: sc/moore/abundant-blessings
  name: Abundant Blessings
  categories:
  - child-care
  address:
    street: 1005 E Blackstock Rd
    city: Moore
    state: sc
    zip: '29369'
  geo:
    lat: 34.90972
    lng: -81.98135
  phone: 864-574-0910
  sources:
  - acf/head-start-locations
  verified:
    'on': '2026-07-19'
    method: api
- id: sc/moore/r-p-dawkins-middle
  name: R.P. Dawkins Middle
  categories:
  - meal-program
  address:
    street: 1300 E. Blackstock Rd.
    city: Moore
    state: sc
    zip: '29369'
  description: Free summer meals for kids and teens (2026 season) — sponsored by Spartanburg 06.
  geo:
    lat: 34.9033
    lng: -81.97445
  phone: (864) 576-8088
  external_ids:
    usda_master: Cycle 02_SC_SFSP_0071
  sources:
  - usda/summer-meal-sites
  verified:
    'on': '2026-07-19'
    method: api
- id: sc/moore/regenesis-health-care-dawkins-middle-school
  name: ReGenesis Health Care - Dawkins Middle School
  categories:
  - community-health-center
  cost: sliding-scale
  address: {street: 1300 E Blackstock Rd, city: Moore, state: sc, zip: '29369'}
  geo: {lat: 34.90301, lng: -81.97425}
  phone: 864-576-8088
  external_ids: {bphc: BPS-H80-037974}
  sources:
  - hrsa/health-center-sites
  verified: {'on': '2026-07-19', method: api}
- id: sc/moore/river-hills-baptist-church
  name: River Hills Baptist Church
  categories:
  - meal-program
  address:
    street: 5762 Reidville Rd
    city: Moore
    state: sc
    zip: '29369'
  description: Free summer meals for kids and teens (2026 season) — sponsored by Destiny Fellowship Church.
  geo:
    lat: 34.88925
    lng: -82.0592
  phone: (864) 585-7066
  external_ids:
    usda_master: Cycle 03_SC_SFSP_0397
  sources:
  - usda/summer-meal-sites
  verified:
    'on': '2026-07-19'
    method: api
- id: sc/moore/river-ridge
  name: River Ridge
  categories:
  - meal-program
  address:
    street: 5960 Reidville Rd.
    city: Moore
    state: sc
    zip: '29369'
  description: Free summer meals for kids and teens (2026 season) — sponsored by Spartanburg 5.
  geo:
    lat: 34.88393
    lng: -82.07008
  phone: (864) 949-7620
  external_ids:
    usda_master: Cycle 06_SC_SSO_0580
  sources:
  - usda/summer-meal-sites
  verified:
    'on': '2026-07-19'
    method: api
- id: sc/moore/river-ridge-elementary
  name: River Ridge Elementary
  categories:
  - meal-program
  address:
    street: 5960 Reidville Road
    city: Moore
    state: sc
    zip: '29369'
  description: Free summer meals for kids and teens (2026 season) — sponsored by Spartanburg 05.
  geo:
    lat: 34.88393
    lng: -82.07008
  phone: (404) 808-1527
  external_ids:
    usda_master: Cycle 07_SC_SSO_0213
  sources:
  - usda/summer-meal-sites
  verified:
    'on': '2026-07-19'
    method: api
