- id: sc/north-charleston/bhg-charleston-treatment-center
  name: BHG Charleston Treatment Center
  categories:
  - su-treatment
  address:
    street: 2301 Cosgrove Avenue
    city: North Charleston
    state: sc
    zip: '29405'
  place: '4550875'
  geo:
    lat: 32.84639
    lng: -79.97885
  phone: 843-474-2970
  website: https://www.bhgrecovery.com/locations/charleston
  sources:
  - samhsa/findtreatment
  verified:
    'on': '2026-07-19'
    method: api
- id: sc/north-charleston/brookdale-neighborhood
  name: Brookdale neighborhood
  categories:
  - food-pantry
  place: '4550875'
  geo:
    lat: 32.90917
    lng: -80.07785
  external_ids:
    lfp: '3936'
  sources:
  - littlefreepantry/map
  verified:
    'on': '2026-07-19'
    method: scrape
- id: sc/north-charleston/charleston-center-of-charleston-county
  name: Charleston Center of Charleston County
  categories:
  - su-treatment
  address:
    street: 3685 Rivers Avenue
    city: North Charleston
    state: sc
    zip: '29405'
  place: '4550875'
  geo:
    lat: 32.85754
    lng: -79.98221
  phone: 843-958-3300
  website: https://www.charlestoncounty.org
  sources:
  - samhsa/findtreatment
  verified:
    'on': '2026-07-19'
    method: api
- id: sc/north-charleston/crescent-child-development-center
  name: Crescent Child Development Center
  categories:
  - child-care
  address:
    street: 2168 Dunlap St
    city: North Charleston
    state: sc
    zip: '29405'
  place: '4550875'
  geo:
    lat: 32.93484
    lng: -80.04157
  phone: 843-225-8871
  sources:
  - acf/head-start-locations
  verified:
    'on': '2026-07-19'
    method: api
- id: sc/north-charleston/devine-care-center
  name: Devine Care Center
  categories:
  - child-care
  address:
    street: 4004 Dorchester Rd
    city: North Charleston
    state: sc
    zip: '29405'
  place: '4550875'
  geo:
    lat: 32.85395
    lng: -79.99862
  phone: 843-744-0999
  sources:
  - acf/head-start-locations
  verified:
    'on': '2026-07-19'
    method: api
- id: sc/north-charleston/fetter-health-care-network-support-enabling-cent
  name: Fetter Health Care Network Support & Enabling Center
  categories:
  - community-health-center
  address:
    street: 7301 Rivers Ave STE 100
    city: North Charleston
    state: sc
    zip: '29406'
  place: '4550875'
  geo:
    lat: 32.9333
    lng: -80.03879
  phone: 843-722-4112
  website: https://www.fetterhealthcare.org
  external_ids:
    bphc: BPS-H80-037575
  sources:
  - hrsa/health-center-sites
  verified:
    'on': '2026-07-19'
    method: api
- id: sc/north-charleston/fetter-health-center-for-pediatric-wellness-coms
  name: Fetter Health Center for Pediatric Wellness-Comstock
  categories:
  - community-health-center
  address:
    street: 2047 Comstock Ave
    city: North Charleston
    state: sc
    zip: '29405'
  place: '4550875'
  geo:
    lat: 32.83926
    lng: -79.96022
  phone: 843-747-8893
  website: https://www.fetterhealthcare.org
  external_ids:
    bphc: BPS-H80-002514
  sources:
  - hrsa/health-center-sites
  verified:
    'on': '2026-07-19'
    method: api
- id: sc/north-charleston/goodwin-head-start
  name: Goodwin Head Start
  categories:
  - child-care
  address:
    street: 5501 Dorchester Rd
    city: North Charleston
    state: sc
    zip: '29418'
  place: '4550875'
  geo:
    lat: 32.86119
    lng: -80.04864
  phone: 843-767-5911
  sources:
  - acf/head-start-locations
  verified:
    'on': '2026-07-19'
    method: api
- id: sc/north-charleston/housing-authority-of-n-charleston
  name: Housing Authority Of N Charleston
  categories:
  - housing-assistance
  address: {street: 6327 Rivers Ave, city: North Charleston, state: sc, zip: '29406'}
  description: Public housing and Housing Choice Voucher agency
  place: '4550875'
  geo: {lat: 32.91119, lng: -80.02482}
  phone: 843-747-1793
  sources:
  - hud/resource-locator
  verified: {'on': '2026-07-19', method: api}
- id: sc/north-charleston/jerry-zucker-middle-school-of-science
  name: Jerry Zucker Middle School of Science
  categories:
  - community-health-center
  address:
    street: 6401 Dorchester Rd
    city: North Charleston
    state: sc
    zip: '29418'
  place: '4550875'
  geo:
    lat: 32.87713
    lng: -80.0616
  phone: 843-767-8383
  website: http://zucker.ccsdschools.com/
  external_ids:
    bphc: BPS-H80-024844
  sources:
  - hrsa/health-center-sites
  verified:
    'on': '2026-07-19'
    method: api
- id: sc/north-charleston/lambs-elementary
  name: Lambs Elementary
  categories:
  - child-care
  address:
    street: 6800 Dorchester Rd
    city: North Charleston
    state: sc
    zip: '29418'
  place: '4550875'
  geo:
    lat: 32.88563
    lng: -80.06393
  phone: 843-767-5900
  sources:
  - acf/head-start-locations
  verified:
    'on': '2026-07-19'
    method: api
- id: sc/north-charleston/mary-ford-early-childhood-and-family-engagement
  name: Mary Ford Early Childhood and Family Engagement Center
  categories:
  - child-care
  address:
    street: 3180 Thomasina McPherson Blvd
    city: North Charleston
    state: sc
    zip: '29405'
  place: '4550875'
  geo:
    lat: 32.85023
    lng: -79.97774
  phone: 843-745-2193
  sources:
  - acf/head-start-locations
  verified:
    'on': '2026-07-19'
    method: api
- id: sc/north-charleston/mary-ford-early-learning-and-family-center
  name: Mary Ford Early Learning and Family Center
  categories:
  - community-health-center
  address:
    street: 3180 Thomasina McPherson Blvd
    city: North Charleston
    state: sc
    zip: '29405'
  place: '4550875'
  geo:
    lat: 32.84865
    lng: -79.97819
  phone: 843-745-7131
  website: https://www.ccsdschools.com/maryford
  external_ids:
    bphc: BPS-H80-034019
  sources:
  - hrsa/health-center-sites
  verified:
    'on': '2026-07-19'
    method: api
- id: sc/north-charleston/midland-park-early-learning-center
  name: Midland Park Early Learning Center
  categories:
  - child-care
  address:
    street: 2415 Midland Park Rd
    city: North Charleston
    state: sc
    zip: '29406'
  place: '4550875'
  geo:
    lat: 32.91951
    lng: -80.0409
  phone: 843-574-2200
  sources:
  - acf/head-start-locations
  verified:
    'on': '2026-07-19'
    method: api
- id: sc/north-charleston/morningside-middle-school
  name: Morningside Middle School
  categories:
  - community-health-center
  address:
    street: 1999 Singley Dr
    city: North Charleston
    state: sc
    zip: '29405'
  place: '4550875'
  geo:
    lat: 32.87756
    lng: -80.00223
  phone: 843-745-2000
  website: https://www.ccsdschools.com/morningside
  external_ids:
    bphc: BPS-H80-034020
  sources:
  - hrsa/health-center-sites
  verified:
    'on': '2026-07-19'
    method: api
- id: sc/north-charleston/rb-stall-high-school
  name: RB Stall High School
  categories:
  - community-health-center
  address:
    street: 3625 Ashley Phosphate Rd
    city: North Charleston
    state: sc
    zip: '29418'
  place: '4550875'
  geo:
    lat: 32.92585
    lng: -80.08149
  phone: 843-764-2200
  website: https://www.ccsdschools.com/stall
  external_ids:
    bphc: BPS-H80-034253
  sources:
  - hrsa/health-center-sites
  verified:
    'on': '2026-07-19'
    method: api
- id: sc/north-charleston/second-chance-auto-club
  name: Second Chance Auto Club
  categories:
  - food-pantry
  place: '4550875'
  geo:
    lat: 32.90346
    lng: -80.08083
  external_ids:
    lfp: '212'
  sources:
  - littlefreepantry/map
  verified:
    'on': '2026-07-19'
    method: scrape
- id: sc/north-charleston/stall-early-learning-center
  name: Stall Early Learning Center
  categories:
  - child-care
  address:
    street: 3625 Ashley Phosphate Rd
    city: North Charleston
    state: sc
    zip: '29418'
  place: '4550875'
  geo:
    lat: 32.92533
    lng: -80.08282
  phone: 843-764-2200
  sources:
  - acf/head-start-locations
  verified:
    'on': '2026-07-19'
    method: api
- id: sc/north-charleston/thaddeus-j-bell-md-support-center
  name: Thaddeus J Bell, MD Support Center
  categories:
  - community-health-center
  address:
    street: 7301 Rivers Av
    city: North Charleston
    state: sc
    zip: '29406'
  place: '4550875'
  geo:
    lat: 32.93378
    lng: -80.03796
  phone: 843-722-4112
  website: https://www.fetterhealthcare.org
  external_ids:
    bphc: BPS-H80-033962
  sources:
  - hrsa/health-center-sites
  verified:
    'on': '2026-07-19'
    method: api
- id: sc/north-charleston/transcendence-treatment-center-recovery-unplugge
  name: Transcendence Treatment Center Recovery Unplugged South Carolina
  categories:
  - su-treatment
  - mh-treatment
  address:
    street: 3900 Leeds Avenue
    city: North Charleston
    state: sc
    zip: '29405'
  place: '4550875'
  geo:
    lat: 32.84374
    lng: -80.01575
  phone: 844-671-0717
  website: https://www.recoveryunplugged.com
  sources:
  - samhsa/findtreatment
  verified:
    'on': '2026-07-19'
    method: api
