- id: sc/simpsonville/ascent-recovery-solutions
  name: Ascent Recovery Solutions
  categories:
  - su-treatment
  address:
    street: 634 Fairview Road
    city: Simpsonville
    state: sc
    zip: '29680'
  place: '4566580'
  geo:
    lat: 34.71303
    lng: -82.25797
  phone: 864-228-7788
  website: https://ascentrecoverysolutions.com
  sources:
  - samhsa/findtreatment
  verified:
    'on': '2026-07-19'
    method: api
- id: sc/simpsonville/church-of-god-summer-youth
  name: Church Of God Summer Youth
  categories:
  - meal-program
  address: {street: 306 Monroe Dr., city: Simpsonville, state: sc, zip: '29681'}
  description: Free summer meals for kids and teens (2026 season) — sponsored by Destiny Fellowship Church.
  place: '4566580'
  geo: {lat: 34.76455, lng: -82.28433}
  phone: (864) 585-7066
  external_ids: {usda_master: Cycle 03_SC_SFSP_0401}
  sources:
  - usda/summer-meal-sites
  verified: {'on': '2026-07-19', method: api}
- id: sc/simpsonville/church-of-god-youth-camp
  name: Church Of God Youth Camp
  categories:
  - meal-program
  address: {street: 306 Monroe Drive, city: Simpsonville, state: sc, zip: '29681'}
  description: Free summer meals for kids and teens (2026 season) — sponsored by Destiny Fellowship Church.
  place: '4566580'
  geo: {lat: 34.76455, lng: -82.28433}
  phone: (864) 585-7066
  external_ids: {usda_master: Cycle 03_SC_SFSP_0400}
  sources:
  - usda/summer-meal-sites
  verified: {'on': '2026-07-19', method: api}
- id: sc/simpsonville/golden-strip-center
  name: Golden Strip Center
  categories:
  - child-care
  address:
    street: 1120 Howard Dr
    city: Simpsonville
    state: sc
    zip: '29681'
  place: '4566580'
  geo:
    lat: 34.71696
    lng: -82.21782
  phone: 864-967-2022
  sources:
  - acf/head-start-locations
  verified:
    'on': '2026-07-19'
    method: api
- id: sc/simpsonville/greater-greenville-mental-health-simpsonville-cl
  name: Greater Greenville Mental Health Simpsonville Clinic
  categories:
  - su-treatment
  - mh-treatment
  address:
    street: 20 Powderhorn Road
    city: Simpsonville
    state: sc
    zip: '29681'
  place: '4566580'
  geo:
    lat: 34.7221
    lng: -82.24948
  phone: 864-963-3421
  website: https://www.greatergreenvillemhc.com
  sources:
  - samhsa/findtreatment
  verified:
    'on': '2026-07-19'
    method: api
- id: sc/simpsonville/hillcrest-high
  name: Hillcrest High
  categories:
  - meal-program
  address: {street: 3665 S Industrial Dr, city: Simpsonville, state: sc, zip: '29681'}
  description: Free summer meals for kids and teens (2026 season) — sponsored by School District of Greenville
    County.
  place: '4566580'
  geo: {lat: 34.71267, lng: -82.24781}
  phone: (864) 355-3508
  external_ids: {usda_master: Cycle 02_SC_SSO_0108}
  sources:
  - usda/summer-meal-sites
  verified: {'on': '2026-07-19', method: api}
- id: sc/simpsonville/hillcrest-high-2
  name: Hillcrest High
  categories:
  - meal-program
  address: {street: 3665 S. Industrial Drive, city: Simpsonville, state: sc, zip: '29681'}
  description: Free summer meals for kids and teens (2026 season) — sponsored by Greenville County.
  place: '4566580'
  geo: {lat: 34.71267, lng: -82.24781}
  phone: (864) 355-3508
  external_ids: {usda_master: Cycle 06_SC_SSO_0090}
  sources:
  - usda/summer-meal-sites
  verified: {'on': '2026-07-19', method: api}
- id: sc/simpsonville/oakview-elementary
  name: Oakview Elementary
  categories:
  - meal-program
  address: {street: 515 Godfrey Rd, city: Simpsonville, state: sc, zip: '29681'}
  description: Free summer meals for kids and teens (2026 season) — sponsored by School District of Greenville
    County.
  place: '4566580'
  geo: {lat: 34.82619, lng: -82.23159}
  phone: (864) 355-7108
  external_ids: {usda_master: Cycle 02_SC_SSO_0116}
  sources:
  - usda/summer-meal-sites
  verified: {'on': '2026-07-19', method: api}
- id: sc/simpsonville/oakview-elementary-2
  name: Oakview Elementary
  categories:
  - meal-program
  address: {street: 515 Godfrey Road, city: Simpsonville, state: sc, zip: '29681'}
  description: Free summer meals for kids and teens (2026 season) — sponsored by Greenville County.
  place: '4566580'
  geo: {lat: 34.82619, lng: -82.23159}
  phone: (864) 355-7108
  external_ids: {usda_master: Cycle 06_SC_SSO_0119}
  sources:
  - usda/summer-meal-sites
  verified: {'on': '2026-07-19', method: api}
- id: sc/simpsonville/plain-elementary
  name: Plain Elementary
  categories:
  - meal-program
  address: {street: 506 Neely Ferry Rd, city: Simpsonville, state: sc, zip: '29680'}
  description: Free summer meals for kids and teens (2026 season) — sponsored by School District of Greenville
    County.
  place: '4566580'
  geo: {lat: 34.73205, lng: -82.28189}
  phone: (864) 355-7708
  external_ids: {usda_master: Cycle 02_SC_SSO_0119}
  sources:
  - usda/summer-meal-sites
  verified: {'on': '2026-07-19', method: api}
- id: sc/simpsonville/plain-elementary-2
  name: Plain Elementary
  categories:
  - meal-program
  address: {street: 506 Neely Ferry Rd., city: Simpsonville, state: sc, zip: '29680'}
  description: Free summer meals for kids and teens (2026 season) — sponsored by Greenville County.
  place: '4566580'
  geo: {lat: 34.73205, lng: -82.28189}
  phone: (864) 355-7708
  external_ids: {usda_master: Cycle 06_SC_SSO_0100}
  sources:
  - usda/summer-meal-sites
  verified: {'on': '2026-07-19', method: api}
- id: sc/simpsonville/rocky-creek-missionary-baptist-church
  name: Rocky Creek Missionary Baptist Church
  categories:
  - meal-program
  address: {street: 239 Rocky Creek Rd., city: Simpsonville, state: sc, zip: '29680'}
  description: Free summer meals for kids and teens (2026 season) — sponsored by Destiny Fellowship Church.
  place: '4566580'
  geo: {lat: 34.70795, lng: -82.30218}
  phone: (864) 585-7066
  external_ids: {usda_master: Cycle 04_SC_SFSP_0556}
  sources:
  - usda/summer-meal-sites
  verified: {'on': '2026-07-19', method: api}
- id: sc/simpsonville/rudolph-g-gordon-school-at-jones-mill
  name: Rudolph G. Gordon School At Jones Mill
  categories:
  - meal-program
  address: {street: 1507 Scuffletown Road, city: Simpsonville, state: sc, zip: '29681'}
  description: Free summer meals for kids and teens (2026 season) — sponsored by Greenville County.
  place: '4566580'
  geo: {lat: 34.74593, lng: -82.19406}
  phone: (864) 452-0208
  external_ids: {usda_master: Cycle 06_SC_SSO_0120}
  sources:
  - usda/summer-meal-sites
  verified: {'on': '2026-07-19', method: api}
- id: sc/simpsonville/rudolph-gordan
  name: Rudolph Gordan
  categories:
  - meal-program
  address: {street: 1507 Scuffletown Rd, city: Simpsonville, state: sc, zip: '29681'}
  description: Free summer meals for kids and teens (2026 season) — sponsored by School District of Greenville
    County.
  place: '4566580'
  geo: {lat: 34.74593, lng: -82.19406}
  phone: (864) 452-0208
  external_ids: {usda_master: Cycle 02_SC_SSO_0122}
  sources:
  - usda/summer-meal-sites
  verified: {'on': '2026-07-19', method: api}
- id: sc/simpsonville/rudolph-gordan-elementary
  name: Rudolph Gordan Elementary
  categories:
  - meal-program
  address: {street: 1507 Scuffletown Rd, city: Simpsonville, state: sc, zip: '29681'}
  description: Free summer meals for kids and teens (2026 season) — sponsored by School District of Greenville
    County.
  place: '4566580'
  geo: {lat: 34.74593, lng: -82.19406}
  phone: (864) 452-0208
  external_ids: {usda_master: Cycle 02_SC_SSO_0123}
  sources:
  - usda/summer-meal-sites
  verified: {'on': '2026-07-19', method: api}
- id: sc/simpsonville/rudolph-gordon-middle
  name: Rudolph Gordon Middle
  categories:
  - meal-program
  address: {street: 1507 Scuffletown Rd, city: Simpsonville, state: sc, zip: '29681'}
  description: Free summer meals for kids and teens (2026 season) — sponsored by School District of Greenville
    County.
  place: '4566580'
  geo: {lat: 34.74593, lng: -82.19406}
  phone: (864) 452-0208
  external_ids: {usda_master: Cycle 02_SC_SSO_0124}
  sources:
  - usda/summer-meal-sites
  verified: {'on': '2026-07-19', method: api}
- id: sc/simpsonville/simpsonville-blessing-box
  name: Simpsonville Blessing Box
  categories:
  - food-pantry
  place: '4566580'
  geo:
    lat: 34.71086
    lng: -82.30675
  external_ids:
    lfp: '1249'
  sources:
  - littlefreepantry/map
  verified:
    'on': '2026-07-19'
    method: scrape
- id: sc/simpsonville/temple-baptist-church-blessing-box
  name: Temple Baptist Church Blessing Box
  categories:
  - food-pantry
  place: '4566580'
  geo:
    lat: 34.73628
    lng: -82.25763
  external_ids:
    lfp: '5335'
  sources:
  - littlefreepantry/map
  verified:
    'on': '2026-07-19'
    method: scrape
- id: sc/simpsonville/the-daycare-doctor
  name: The Daycare Doctor
  categories:
  - meal-program
  address: {street: 3540 Woodruff Road, city: Simpsonville, state: sc, zip: '29681'}
  description: Free summer meals for kids and teens (2026 season) — sponsored by Upstate Circle of Friends.
  place: '4566580'
  geo: {lat: 34.79365, lng: -82.19573}
  phone: (864) 486-4305
  external_ids: {usda_master: Cycle 02_SC_SFSP_0144}
  sources:
  - usda/summer-meal-sites
  verified: {'on': '2026-07-19', method: api}
