- id: sc/simpsonville/ascent-recovery-solutions
  name: Ascent Recovery Solutions
  categories:
  - su-treatment
  address:
    street: 634 Fairview Road
    city: Simpsonville
    state: sc
    zip: '29680'
  place: '4566580'
  geo:
    lat: 34.71303
    lng: -82.25797
  phone: 864-228-7788
  website: https://ascentrecoverysolutions.com
  sources:
  - samhsa/findtreatment
  verified:
    'on': '2026-07-19'
    method: api
- id: sc/simpsonville/golden-strip-center
  name: Golden Strip Center
  categories:
  - child-care
  address:
    street: 1120 Howard Dr
    city: Simpsonville
    state: sc
    zip: '29681'
  place: '4566580'
  geo:
    lat: 34.71696
    lng: -82.21782
  phone: 864-967-2022
  sources:
  - acf/head-start-locations
  verified:
    'on': '2026-07-19'
    method: api
- id: sc/simpsonville/greater-greenville-mental-health-simpsonville-cl
  name: Greater Greenville Mental Health Simpsonville Clinic
  categories:
  - su-treatment
  - mh-treatment
  address:
    street: 20 Powderhorn Road
    city: Simpsonville
    state: sc
    zip: '29681'
  place: '4566580'
  geo:
    lat: 34.7221
    lng: -82.24948
  phone: 864-963-3421
  website: https://www.greatergreenvillemhc.com
  sources:
  - samhsa/findtreatment
  verified:
    'on': '2026-07-19'
    method: api
- id: sc/simpsonville/simpsonville-blessing-box
  name: Simpsonville Blessing Box
  categories:
  - food-pantry
  place: '4566580'
  geo:
    lat: 34.71086
    lng: -82.30675
  external_ids:
    lfp: '1249'
  sources:
  - littlefreepantry/map
  verified:
    'on': '2026-07-19'
    method: scrape
- id: sc/simpsonville/temple-baptist-church-blessing-box
  name: Temple Baptist Church Blessing Box
  categories:
  - food-pantry
  place: '4566580'
  geo:
    lat: 34.73628
    lng: -82.25763
  external_ids:
    lfp: '5335'
  sources:
  - littlefreepantry/map
  verified:
    'on': '2026-07-19'
    method: scrape
