- id: sc/st-stephen/betty-s-daycare
  name: Betty's Daycare
  categories:
  - child-care
  address: {street: 122 Elm St, city: Saint Stephen, state: sc, zip: '29479'}
  description: Head Start early childhood program — 24 funded slots; operated by South Carolina Association
    of Community Action Partnerships.
  place: '4562755'
  geo: {lat: 33.39953, lng: -79.92074}
  phone: 843-567-2624
  sources:
  - acf/head-start-locations
  verified: {'on': '2026-07-19', method: api}
- id: sc/st-stephen/new-light-united-methodist-church
  name: New Light United Methodist Church
  org: sc/lowcountry-food-bank
  categories:
  - food-pantry
  address: {street: 1037 Russellville Road, city: St. Stephen, state: sc, zip: '29479'}
  place: '4562755'
  geo: {lat: 33.39981, lng: -79.92788}
  phone: 843-614-0891
  external_ids: {sc-lowcountry-food-bank: '730'}
  sources:
  - foodbank/sc-lowcountry-food-bank
  verified: {'on': '2026-07-21', method: api}
- id: sc/st-stephen/refuge-temple-st-stephen
  name: Refuge Temple St. Stephen
  org: sc/lowcountry-food-bank
  categories:
  - food-pantry
  address: {street: 3674 N. Highway 52, city: St. Stephen, state: sc, zip: '29479'}
  place: '4562755'
  geo: {lat: 33.38985, lng: -79.92907}
  phone: 843-312-2325
  external_ids: {sc-lowcountry-food-bank: '724'}
  sources:
  - foodbank/sc-lowcountry-food-bank
  verified: {'on': '2026-07-21', method: api}
- id: sc/st-stephen/st-stephen-baptist-church
  name: St. Stephen Baptist Church
  org: sc/lowcountry-food-bank
  categories:
  - food-pantry
  address: {street: 272 Church Road, city: St Stephen, state: sc, zip: '29479'}
  place: '4562755'
  geo: {lat: 33.40499, lng: -79.90986}
  phone: 843-567-3656
  external_ids: {sc-lowcountry-food-bank: '690'}
  sources:
  - foodbank/sc-lowcountry-food-bank
  verified: {'on': '2026-07-21', method: api}
- id: sc/st-stephen/st-stephen-elementary
  name: St. Stephen Elementary
  categories:
  - child-care
  address: {street: 1053 Russellville Rd, city: Saint Stephen, state: sc, zip: '29479'}
  description: Head Start early childhood program — 17 funded slots; operated by Berkeley County School
    District.
  place: '4562755'
  geo: {lat: 33.39734, lng: -79.92914}
  phone: 843-899-5048
  sources:
  - acf/head-start-locations
  verified: {'on': '2026-07-19', method: api}
- id: sc/st-stephen/st-stephen-elementary-2
  name: St Stephen Elementary
  categories:
  - meal-program
  address: {street: 1053 Russellville Road, city: St Stephen, state: sc, zip: '29479'}
  description: Free summer meals for kids and teens (2026 season) — sponsored by Berkeley County.
  place: '4562755'
  geo: {lat: 33.39958, lng: -79.92902}
  phone: (843) 567-8154
  external_ids: {usda_master: Cycle 02_SC_SSO_0051}
  sources:
  - usda/summer-meal-sites
  verified: {'on': '2026-07-19', method: api}
- id: sc/st-stephen/st-stephen-elementary-3
  name: St. Stephen Elementary
  categories:
  - meal-program
  address: {street: 1053 Russellville Road, city: St. Stephen, state: sc, zip: '29479'}
  description: Free summer meals for kids and teens (2026 season) — sponsored by Berkeley County.
  place: '4562755'
  geo: {lat: 33.39958, lng: -79.92902}
  phone: (843) 567-8154
  external_ids: {usda_master: Cycle 06_SC_SSO_0030}
  sources:
  - usda/summer-meal-sites
  verified: {'on': '2026-07-19', method: api}
- id: sc/st-stephen/st-stephen-seventh-day-advent
  name: St. Stephen Seventh Day Advent
  org: sc/lowcountry-food-bank
  categories:
  - food-pantry
  address: {street: 1167 Forty-One Rd, city: St Stephen, state: sc, zip: '29479'}
  place: '4562755'
  geo: {lat: 33.34318, lng: -79.92942}
  phone: 843-530-2040
  external_ids: {sc-lowcountry-food-bank: '691'}
  sources:
  - foodbank/sc-lowcountry-food-bank
  verified: {'on': '2026-07-21', method: api}
- id: sc/st-stephen/sumter-free-health-clinic
  name: Sumter Free Health Clinic
  categories:
  - free-clinic
  - health
  address: {street: 1083 N State Hwy 35, city: Saint Stephen, state: sc, zip: '29479'}
  geo: {lat: 33.35462, lng: -79.95761}
  place: '4562755'
  phone: 843-825-3550
  cost: free
  external_ids: {nafc: sumter-free-health-clinic}
  sources:
  - nafc/find-a-clinic
  verified: {'on': '2026-07-21', method: scrape}
