- id: sc/york/affinity-health-center-york
  name: Affinity Health Center- York
  categories:
  - community-health-center
  address:
    street: 37 Pinckney St
    city: York
    state: sc
    zip: '29745'
  place: '4579630'
  geo:
    lat: 34.98437
    lng: -81.24761
  phone: 803-909-6363
  external_ids:
    bphc: BPS-H80-015697
  sources:
  - hrsa/health-center-sites
  verified:
    'on': '2026-07-19'
    method: api
- id: sc/york/girl-scout-troop-319-blessing-box-fascinating-rh
  name: Girl Scout Troop 319 Blessing Box - Fascinating Rhythm Dance
  categories:
  - food-pantry
  place: '4579630'
  geo:
    lat: 34.98417
    lng: -81.22223
  external_ids:
    lfp: '545'
  sources:
  - littlefreepantry/map
  verified:
    'on': '2026-07-19'
    method: scrape
- id: sc/york/girl-scout-troop-319-blessing-box-path
  name: Girl Scout Troop 319 Blessing Box - PATH
  categories:
  - food-pantry
  place: '4579630'
  geo:
    lat: 34.99712
    lng: -81.23718
  external_ids:
    lfp: '544'
  sources:
  - littlefreepantry/map
  verified:
    'on': '2026-07-19'
    method: scrape
- id: sc/york/girl-scout-troop-319-blessing-box-york-public-li
  name: Girl Scout Troop 319 Blessing Box - York Public Library
  categories:
  - food-pantry
  place: '4579630'
  geo:
    lat: 34.99381
    lng: -81.24053
  external_ids:
    lfp: '543'
  sources:
  - littlefreepantry/map
  verified:
    'on': '2026-07-19'
    method: scrape
- id: sc/york/housing-authority-of-york
  name: Housing Authority Of York
  categories:
  - housing-assistance
  address: {street: 221 California St, city: York, state: sc, zip: '29745'}
  description: Public housing and Housing Choice Voucher agency
  place: '4579630'
  geo: {lat: 34.99065, lng: -81.24742}
  phone: 803-684-7359
  sources:
  - hud/resource-locator
  verified: {'on': '2026-07-19', method: api}
- id: sc/york/york-head-start
  name: York Head Start
  categories:
  - child-care
  address:
    street: 37 Pinckney St
    city: York
    state: sc
    zip: '29745'
  place: '4579630'
  geo:
    lat: 34.98499
    lng: -81.24786
  phone: 803-684-2093
  sources:
  - acf/head-start-locations
  verified:
    'on': '2026-07-19'
    method: api
- id: sc/york/york-middle-school
  name: York Middle School
  categories:
  - community-health-center
  address:
    street: 1010 Devinney Rd
    city: York
    state: sc
    zip: '29745'
  place: '4579630'
  geo:
    lat: 34.9675
    lng: -81.23855
  phone: 803-909-6363
  website: https://www.affinityhealthcenter.org
  external_ids:
    bphc: BPS-H80-034971
  sources:
  - hrsa/health-center-sites
  verified:
    'on': '2026-07-19'
    method: api
- id: sc/york/york-sc-community-fridge
  name: York SC Community Fridge
  place: '4579630'
  geo:
    lat: 34.9943
    lng: -81.24202
  provisional: true
  sources:
  - mutualaidhub/firestore
  verified:
    'on': '2026-07-19'
    method: api
  categories:
  - community-fridge
