- id: mn/bemidji/bemidji-head-start-and-early-head-start
  name: Bemidji Head Start and Early Head Start
  categories:
  - child-care
  address:
    street: 1601 Conifer Ave NW
    city: Bemidji
    state: mn
    zip: '56601'
  place: '2705068'
  geo:
    lat: 47.48452
    lng: -94.91836
  phone: 218-333-9864
  sources:
  - acf/head-start-locations
  verified:
    'on': '2026-07-19'
    method: api
- id: mn/bemidji/hra-of-bemidji-minnesota
  name: Hra Of Bemidji, Minnesota
  categories:
  - housing-assistance
  address: {street: 619 America Ave NW, city: Bemidji, state: mn, zip: '56601'}
  description: Public housing and Housing Choice Voucher agency
  place: '2705068'
  geo: {lat: 47.47421, lng: -94.88453}
  phone: 218-444-4522
  sources:
  - hud/resource-locator
  verified: {'on': '2026-07-19', method: api}
- id: mn/bemidji/jw-smith-elementary-head-start-collab
  name: JW Smith Elementary Head Start Collab
  categories:
  - child-care
  address:
    street: 1712 America Ave NW
    city: Bemidji
    state: mn
    zip: '56601'
  place: '2705068'
  geo:
    lat: 47.48573
    lng: -94.8832
  phone: 218-218-9873
  sources:
  - acf/head-start-locations
  verified:
    'on': '2026-07-19'
    method: api
- id: mn/bemidji/north-homes-children-and-family-servs
  name: North Homes Children and Family Servs
  categories:
  - su-treatment
  address:
    street: 4225 Technology Drive NW
    city: Bemidji
    state: mn
    zip: '56601'
  place: '2705068'
  geo:
    lat: 47.51078
    lng: -94.90929
  phone: 218-751-0282
  website: https://www.northhomes.org
  sources:
  - samhsa/findtreatment
  verified:
    'on': '2026-07-19'
    method: api
- id: mn/bemidji/northern-mn-addiction-wellness-center
  name: Northern MN Addiction Wellness Center
  categories:
  - su-treatment
  address:
    street: 4851 Stacy Ann Drive NW
    city: Bemidji
    state: mn
    zip: '56601'
  place: '2705068'
  geo:
    lat: 47.51583
    lng: -94.99504
  phone: 218-308-8600
  website: https://www.nmawcenter.com
  sources:
  - samhsa/findtreatment
  verified:
    'on': '2026-07-19'
    method: api
- id: mn/bemidji/oshki-manidoo-adult-outpatient-program
  name: Oshki Manidoo Adult Outpatient Program
  categories:
  - su-treatment
  address:
    street: 1741 15th Street NW
    city: Bemidji
    state: mn
    zip: '56601'
  place: '2705068'
  phone: 218-751-6553
  website: https://whiteearth.com
  sources:
  - samhsa/findtreatment
  verified:
    'on': '2026-07-19'
    method: api
- id: mn/bemidji/oshki-manidoo-center
  name: Oshki Manidoo Center
  categories:
  - su-treatment
  address:
    street: 1741 15th Street NW
    city: Bemidji
    state: mn
    zip: '56601'
  place: '2705068'
  geo:
    lat: 47.48358
    lng: -94.90518
  phone: 218-751-6553 x6261
  website: https://whiteearth.com
  sources:
  - samhsa/findtreatment
  verified:
    'on': '2026-07-19'
    method: api
- id: mn/bemidji/sagent-behavioral-health
  name: Sagent Behavioral Health
  categories:
  - su-treatment
  - mh-treatment
  address:
    street: 112 1st Street West
    city: Bemidji
    state: mn
    zip: '56601'
  place: '2705068'
  geo:
    lat: 47.46836
    lng: -94.88058
  phone: 218-888-8032
  website: https://www.sagentbh.com
  sources:
  - samhsa/findtreatment
  verified:
    'on': '2026-07-19'
    method: api
- id: mn/bemidji/sanford-health-behavioral-health
  name: Sanford Health Behavioral Health
  categories:
  - su-treatment
  - mh-treatment
  address:
    street: 1705 Anne Street NW
    city: Bemidji
    state: mn
    zip: '56601'
  place: '2705068'
  geo:
    lat: 47.50577
    lng: -94.90517
  phone: 218-333-2035
  website: https://www.sanfordhealth.org
  sources:
  - samhsa/findtreatment
  verified:
    'on': '2026-07-19'
    method: api
