- id: mn/cloquet/fond-du-lac-early-head-start
  name: Fond Du Lac Early Head Start
  categories:
  - child-care
  address:
    street: 1720 Big Lake Rd
    city: Cloquet
    state: mn
    zip: '55720'
  place: '2712160'
  geo:
    lat: 46.71208
    lng: -92.51354
  phone: 218-878-8100
  sources:
  - acf/head-start-locations
  verified:
    'on': '2026-07-19'
    method: api
- id: mn/cloquet/fond-du-lac-head-start
  name: Fond du Lac Head Start
  categories:
  - child-care
  address:
    street: 33 University Rd
    street2: 1720 Big Lake Road
    city: Cloquet
    state: mn
    zip: '55720'
  place: '2712160'
  geo:
    lat: 46.71313
    lng: -92.51325
  phone: 218-878-8107
  sources:
  - acf/head-start-locations
  verified:
    'on': '2026-07-19'
    method: api
- id: mn/cloquet/fond-du-lac-human-services-mino-wii-jii-win-adol
  name: Fond du Lac Human Services Mino Wii Jii Win Adolescent Outpt
  categories:
  - su-treatment
  - mh-treatment
  address:
    street: 61 Marigold Lane
    city: Cloquet
    state: mn
    zip: '55720'
  place: '2712160'
  geo:
    lat: 46.70984
    lng: -92.49458
  phone: 218-879-3858
  website: https://www.fdlband.org
  sources:
  - samhsa/findtreatment
  verified:
    'on': '2026-07-19'
    method: api
- id: mn/cloquet/fond-du-lac-human-services-tagwii-recovery-cente
  name: Fond du Lac Human Services Tagwii Recovery Center
  categories:
  - su-treatment
  - mh-treatment
  address:
    street: 80 Marigold Lane
    city: Cloquet
    state: mn
    zip: '55720'
  place: '2712160'
  geo:
    lat: 46.70861
    lng: -92.49369
  phone: 218-878-3858
  website: https://www.fdlband.org
  sources:
  - samhsa/findtreatment
  verified:
    'on': '2026-07-19'
    method: api
- id: mn/cloquet/haven-in-cloquet
  name: Haven in Cloquet
  categories:
  - su-treatment
  address:
    street: 1003 Cloquet Avenue
    city: Cloquet
    state: mn
    zip: '55720'
  place: '2712160'
  geo:
    lat: 46.72179
    lng: -92.45339
  phone: 651-734-9633
  website: https://www.havensmn.com
  sources:
  - samhsa/findtreatment
  verified:
    'on': '2026-07-19'
    method: api
- id: mn/cloquet/hra-of-cloquet-minnesota
  name: Hra Of Cloquet, Minnesota
  categories:
  - housing-assistance
  address: {street: 950 14th St, city: Cloquet, state: mn, zip: '55720'}
  description: Public housing and Housing Choice Voucher agency
  place: '2712160'
  geo: {lat: 46.70926, lng: -92.44888}
  phone: 218-879-3353
  sources:
  - hud/resource-locator
  verified: {'on': '2026-07-19', method: api}
- id: mn/cloquet/human-development-center
  name: Human Development Center
  categories:
  - su-treatment
  - mh-treatment
  address:
    street: 40 11th Street
    city: Cloquet
    state: mn
    zip: '55720'
  place: '2712160'
  geo:
    lat: 46.72002
    lng: -92.45229
  phone: 218-879-4559
  website: https://www.hdcnorth.org
  sources:
  - samhsa/findtreatment
  verified:
    'on': '2026-07-19'
    method: api
- id: mn/cloquet/lakes-and-pines-head-start-cloquet
  name: Lakes and Pines Head Start Cloquet
  categories:
  - child-care
  address:
    street: 1418 Doddridge Ave
    city: Cloquet
    state: mn
    zip: '55720'
  place: '2712160'
  geo:
    lat: 46.71239
    lng: -92.44816
  phone: 320-679-1800
  sources:
  - acf/head-start-locations
  verified:
    'on': '2026-07-19'
    method: api
- id: mn/cloquet/mash-ka-wisen-treatment-center
  name: Mash Ka Wisen Treatment Center
  categories:
  - su-treatment
  address:
    street: 1150 Mission Road
    city: Cloquet
    state: mn
    zip: '55720'
  place: '2712160'
  geo:
    lat: 46.6878
    lng: -92.63739
  phone: 218-879-6731
  website: https://www.mashkawisen.com
  sources:
  - samhsa/findtreatment
  verified:
    'on': '2026-07-19'
    method: api
- id: mn/cloquet/pioneer-recovery-center
  name: Pioneer Recovery Center
  categories:
  - su-treatment
  address:
    street: 241 Highway 33 North
    city: Cloquet
    state: mn
    zip: '55720'
  place: '2712160'
  geo:
    lat: 46.74263
    lng: -92.46234
  phone: 218-879-6844
  website: https://www.pioneerrecoverycenter.net
  sources:
  - samhsa/findtreatment
  verified:
    'on': '2026-07-19'
    method: api
- id: mn/cloquet/webmed-mental-health-services-cloquet
  name: WebMed Mental Health Services Cloquet
  categories:
  - su-treatment
  - mh-treatment
  address:
    street: 1001 Avenue B
    city: Cloquet
    state: mn
    zip: '55720'
  place: '2712160'
  geo:
    lat: 46.72301
    lng: -92.45307
  phone: 218-310-8896
  website: https://www.webmedmn.com
  sources:
  - samhsa/findtreatment
  verified:
    'on': '2026-07-19'
    method: api
