- id: mn/eagan/all-saints-lutheran-church
  name: All Saints Lutheran Church
  categories:
  - food-pantry
  place: '2717288'
  geo:
    lat: 44.81863
    lng: -93.14617
  external_ids:
    lfp: '2844'
  sources:
  - littlefreepantry/map
  verified:
    'on': '2026-07-19'
    method: scrape
- id: mn/eagan/all-saints-lutheran-church-2
  name: All Saints Lutheran Church
  categories:
  - food-pantry
  place: '2717288'
  geo:
    lat: 44.81863
    lng: -93.14617
  external_ids:
    lfp: '2806'
  sources:
  - littlefreepantry/map
  verified:
    'on': '2026-07-19'
    method: scrape
- id: mn/eagan/dakota-county-cda
  name: Dakota County Cda
  categories:
  - housing-assistance
  address: {street: 1228 Town Centre Dr, city: Eagan, state: mn, zip: '55123'}
  description: Public housing and Housing Choice Voucher agency
  place: '2717288'
  geo: {lat: 44.83168, lng: -93.15654}
  phone: 651-675-4400
  sources:
  - hud/resource-locator
  verified: {'on': '2026-07-19', method: api}
- id: mn/eagan/eagan-coachman-head-start
  name: Eagan Coachman Head Start
  categories:
  - child-care
  address:
    street: 3370 Coachman Rd
    city: Eagan
    state: mn
    zip: '55121'
  place: '2717288'
  geo:
    lat: 44.83514
    lng: -93.1793
  phone: 651-322-3536
  sources:
  - acf/head-start-locations
  verified:
    'on': '2026-07-19'
    method: api
- id: mn/eagan/eagan-opperman-head-start
  name: Eagan Opperman Head Start
  categories:
  - child-care
  address:
    street: 550 Opperman Dr
    city: Eagan
    state: mn
    zip: '55123'
  place: '2717288'
  geo:
    lat: 44.82726
    lng: -93.10837
  phone: 651-306-7526
  sources:
  - acf/head-start-locations
  verified:
    'on': '2026-07-19'
    method: api
- id: mn/eagan/people-first-pantry-eagan
  name: People First Pantry - Eagan
  categories:
  - food-pantry
  place: '2717288'
  geo:
    lat: 44.81939
    lng: -93.16781
  external_ids:
    lfp: '3827'
  sources:
  - littlefreepantry/map
  verified:
    'on': '2026-07-19'
    method: scrape
