- id: mn/eagan/all-saints-lutheran-church
  name: All Saints Lutheran Church
  categories:
  - food-pantry
  place: '2717288'
  geo:
    lat: 44.81863
    lng: -93.14617
  website: https://mapping.littlefreepantry.org/pantry/2844
  external_ids:
    lfp: '2844'
  sources:
  - littlefreepantry/map
  verified:
    'on': '2026-07-19'
    method: scrape
- id: mn/eagan/all-saints-lutheran-church-2
  name: All Saints Lutheran Church
  categories:
  - food-pantry
  place: '2717288'
  geo:
    lat: 44.81863
    lng: -93.14617
  website: https://mapping.littlefreepantry.org/pantry/2806
  external_ids:
    lfp: '2806'
  sources:
  - littlefreepantry/map
  verified:
    'on': '2026-07-19'
    method: scrape
- id: mn/eagan/dakota-county-cda
  name: Dakota County Cda
  categories:
  - housing-assistance
  address:
    street: 1228 Town Centre Dr
    city: Eagan
    state: mn
    zip: '55123'
  description: Public housing and Housing Choice Voucher agency
  place: '2717288'
  geo:
    lat: 44.83168
    lng: -93.15654
  phone: 651-675-4400
  sources:
  - hud/resource-locator
  verified:
    'on': '2026-07-19'
    method: api
- id: mn/eagan/eagan-coachman-head-start
  name: Eagan Coachman Head Start
  categories:
  - child-care
  address: {street: 3370 Coachman Rd, city: Eagan, state: mn, zip: '55121'}
  description: Head Start early childhood program — 18 funded slots; operated by Scott-Carver-Dakota CAP
    Agency, Inc..
  place: '2717288'
  geo: {lat: 44.83514, lng: -93.1793}
  phone: 651-322-3536
  sources:
  - acf/head-start-locations
  verified: {'on': '2026-07-19', method: api}
- id: mn/eagan/eagan-opperman-head-start
  name: Eagan Opperman Head Start
  categories:
  - child-care
  address: {street: 550 Opperman Dr, city: Eagan, state: mn, zip: '55123'}
  description: Head Start early childhood program — 18 funded slots; operated by Scott-Carver-Dakota CAP
    Agency, Inc..
  place: '2717288'
  geo: {lat: 44.82726, lng: -93.10837}
  phone: 651-306-7526
  sources:
  - acf/head-start-locations
  verified: {'on': '2026-07-19', method: api}
- id: mn/eagan/oak-ridge-elementary
  name: Oak Ridge Elementary
  categories:
  - meal-program
  address:
    street: 4350 Johnny Cake Ridge Rd
    city: Eagan
    state: mn
    zip: '55122'
  description: 'Free summer meals for kids and teens (2026 season) — sponsored by Rosemount ISD #196.'
  place: '2717288'
  geo:
    lat: 44.79981
    lng: -93.18592
  phone: (651) 683-6975
  external_ids:
    usda_master: Cycle 03_MN_SFSP_0008
  sources:
  - usda/summer-meal-sites
  verified:
    'on': '2026-07-19'
    method: api
- id: mn/eagan/people-first-pantry-eagan
  name: People First Pantry - Eagan
  categories:
  - food-pantry
  place: '2717288'
  geo:
    lat: 44.81939
    lng: -93.16781
  website: https://mapping.littlefreepantry.org/pantry/3827
  external_ids:
    lfp: '3827'
  sources:
  - littlefreepantry/map
  verified:
    'on': '2026-07-19'
    method: scrape
- id: mn/eagan/pilot-knob-elementary
  name: Pilot Knob Elementary
  categories:
  - meal-program
  address:
    street: 1436 Lone Oak Rd
    city: Eagan
    state: mn
    zip: '55121'
  description: 'Free summer meals for kids and teens (2026 season) — sponsored by West St Paul ISD #197.'
  place: '2717288'
  geo:
    lat: 44.84793
    lng: -93.17107
  phone: (651) 403-7311
  external_ids:
    usda_master: Cycle 02_MN_SFSP_0035
  sources:
  - usda/summer-meal-sites
  verified:
    'on': '2026-07-19'
    method: api
- id: mn/eagan/quarry-park
  name: Quarry Park
  categories:
  - meal-program
  address:
    street: 3340 Coachman Road
    city: Eagan
    state: mn
    zip: '55121'
  description: 'Free summer meals for kids and teens (2026 season) — sponsored by West St Paul ISD #197.'
  place: '2717288'
  geo:
    lat: 44.83628
    lng: -93.17989
  phone: (651) 403-7311
  external_ids:
    usda_master: Cycle 02_MN_SFSP_0041
  sources:
  - usda/summer-meal-sites
  verified:
    'on': '2026-07-19'
    method: api
- id: mn/eagan/thomas-lake-elementary
  name: Thomas Lake Elementary
  categories:
  - meal-program
  address:
    street: 4350 Thomas Lake Rd
    city: Eagan
    state: mn
    zip: '55122'
  description: 'Free summer meals for kids and teens (2026 season) — sponsored by Rosemount ISD #196.'
  place: '2717288'
  geo:
    lat: 44.79889
    lng: -93.17518
  phone: (651) 683-6956
  external_ids:
    usda_master: Cycle 03_MN_SFSP_0006
  sources:
  - usda/summer-meal-sites
  verified:
    'on': '2026-07-19'
    method: api
- id: mn/eagan/twin-cities-vet-center
  name: Twin Cities Vet Center
  categories:
  - vet-center
  address:
    street: 2113 Cliff Drive, Suite 100
    city: Eagan
    state: mn
    zip: '55122'
  place: '2717288'
  geo:
    lat: 44.79147
    lng: -93.21644
  phone: 612-243-7920
  website: https://www.va.gov/st-paul-vet-center/
  hours:
  - days:
    - mon
    - tue
    - wed
    - thu
    - fri
    open: 08:00
    close: '16:30'
  services:
  - Addiction and substance use care
  - Community engagement
  - Couples and family counseling
  - Grief and bereavement counseling
  - Military sexual trauma care
  - PTSD care
  - Returning service member care
  - Suicide prevention
  - Veteran connections
  - Whole health
  external_ids:
    va: vc_0416V
  sources:
  - va/facilities-api
  verified:
    'on': '2026-07-19'
    method: api
