- id: mn/monticello/central-minnesota-mental-health-center-monticell
  name: Central Minnesota Mental Health Center Monticello
  categories:
  - su-treatment
  - mh-treatment
  address:
    street: 407 Washington Street
    city: Monticello
    state: mn
    zip: '55362'
  place: '2743774'
  geo:
    lat: 45.29987
    lng: -93.78613
  phone: 763-888-9626
  website: https://www.cmmhc.org
  sources:
  - samhsa/findtreatment
  verified:
    'on': '2026-07-19'
    method: api
- id: mn/monticello/monticello
  name: Monticello
  categories:
  - child-care
  address:
    street: 9375 Fenning Ave NE
    street2: Eastview Education Center
    city: Monticello
    state: mn
    zip: '55362'
  place: '2743774'
  geo:
    lat: 45.28671
    lng: -93.77206
  phone: 763-272-2922
  sources:
  - acf/head-start-locations
  verified:
    'on': '2026-07-19'
    method: api
- id: mn/monticello/monticello-2
  name: Monticello
  categories:
  - child-care
  address:
    street: 108 Thomas Cir
    city: Monticello
    state: mn
    zip: '55362'
  place: '2743774'
  geo:
    lat: 45.29682
    lng: -93.79392
  phone: 800-201-3460
  sources:
  - acf/head-start-locations
  verified:
    'on': '2026-07-19'
    method: api
- id: mn/monticello/newport-institute-young-adult-treatment
  name: Newport Institute Young Adult Treatment
  categories:
  - su-treatment
  - mh-treatment
  address:
    street: 123 90th Street NE
    city: Monticello
    state: mn
    zip: '55362'
  place: '2743774'
  geo:
    lat: 45.28054
    lng: -93.88706
  phone: 877-820-6371
  website: https://www.newportinstitute.com
  sources:
  - samhsa/findtreatment
  verified:
    'on': '2026-07-19'
    method: api
- id: mn/monticello/sobriety-first-treatment-center
  name: Sobriety First Treatment Center
  categories:
  - su-treatment
  address:
    street: 313 West Broadway Street
    city: Monticello
    state: mn
    zip: '55362'
  place: '2743774'
  geo:
    lat: 45.30701
    lng: -93.79725
  phone: 320-251-0035
  website: https://www.sobrietyfirstllc.com/
  sources:
  - samhsa/findtreatment
  verified:
    'on': '2026-07-19'
    method: api
