- id: mn/redwood-falls/hra-of-redwood-falls-minnesota
  name: Hra Of Redwood Falls, Minnesota
  categories:
  - housing-assistance
  address:
    street: 300 S Minnesota St
    city: Redwood Falls
    state: mn
    zip: '56283'
  description: Public housing (Low-Rent) agency
  place: '2753656'
  geo:
    lat: 44.53957
    lng: -95.12085
  phone: 507-637-2221
  sources:
  - hud/resource-locator
  verified:
    'on': '2026-07-19'
    method: api
- id: mn/redwood-falls/project-turnabout
  name: Project Turnabout
  categories:
  - su-treatment
  address:
    street: 410 East Bridge Street
    city: Redwood Falls
    state: mn
    zip: '56283'
  place: '2753656'
  geo:
    lat: 44.54102
    lng: -95.11365
  phone: 507-637-8783
  website: https://www.projectturnabout.org
  sources:
  - samhsa/findtreatment
  verified:
    'on': '2026-07-19'
    method: api
- id: mn/redwood-falls/redwood-falls
  name: Redwood Falls
  categories:
  - child-care
  address:
    street: 201 McPhail Dr
    city: Redwood Falls
    state: mn
    zip: '56283'
  place: '2753656'
  geo:
    lat: 44.53621
    lng: -95.10331
  phone: 320-235-0850
  sources:
  - acf/head-start-locations
  verified:
    'on': '2026-07-19'
    method: api
- id: mn/redwood-falls/redwood-falls-public-library
  name: Redwood Falls Public Library
  categories:
  - meal-program
  address:
    street: 509 South Lincoln St.
    city: Redwood Falls
    state: mn
    zip: '56283'
  description: 'Free summer meals for kids and teens (2026 season) — sponsored by Redwood Falls Area Schools
    ISD #2897.'
  place: '2753656'
  geo:
    lat: 44.53764
    lng: -95.11461
  phone: (507) 616-7421
  external_ids:
    usda_master: Cycle 06_MN_SFSP_0081
  sources:
  - usda/summer-meal-sites
  verified:
    'on': '2026-07-19'
    method: api
- id: mn/redwood-falls/redwood-valley-elementary
  name: Redwood Valley Elementary
  categories:
  - meal-program
  address:
    street: 201 Mcphail Dr
    city: Redwood Falls
    state: mn
    zip: '56283'
  description: 'Free summer meals for kids and teens (2026 season) — sponsored by Redwood Falls Area Schools
    ISD #2897.'
  place: '2753656'
  geo:
    lat: 44.53594
    lng: -95.10406
  phone: (507) 637-0155
  external_ids:
    usda_master: Cycle 06_MN_SFSP_0080
  sources:
  - usda/summer-meal-sites
  verified:
    'on': '2026-07-19'
    method: api
- id: mn/redwood-falls/renville-county-hra
  name: Renville County Hra
  categories:
  - housing-assistance
  address:
    street: 200 S Mill St
    city: Redwood Falls
    state: mn
    zip: '56283'
  description: Public housing and Housing Choice Voucher agency
  place: '2753656'
  geo:
    lat: 44.54049
    lng: -95.1198
  phone: 507-637-4004
  sources:
  - hud/resource-locator
  verified:
    'on': '2026-07-19'
    method: api
