- id: mn/tracy/hra-of-tracy-minnesota
  name: Hra Of Tracy, Minnesota
  categories:
  - housing-assistance
  address:
    street: 760 Morgan St
    city: Tracy
    state: mn
    zip: '56175'
  description: Public housing (Low-Rent) agency
  place: '2765308'
  geo:
    lat: 44.23606
    lng: -95.62593
  phone: 507-629-3160
  sources:
  - hud/resource-locator
  verified:
    'on': '2026-07-19'
    method: api
- id: mn/tracy/little-free-pantry
  name: Little Free Pantry
  categories:
  - food-pantry
  place: '2765308'
  geo:
    lat: 44.23238
    lng: -95.61732
  website: https://mapping.littlefreepantry.org/pantry/823
  external_ids:
    lfp: '823'
  sources:
  - littlefreepantry/map
  verified:
    'on': '2026-07-19'
    method: scrape
- id: mn/tracy/sebastian-park
  name: Sebastian Park
  categories:
  - meal-program
  address: {street: 321 Elm Street, city: Tracy, state: mn, zip: '56175'}
  description: 'Free summer meals for kids and teens (2026 season) — sponsored by Tracy Area Schools,
    ISD #2904.'
  place: '2765308'
  geo: {lat: 44.23417, lng: -95.60989}
  phone: (507) 629-5511
  external_ids: {usda_master: Cycle 02_MN_SFSP_0113}
  sources:
  - usda/summer-meal-sites
  verified: {'on': '2026-07-19', method: api}
- id: mn/tracy/tracy-elementary
  name: Tracy Elementary
  categories:
  - meal-program
  address: {street: 700 S 4Th St, city: Tracy, state: mn, zip: '56175'}
  description: 'Free summer meals for kids and teens (2026 season) — sponsored by Tracy Area Schools,
    ISD #2904.'
  place: '2765308'
  geo: {lat: 44.22475, lng: -95.62376}
  phone: (507) 629-5511
  external_ids: {usda_master: Cycle 02_MN_SFSP_0112}
  sources:
  - usda/summer-meal-sites
  verified: {'on': '2026-07-19', method: api}
- id: mn/tracy/tracy-head-start
  name: Tracy Head Start
  categories:
  - child-care
  address:
    street: 310 Pine St
    city: Tracy
    state: mn
    zip: '56175'
  place: '2765308'
  geo:
    lat: 44.22471
    lng: -95.62074
  phone: 320-235-0850
  sources:
  - acf/head-start-locations
  verified:
    'on': '2026-07-19'
    method: api
- id: mn/tracy/tracy-toddler
  name: Tracy Toddler
  categories:
  - child-care
  address:
    street: 243 Morgan St
    city: Tracy
    state: mn
    zip: '56175'
  place: '2765308'
  geo:
    lat: 44.23267
    lng: -95.61855
  sources:
  - acf/head-start-locations
  verified:
    'on': '2026-07-19'
    method: api
