- id: mn/willmar/bjorsell-park-ruralnc
  name: Bjorsell Park Ruralnc
  categories:
  - meal-program
  address:
    street: 415 Johanna Ave Se
    city: Willmar
    state: mn
    zip: '56201'
  description: 'Free summer meals for kids and teens (2026 season) — sponsored by Willmar ISD #347.'
  place: '2770420'
  geo:
    lat: 45.11779
    lng: -95.03789
  phone: (320) 231-8521
  external_ids:
    usda_master: Cycle 02_MN_SFSP_0075
  sources:
  - usda/summer-meal-sites
  verified:
    'on': '2026-07-19'
    method: api
- id: mn/willmar/centracare-rice-hospital-behavioral-health
  name: CentraCare Rice Hospital Behavioral Health
  categories:
  - mh-treatment
  address:
    street: 301 Becker Avenue SW
    city: Willmar
    state: mn
    zip: '56201'
  place: '2770420'
  geo:
    lat: 45.11999
    lng: -95.04609
  phone: 320-235-4543 x46439
  website: https://www.centracare.com
  sources:
  - samhsa/findtreatment
  verified:
    'on': '2026-07-19'
    method: api
- id: mn/willmar/child-adolescent-behavioral-health-hsp
  name: Child/Adolescent Behavioral Health Hsp
  categories:
  - su-treatment
  - mh-treatment
  address:
    street: 2301 Transportation Road NE
    city: Willmar
    state: mn
    zip: '56201'
  place: '2770420'
  geo:
    lat: 45.14598
    lng: -95.0073
  phone: 320-441-0120
  website: https://www.mn.gov/dhs/people-we-serve/adults/services/direct-care-treatment/programs-services/child-and
  sources:
  - samhsa/findtreatment
  verified:
    'on': '2026-07-19'
    method: api
- id: mn/willmar/civic-center-ruralnc
  name: Civic Center Ruralnc
  categories:
  - meal-program
  address:
    street: 2707 Arena Dr
    city: Willmar
    state: mn
    zip: '56201'
  description: 'Free summer meals for kids and teens (2026 season) — sponsored by Willmar ISD #347.'
  place: '2770420'
  geo:
    lat: 45.14875
    lng: -95.00649
  phone: (320) 231-8521
  external_ids:
    usda_master: Cycle 02_MN_SFSP_0074
  sources:
  - usda/summer-meal-sites
  verified:
    'on': '2026-07-19'
    method: api
- id: mn/willmar/community-health-service-inc-willmar
  name: Community Health Service Inc. - Willmar
  categories:
  - community-health-center
  address:
    street: 1804 Trott Ave SW
    city: Willmar
    state: mn
    zip: '56201'
  place: '2770420'
  geo:
    lat: 45.11828
    lng: -95.06746
  phone: 320-214-7286
  website: https://chsiclinics.org
  external_ids:
    bphc: BPS-H80-037657
  sources:
  - hrsa/health-center-sites
  verified:
    'on': '2026-07-19'
    method: api
- id: mn/willmar/creative-kids
  name: Creative Kids
  categories:
  - child-care
  address:
    street: 1234 Kandiyohi Ave SW
    city: Willmar
    state: mn
    zip: '56201'
  place: '2770420'
  geo:
    lat: 45.11483
    lng: -95.05847
  phone: 320-212-6754
  sources:
  - acf/head-start-locations
  verified:
    'on': '2026-07-19'
    method: api
- id: mn/willmar/dana-heights-somerset-ridge-ruralnc
  name: Dana Heights/Somerset Ridge Ruralnc
  categories:
  - meal-program
  address:
    street: 1300 Dana Drive Se
    city: Willmar
    state: mn
    zip: '56201'
  description: 'Free summer meals for kids and teens (2026 season) — sponsored by Willmar ISD #347.'
  place: '2770420'
  geo:
    lat: 45.1059
    lng: -95.0261
  phone: (320) 231-8521
  external_ids:
    usda_master: Cycle 02_MN_SFSP_0071
  sources:
  - usda/summer-meal-sites
  verified:
    'on': '2026-07-19'
    method: api
- id: mn/willmar/divine-hope-counseling
  name: Divine Hope Counseling
  categories:
  - su-treatment
  - mh-treatment
  address:
    street: 328 3rd Street SW
    city: Willmar
    state: mn
    zip: '56201'
  place: '2770420'
  geo:
    lat: 45.12081
    lng: -95.04669
  phone: 320-231-9763 x15
  website: https://www.divinehopecounseling.com/
  sources:
  - samhsa/findtreatment
  verified:
    'on': '2026-07-19'
    method: api
- id: mn/willmar/dorothy-olson-ruralnc
  name: Dorothy Olson Ruralnc
  categories:
  - meal-program
  address:
    street: 1978 15Th Ave Sw
    city: Willmar
    state: mn
    zip: '56201'
  description: 'Free summer meals for kids and teens (2026 season) — sponsored by Willmar ISD #347.'
  place: '2770420'
  geo:
    lat: 45.10709
    lng: -95.07084
  phone: (320) 231-8521
  external_ids:
    usda_master: Cycle 02_MN_SFSP_0072
  sources:
  - usda/summer-meal-sites
  verified:
    'on': '2026-07-19'
    method: api
- id: mn/willmar/gesch-park-ruralnc
  name: Gesch Park Ruralnc
  categories:
  - meal-program
  address:
    street: 12Th St Se And Olena Ave Se
    city: Willmar
    state: mn
    zip: '56201'
  description: 'Free summer meals for kids and teens (2026 season) — sponsored by Willmar ISD #347.'
  place: '2770420'
  geo:
    lat: 45.11403
    lng: -95.02815
  phone: (320) 231-8521
  external_ids:
    usda_master: Cycle 02_MN_SFSP_0066
  sources:
  - usda/summer-meal-sites
  verified:
    'on': '2026-07-19'
    method: api
- id: mn/willmar/greater-minnesota-family-services
  name: Greater Minnesota Family Services
  categories:
  - su-treatment
  - mh-treatment
  address:
    city: Willmar
    state: mn
    zip: '56201'
  place: '2770420'
  phone: 320-214-9692
  website: https://greaterminnesota.org
  sources:
  - samhsa/findtreatment
  verified:
    'on': '2026-07-19'
    method: api
- id: mn/willmar/jaycee-park-bria-s-playground-ruralnc
  name: Jaycee Park & Bria'S Playground Ruralnc
  categories:
  - meal-program
  address:
    street: 7Th St Nw & Ella Ave Nw
    city: Willmar
    state: mn
    zip: '56201'
  description: 'Free summer meals for kids and teens (2026 season) — sponsored by Willmar ISD #347.'
  place: '2770420'
  geo:
    lat: 45.12516
    lng: -95.05426
  phone: (320) 231-8521
  external_ids:
    usda_master: Cycle 02_MN_SFSP_0069
  sources:
  - usda/summer-meal-sites
  verified:
    'on': '2026-07-19'
    method: api
- id: mn/willmar/kandiyohi-county-hra
  name: Kandiyohi County Hra
  categories:
  - housing-assistance
  address:
    street: 2200 23rd St NE Ste 2090
    city: Willmar
    state: mn
    zip: '56201'
  description: Public housing and Housing Choice Voucher agency
  place: '2770420'
  geo:
    lat: 45.14709
    lng: -95.01592
  phone: 320-235-8637
  sources:
  - hud/resource-locator
  verified:
    'on': '2026-07-19'
    method: api
- id: mn/willmar/kathyrn-wagner-private-practice-recovery-4-today
  name: Kathyrn Wagner Private Practice Recovery 4 Today PLLC
  categories:
  - su-treatment
  address:
    street: 1700 Technology Drive
    city: Willmar
    state: mn
    zip: '56201'
  place: '2770420'
  geo:
    lat: 45.14162
    lng: -95.01872
  phone: 320-905-6152
  website: https://
  sources:
  - samhsa/findtreatment
  verified:
    'on': '2026-07-19'
    method: api
- id: mn/willmar/kennedy-elementary
  name: Kennedy Elementary
  categories:
  - meal-program
  address:
    street: 824 Sw 7Th St
    city: Willmar
    state: mn
    zip: '56201'
  description: 'Free summer meals for kids and teens (2026 season) — sponsored by Willmar ISD #347.'
  place: '2770420'
  geo:
    lat: 45.11475
    lng: -95.05083
  phone: (320) 231-8521
  external_ids:
    usda_master: Cycle 02_MN_SFSP_0062
  sources:
  - usda/summer-meal-sites
  verified:
    'on': '2026-07-19'
    method: api
- id: mn/willmar/mcleod-county-hra
  name: Mcleod County Hra
  categories:
  - housing-assistance
  address:
    street: 2200 23rd St NE Ste 2090
    city: Willmar
    state: mn
    zip: '56201'
  description: Housing Choice Voucher (Section 8) agency
  place: '2770420'
  geo:
    lat: 45.14709
    lng: -95.01592
  phone: 763-552-1447
  sources:
  - hud/resource-locator
  verified:
    'on': '2026-07-19'
    method: api
- id: mn/willmar/miller-park-ruralnc
  name: Miller Park Ruralnc
  categories:
  - meal-program
  address:
    street: 11Th St. Sw Kandiyohi Ave.
    city: Willmar
    state: mn
    zip: '56201'
  description: 'Free summer meals for kids and teens (2026 season) — sponsored by Willmar ISD #347.'
  place: '2770420'
  geo:
    lat: 45.11498
    lng: -95.05285
  phone: (320) 231-8521
  external_ids:
    usda_master: Cycle 02_MN_SFSP_0067
  sources:
  - usda/summer-meal-sites
  verified:
    'on': '2026-07-19'
    method: api
- id: mn/willmar/modern-mojo-llc
  name: Modern MOJO LLC
  categories:
  - su-treatment
  - mh-treatment
  address:
    street: 1708 1st Street South
    city: Willmar
    state: mn
    zip: '56201'
  place: '2770420'
  geo:
    lat: 45.10438
    lng: -95.04412
  phone: 218-999-7750 x2
  website: https://www.mhmojo.com/
  sources:
  - samhsa/findtreatment
  verified:
    'on': '2026-07-19'
    method: api
- id: mn/willmar/rice-park-willmar-ruralnc
  name: Rice Park - Willmar Ruralnc
  categories:
  - meal-program
  address:
    street: 200 Rice Ave Sw
    city: Willmar
    state: mn
    zip: '56201'
  description: 'Free summer meals for kids and teens (2026 season) — sponsored by Willmar ISD #347.'
  place: '2770420'
  geo:
    lat: 45.11496
    lng: -95.04444
  phone: (320) 231-8521
  external_ids:
    usda_master: Cycle 02_MN_SFSP_0068
  sources:
  - usda/summer-meal-sites
  verified:
    'on': '2026-07-19'
    method: api
- id: mn/willmar/robbin-s-island-rural-nc
  name: Robbin'S Island Rural Nc
  categories:
  - meal-program
  address:
    street: 945 Us-71 Bus
    city: Willmar
    state: mn
    zip: '56201'
  description: 'Free summer meals for kids and teens (2026 season) — sponsored by Willmar ISD #347.'
  place: '2770420'
  geo:
    lat: 45.11411
    lng: -95.04261
  phone: (320) 231-8521
  external_ids:
    usda_master: Cycle 02_MN_SFSP_0073
  sources:
  - usda/summer-meal-sites
  verified:
    'on': '2026-07-19'
    method: api
- id: mn/willmar/sagent-behavioral-health-wilmar
  name: Sagent Behavioral Health Wilmar
  categories:
  - su-treatment
  - mh-treatment
  address:
    street: 201 28th Avenue SW
    city: Willmar
    state: mn
    zip: '56201'
  place: '2770420'
  geo:
    lat: 45.09588
    lng: -95.04408
  phone: 320-389-0438
  website: https://www.sagentbh.com
  sources:
  - samhsa/findtreatment
  verified:
    'on': '2026-07-19'
    method: api
- id: mn/willmar/scandia-woods-ruralnc
  name: Scandia Woods Ruralnc
  categories:
  - meal-program
  address:
    street: 5Th St Sw And 15Th Ave Sw
    city: Willmar
    state: mn
    zip: '56201'
  description: 'Free summer meals for kids and teens (2026 season) — sponsored by Willmar ISD #347.'
  place: '2770420'
  geo:
    lat: 45.10699
    lng: -95.04678
  phone: (320) 231-8521
  external_ids:
    usda_master: Cycle 02_MN_SFSP_0065
  sources:
  - usda/summer-meal-sites
  verified:
    'on': '2026-07-19'
    method: api
- id: mn/willmar/sunwood-estates-willmar-ruralnc
  name: Sunwood Estates-Willmar Ruralnc
  categories:
  - meal-program
  address:
    street: 2601 15Th Ave Nw
    city: Willmar
    state: mn
    zip: '56201'
  description: 'Free summer meals for kids and teens (2026 season) — sponsored by Willmar ISD #347.'
  place: '2770420'
  geo:
    lat: 45.13953
    lng: -95.07881
  phone: (320) 231-8521
  external_ids:
    usda_master: Cycle 02_MN_SFSP_0070
  sources:
  - usda/summer-meal-sites
  verified:
    'on': '2026-07-19'
    method: api
- id: mn/willmar/willmar-area-learning-center
  name: Willmar Area Learning Center
  categories:
  - meal-program
  address:
    street: 512 8Th St Sw
    city: Willmar
    state: mn
    zip: '56201'
  description: 'Free summer meals for kids and teens (2026 season) — sponsored by Willmar ISD #347.'
  place: '2770420'
  geo:
    lat: 45.11822
    lng: -95.05318
  phone: (320) 231-8521
  external_ids:
    usda_master: Cycle 02_MN_SFSP_0064
  sources:
  - usda/summer-meal-sites
  verified:
    'on': '2026-07-19'
    method: api
- id: mn/willmar/willmar-head-start
  name: Willmar Head Start
  categories:
  - child-care
  address:
    street: 1311 Highway 71 NE
    city: Willmar
    state: mn
    zip: '56201'
  place: '2770420'
  geo:
    lat: 45.19278
    lng: -95.00815
  sources:
  - acf/head-start-locations
  verified:
    'on': '2026-07-19'
    method: api
- id: mn/willmar/willmar-senior-high
  name: Willmar Senior High
  categories:
  - meal-program
  address:
    street: 2701 30Th St Ne
    city: Willmar
    state: mn
    zip: '56201'
  description: 'Free summer meals for kids and teens (2026 season) — sponsored by Willmar ISD #347.'
  place: '2770420'
  geo:
    lat: 45.15254
    lng: -95.00168
  phone: (320) 231-8521
  external_ids:
    usda_master: Cycle 02_MN_SFSP_0063
  sources:
  - usda/summer-meal-sites
  verified:
    'on': '2026-07-19'
    method: api
- id: mn/willmar/woodland-centers-outpatient-chemical-dependency
  name: Woodland Centers Outpatient Chemical Dependency Trt
  categories:
  - su-treatment
  - mh-treatment
  address:
    street: 1125 6th Street SE
    city: Willmar
    state: mn
    zip: '56201'
  place: '2770420'
  geo:
    lat: 45.11127
    lng: -95.03496
  phone: 320-235-4613
  website: https://www.woodlandcenters.com
  sources:
  - samhsa/findtreatment
  verified:
    'on': '2026-07-19'
    method: api
- id: mn/willmar/woodland-centers-outpatient-substance-use-treatm
  name: Woodland Centers Outpatient Substance Use Treatment
  categories:
  - su-treatment
  - mh-treatment
  address:
    street: 1125 SE 6th Street
    city: Willmar
    state: mn
    zip: '56201'
  place: '2770420'
  geo:
    lat: 45.11121
    lng: -95.04802
  phone: 320-235-4613
  website: https://www.woodlandcenters.com
  sources:
  - samhsa/findtreatment
  verified:
    'on': '2026-07-19'
    method: api
