- id: mn/worthington/access-health-worthington
  name: Access Health - Worthington
  categories:
  - community-health-center
  address:
    street: 1216 Ryans Rd, Suite 3
    city: Worthington
    state: mn
    zip: '56187'
  place: '2771734'
  geo:
    lat: 43.63481
    lng: -95.59726
  phone: 507-372-2921
  website: https://www.ruralhc.net
  external_ids:
    bphc: BPS-H80-015016
  sources:
  - hrsa/health-center-sites
  verified:
    'on': '2026-07-19'
    method: api
- id: mn/worthington/elevacare-unity-house
  name: Elevacare Unity House
  categories:
  - su-treatment
  - mh-treatment
  address:
    street: 1215 4th Avenue
    city: Worthington
    state: mn
    zip: '56187'
  place: '2771734'
  geo:
    lat: 43.62249
    lng: -95.59458
  phone: 507-372-7671
  website: https://www.elevacare.org
  sources:
  - samhsa/findtreatment
  verified:
    'on': '2026-07-19'
    method: api
- id: mn/worthington/hra-of-worthington-minnesota
  name: Hra Of Worthington, Minnesota
  categories:
  - housing-assistance
  address: {street: 819 10th St, city: Worthington, state: mn, zip: '56187'}
  description: Public housing and Housing Choice Voucher agency
  place: '2771734'
  geo: {lat: 43.6236, lng: -95.60177}
  phone: 507-376-3655
  sources:
  - hud/resource-locator
  verified: {'on': '2026-07-19', method: api}
- id: mn/worthington/southwestern-mental-health-ctr-inc-dba-elevacare
  name: 'Southwestern Mental Health Ctr Inc DBA:  ElevaCare'
  categories:
  - su-treatment
  - mh-treatment
  address:
    street: 1210 5th Avenue
    city: Worthington
    state: mn
    zip: '56187'
  place: '2771734'
  geo:
    lat: 43.6225
    lng: -95.59533
  phone: 507-376-4141
  website: https://www.elevacare.org
  sources:
  - samhsa/findtreatment
  verified:
    'on': '2026-07-19'
    method: api
- id: mn/worthington/worthington-10th-ave-site
  name: Worthington 10th Ave Site
  categories:
  - child-care
  address:
    street: 713 10th St
    city: Worthington
    state: mn
    zip: '56187'
  place: '2771734'
  geo:
    lat: 43.62294
    lng: -95.60083
  phone: 507-343-2154
  sources:
  - acf/head-start-locations
  verified:
    'on': '2026-07-19'
    method: api
- id: mn/worthington/worthington-center
  name: Worthington Center
  categories:
  - child-care
  address:
    street: 1077 Pleasant Ave
    city: Worthington
    state: mn
    zip: '56187'
  place: '2771734'
  geo:
    lat: 43.60722
    lng: -95.61685
  phone: 507-727-1759
  sources:
  - acf/head-start-locations
  verified:
    'on': '2026-07-19'
    method: api
