- id: wv/elizabeth/wirt-county-family-care
  name: Wirt County Family Care
  categories:
  - community-health-center
  address:
    street: 483 Court St
    city: Elizabeth
    state: wv
    zip: '26143'
  place: '5424364'
  geo:
    lat: 39.05812
    lng: -81.39648
  phone: 304-275-3301
  external_ids:
    bphc: BPS-H80-002548
  sources:
  - hrsa/health-center-sites
  verified:
    'on': '2026-07-19'
    method: api
- id: wv/elizabeth/wirt-county-health-services-association-inc
  name: WIRT COUNTY HEALTH SERVICES ASSOCIATION, INC.
  categories:
  - community-health-center
  address:
    street: 483 Court St
    city: Elizabeth
    state: wv
    zip: '26143'
  place: '5424364'
  geo:
    lat: 39.05812
    lng: -81.39648
  phone: 304-275-8780
  external_ids:
    bphc: BPS-H80-003796
  sources:
  - hrsa/health-center-sites
  verified:
    'on': '2026-07-19'
    method: api
- id: wv/elizabeth/wirt-county-high-school
  name: Wirt County High School
  categories:
  - community-health-center
  address:
    street: 431 Mulberry St
    city: Elizabeth
    state: wv
    zip: '26143'
  place: '5424364'
  geo:
    lat: 39.06223
    lng: -81.39157
  phone: 304-275-4241
  external_ids:
    bphc: BPS-H80-036540
  sources:
  - hrsa/health-center-sites
  verified:
    'on': '2026-07-19'
    method: api
- id: wv/elizabeth/wirt-county-primary-center
  name: Wirt County Primary Center
  categories:
  - meal-program
  address: {street: 1008 Depot St, city: Elizabeth, state: wv, zip: '26143'}
  description: Free summer meals for kids and teens (2026 season) — sponsored by WIRT CO BD OF EDUCATION.
  place: '5424364'
  geo: {lat: 39.06254, lng: -81.39821}
  phone: (304) 275-4279
  external_ids: {usda_master: Cycle 07_WV_SFSP_0318}
  sources:
  - usda/summer-meal-sites
  verified: {'on': '2026-07-19', method: api}
- id: wv/elizabeth/wirt-county-primary-center-2
  name: Wirt County Primary Center
  categories:
  - meal-program
  address: {street: 1008 Depot Street, city: Elizabeth, state: wv, zip: '26143'}
  description: Free summer meals for kids and teens (2026 season) — sponsored by WIRT CO BD OF EDUCATION.
  place: '5424364'
  geo: {lat: 39.06254, lng: -81.39821}
  phone: (304) 275-4279
  external_ids: {usda_master: Cycle 07_WV_SFSP_0318}
  sources:
  - usda/summer-meal-sites
  verified: {'on': '2026-07-19', method: api}
- id: wv/elizabeth/wirt-county-primary-center-3
  name: Wirt County Primary Center
  categories:
  - meal-program
  address: {street: 438 Schoolview Street, city: Elizabeth, state: wv, zip: '26143'}
  description: Free summer meals for kids and teens (2026 season) — sponsored by WIRT CO BD OF EDUCATION.
  place: '5424364'
  geo: {lat: 39.058, lng: -81.39187}
  phone: (304) 275-4279
  external_ids: {usda_master: Cycle 07_WV_SFSP_0318}
  sources:
  - usda/summer-meal-sites
  verified: {'on': '2026-07-19', method: api}
- id: wv/elizabeth/wirt-county-primary-school
  name: Wirt County Primary School
  categories:
  - community-health-center
  address:
    street: 426 Schoolview St
    city: Elizabeth
    state: wv
    zip: '26143'
  place: '5424364'
  geo:
    lat: 39.05816
    lng: -81.39107
  phone: 304-275-3977
  external_ids:
    bphc: BPS-H80-036541
  sources:
  - hrsa/health-center-sites
  verified:
    'on': '2026-07-19'
    method: api
- id: wv/elizabeth/wirt-county-schools-wellness-center
  name: Wirt County Schools Wellness Center
  categories:
  - community-health-center
  address:
    street: 461 Schoolview St
    city: Elizabeth
    state: wv
    zip: '26143'
  place: '5424364'
  geo:
    lat: 39.05772
    lng: -81.39235
  phone: 304-275-3117
  external_ids:
    bphc: BPS-H80-003488
  sources:
  - hrsa/health-center-sites
  verified:
    'on': '2026-07-19'
    method: api
- id: wv/elizabeth/wirt-primary
  name: Wirt Primary
  categories:
  - child-care
  address:
    street: 438 Schoolview Street
    city: Elizabeth
    state: wv
    zip: '26143'
  place: '5424364'
  geo:
    lat: 39.05822
    lng: -81.39144
  phone: 304-275-4263
  sources:
  - acf/head-start-locations
  verified:
    'on': '2026-07-19'
    method: api
