- id: wv/gilbert/gilbert-health-center
  name: Gilbert Health Center
  categories:
  - community-health-center
  address:
    street: 2475 US 52
    city: Gilbert
    state: wv
    zip: '25621'
  place: '5430772'
  geo:
    lat: 37.61108
    lng: -81.87642
  phone: 304-664-8924
  website: https://www.williamsonhealthwellness.com
  external_ids:
    bphc: BPS-H80-024914
  sources:
  - hrsa/health-center-sites
  verified:
    'on': '2026-07-19'
    method: api
- id: wv/gilbert/gilbert-iii-head-start
  name: Gilbert III Head Start
  categories:
  - child-care
  address:
    street: 175 Rt 80
    city: Gilbert
    state: wv
    zip: '25621'
  place: '5430772'
  geo:
    lat: 37.61668
    lng: -81.86634
  phone: 304-664-8794
  sources:
  - acf/head-start-locations
  verified:
    'on': '2026-07-19'
    method: api
- id: wv/gilbert/gilbert-pre-k-head-start
  name: Gilbert Pre K Head Start
  categories:
  - child-care
  address:
    street: 21 Middle School Drive
    city: Gilbert
    state: wv
    zip: '25621'
  place: '5430772'
  geo:
    lat: 37.63589
    lng: -81.91156
  phone: 304-664-8473
  sources:
  - acf/head-start-locations
  verified:
    'on': '2026-07-19'
    method: api
- id: wv/gilbert/nc-gilbert-pre-k-8
  name: Nc - Gilbert Pre K-8
  categories:
  - meal-program
  address: {street: 1 Lion Country Way, city: Gilbert, state: wv, zip: '25621'}
  description: Free summer meals for kids and teens (2026 season) — sponsored by MINGO CO BD OF EDUCATION.
  place: '5430772'
  geo: {lat: 37.63557, lng: -81.91209}
  phone: (304) 235-7141
  external_ids: {usda_master: Cycle 02_WV_SFSP_0034}
  sources:
  - usda/summer-meal-sites
  verified: {'on': '2026-07-19', method: api}
- id: wv/gilbert/southern-west-virginia-health-system-gilbert
  name: Southern West Virginia Health System-Gilbert
  categories:
  - community-health-center
  address:
    street: 621 Larry Joe Harless Dr
    city: Gilbert
    state: wv
    zip: '25621'
  place: '5430772'
  geo:
    lat: 37.6114
    lng: -81.86423
  phone: 304-664-6270
  website: https://swvhs.org
  external_ids:
    bphc: BPS-H80-009404
  sources:
  - hrsa/health-center-sites
  verified:
    'on': '2026-07-19'
    method: api
