- id: wv/kenova/bison-child-development-center
  name: Bison Child Development Center
  categories:
  - meal-program
  address:
    street: 330 Buffalo Creek Road
    city: Kenova
    state: wv
    zip: '25530'
  description: Free summer meals for kids and teens (2026 season) — sponsored by Playmates Preschool &
    Child Care Ctr Inc..
  place: '5443180'
  geo:
    lat: 38.34909
    lng: -82.51481
  phone: (304) 429-3988
  external_ids:
    usda_master: Cycle 07_WV_SFSP_0228
  sources:
  - usda/summer-meal-sites
  verified:
    'on': '2026-07-19'
    method: api
- id: wv/kenova/buffalo-elementary
  name: Buffalo Elementary
  categories:
  - meal-program
  address:
    street: 331 Buffalo Creek Road
    city: Kenova
    state: wv
    zip: '25530'
  description: Free summer meals for kids and teens (2026 season) — sponsored by WAYNE CO BD OF EDUCATION.
  place: '5443180'
  geo:
    lat: 38.34878
    lng: -82.51569
  phone: (304) 429-2911
  external_ids:
    usda_master: Cycle 07_WV_SFSP_0298
  sources:
  - usda/summer-meal-sites
  verified:
    'on': '2026-07-19'
    method: api
- id: wv/kenova/buffalo-elementry-pre-k
  name: Buffalo Elementry Pre-K
  categories:
  - child-care
  address:
    street: 330 Buffalo Creek Rd
    city: Kenova
    state: wv
    zip: '25530'
  place: '5443180'
  geo:
    lat: 38.34803
    lng: -82.51742
  phone: 304-429-7278
  sources:
  - acf/head-start-locations
  verified:
    'on': '2026-07-19'
    method: api
- id: wv/kenova/buffalo-playmates-hs
  name: Buffalo Playmates HS
  categories:
  - child-care
  address:
    street: 330 Buffalo Creek Rd
    city: Kenova
    state: wv
    zip: '25530'
  place: '5443180'
  geo:
    lat: 38.34845
    lng: -82.51594
  phone: 304-429-3988
  sources:
  - acf/head-start-locations
  verified:
    'on': '2026-07-19'
    method: api
- id: wv/kenova/ceredo-kenova
  name: Ceredo-Kenova
  categories:
  - child-care
  address:
    street: 1 Wonder Ln
    city: Kenova
    state: wv
    zip: '25530'
  place: '5443180'
  geo:
    lat: 38.39897
    lng: -82.57821
  phone: 304-453-4048
  sources:
  - acf/head-start-locations
  verified:
    'on': '2026-07-19'
    method: api
- id: wv/kenova/ceredo-kenova-elementary
  name: Ceredo-Kenova Elementary
  categories:
  - meal-program
  address:
    street: '#1 Wonder Lane'
    city: Kenova
    state: wv
    zip: '25530'
  description: Free summer meals for kids and teens (2026 season) — sponsored by WAYNE CO BD OF EDUCATION.
  place: '5443180'
  geo:
    lat: 38.39961
    lng: -82.56817
  phone: (304) 453-1521
  external_ids:
    usda_master: Cycle 07_WV_SFSP_0299
  sources:
  - usda/summer-meal-sites
  verified:
    'on': '2026-07-19'
    method: api
- id: wv/kenova/playmates-child-care-center-site-i
  name: Playmates Child Care Center, Site I
  categories:
  - meal-program
  address:
    street: 725 Chestnut Street
    city: Kenova
    state: wv
    zip: '25530'
  description: Free summer meals for kids and teens (2026 season) — sponsored by Playmates Preschool &
    Child Care Ctr Inc..
  place: '5443180'
  geo:
    lat: 38.39633
    lng: -82.56839
  phone: (304) 453-4858
  external_ids:
    usda_master: Cycle 07_WV_SFSP_0230
  sources:
  - usda/summer-meal-sites
  verified:
    'on': '2026-07-19'
    method: api
