- id: wv/martinsburg/ambrose-park-street-corner
  name: Ambrose Park Street Corner
  categories:
  - food-pantry
  place: '5452060'
  geo:
    lat: 39.45285
    lng: -77.97991
  external_ids:
    lfp: '4071'
  sources:
  - littlefreepantry/map
  verified:
    'on': '2026-07-19'
    method: scrape
- id: wv/martinsburg/applegate-recovery-martinsburg
  name: AppleGate Recovery Martinsburg
  categories:
  - su-treatment
  address:
    street: 121 North College Street
    city: Martinsburg
    state: wv
    zip: '25401'
  place: '5452060'
  geo:
    lat: 39.45858
    lng: -77.96438
  phone: 304-701-4821
  website: https://applegaterecovery.com/locations/west-virginia/martinsburg/
  sources:
  - samhsa/findtreatment
  verified:
    'on': '2026-07-19'
    method: api
- id: wv/martinsburg/berkeley-heights
  name: Berkeley Heights
  categories:
  - child-care
  address:
    street: 750 Hack Wilson Way
    city: Martinsburg
    state: wv
    zip: '25401'
  place: '5452060'
  geo:
    lat: 39.44602
    lng: -77.96535
  phone: 304-263-6222
  sources:
  - acf/head-start-locations
  verified:
    'on': '2026-07-19'
    method: api
- id: wv/martinsburg/bmc-behavioral-health
  name: BMC Behavioral Health
  categories:
  - su-treatment
  - mh-treatment
  address:
    street: 2500 Hospital Drive
    city: Martinsburg
    state: wv
    zip: '25401'
  place: '5452060'
  geo:
    lat: 39.47667
    lng: -77.98011
  phone: 304-264-1000 x32235
  website: https://www.wvumedicine.org
  sources:
  - samhsa/findtreatment
  verified:
    'on': '2026-07-19'
    method: api
- id: wv/martinsburg/callahan-counseling-services
  name: Callahan Counseling Services
  categories:
  - su-treatment
  - mh-treatment
  address:
    street: 1020 Winchester Avenue
    city: Martinsburg
    state: wv
    zip: '25401'
  place: '5452060'
  geo:
    lat: 39.44531
    lng: -77.98025
  phone: 304-886-4118
  website: https://www.Callahancounselingservices.com
  sources:
  - samhsa/findtreatment
  verified:
    'on': '2026-07-19'
    method: api
- id: wv/martinsburg/care-clinic
  name: Care Clinic
  categories:
  - su-treatment
  - mh-treatment
  address:
    street: 126 East Burke Street
    city: Martinsburg
    state: wv
    zip: '25401'
  place: '5452060'
  geo:
    lat: 39.45711
    lng: -77.96251
  phone: 304-441-0703
  website: https://www.careclinicmd.com
  sources:
  - samhsa/findtreatment
  verified:
    'on': '2026-07-19'
    method: api
- id: wv/martinsburg/eastridge-health-systems-berkeley-county-office
  name: Eastridge Health Systems Berkeley County Office
  categories:
  - su-treatment
  - mh-treatment
  address:
    street: 235 South Water Street
    city: Martinsburg
    state: wv
    zip: '25401'
  place: '5452060'
  geo:
    lat: 39.45519
    lng: -77.96183
  phone: 304-263-8954
  website: https://www.eastridgehealthsystems.org
  sources:
  - samhsa/findtreatment
  verified:
    'on': '2026-07-19'
    method: api
- id: wv/martinsburg/groups-recover-together
  name: Groups Recover Together
  categories:
  - su-treatment
  address:
    street: 143 Aikens Center
    city: Martinsburg
    state: wv
    zip: '25404'
  place: '5452060'
  geo:
    lat: 39.48455
    lng: -77.95891
  phone: 888-858-1723
  website: https://www.joingroups.com
  sources:
  - samhsa/findtreatment
  verified:
    'on': '2026-07-19'
    method: api
- id: wv/martinsburg/housing-authority-of-the-city-of-martinsburg
  name: Housing Authority Of The City Of Martinsburg
  categories:
  - housing-assistance
  address: {street: 703 Porter Ave, city: Martinsburg, state: wv, zip: '25401'}
  description: Public housing and Housing Choice Voucher agency
  place: '5452060'
  geo: {lat: 39.45359, lng: -77.97829}
  phone: 304-263-8891
  sources:
  - hud/resource-locator
  verified: {'on': '2026-07-19', method: api}
- id: wv/martinsburg/james-rumsey-technical-institute
  name: James Rumsey Technical Institute
  categories:
  - child-care
  address:
    street: 3274 Hedgesville Rd
    city: Martinsburg
    state: wv
    zip: '25403'
  place: '5452060'
  geo:
    lat: 39.53318
    lng: -77.98066
  phone: 303-582-2198
  sources:
  - acf/head-start-locations
  verified:
    'on': '2026-07-19'
    method: api
- id: wv/martinsburg/kvc-west-virginia
  name: KVC West Virginia
  categories:
  - su-treatment
  - mh-treatment
  address:
    street: 261 Aikens Center
    city: Martinsburg
    state: wv
    zip: '25404'
  place: '5452060'
  geo:
    lat: 39.48606
    lng: -77.95932
  phone: 304-929-4130
  website: https://www.kvc.org
  sources:
  - samhsa/findtreatment
  verified:
    'on': '2026-07-19'
    method: api
- id: wv/martinsburg/martinsburg-institute
  name: Martinsburg Institute
  categories:
  - su-treatment
  address:
    street: 223 Eagle School Road
    city: Martinsburg
    state: wv
    zip: '25404'
  place: '5452060'
  geo:
    lat: 39.47507
    lng: -77.95294
  phone: 304-263-1101
  website: https://www.addictiontreatmentsystems.com
  sources:
  - samhsa/findtreatment
  verified:
    'on': '2026-07-19'
    method: api
- id: wv/martinsburg/national-youth-advocate-program-inc
  name: National Youth Advocate Program Inc
  categories:
  - su-treatment
  - mh-treatment
  address:
    city: Martinsburg
    state: wv
    zip: '25401'
  place: '5452060'
  phone: 304-596-2390
  website: https://www.nyap.org
  sources:
  - samhsa/findtreatment
  verified:
    'on': '2026-07-19'
    method: api
- id: wv/martinsburg/sch-healthy-smiles-dental
  name: SCH Healthy Smiles Dental
  categories:
  - community-health-center
  address:
    street: 58 Warm Springs Ave
    city: Martinsburg
    state: wv
    zip: '25404'
  place: '5452060'
  geo:
    lat: 39.48065
    lng: -77.95068
  phone: 304-267-0250
  website: http://www.shencommhealth.com/
  external_ids:
    bphc: BPS-H80-009482
  sources:
  - hrsa/health-center-sites
  verified:
    'on': '2026-07-19'
    method: api
- id: wv/martinsburg/sch-martinsburg
  name: SCH Martinsburg
  categories:
  - community-health-center
  address:
    street: 99 Tavern Rd
    city: Martinsburg
    state: wv
    zip: '25401'
  place: '5452060'
  geo:
    lat: 39.47397
    lng: -77.96641
  phone: 304-263-4999
  website: https://www.shencommhealth.com
  external_ids:
    bphc: BPS-H80-004540
  sources:
  - hrsa/health-center-sites
  verified:
    'on': '2026-07-19'
    method: api
- id: wv/martinsburg/sch-mobile
  name: SCH Mobile
  categories:
  - community-health-center
  address:
    street: 99 Tavern Rd
    city: Martinsburg
    state: wv
    zip: '25401'
  place: '5452060'
  geo:
    lat: 39.47397
    lng: -77.96641
  phone: 304-596-2610
  website: http://www.shencommhealth.com/
  external_ids:
    bphc: BPS-H80-006132
  sources:
  - hrsa/health-center-sites
  verified:
    'on': '2026-07-19'
    method: api
- id: wv/martinsburg/sch-ryan-white-administration-support
  name: SCH Ryan White Administration Support
  categories:
  - community-health-center
  address:
    street: 62 Warm Springs Ave
    city: Martinsburg
    state: wv
    zip: '25404'
  place: '5452060'
  geo:
    lat: 39.48059
    lng: -77.95113
  phone: 304-262-4326
  website: http://www.shencommhealth.com
  external_ids:
    bphc: BPS-H80-024712
  sources:
  - hrsa/health-center-sites
  verified:
    'on': '2026-07-19'
    method: api
- id: wv/martinsburg/shenandoah-community-health
  name: Shenandoah Community Health
  categories:
  - su-treatment
  - mh-treatment
  address:
    street: 99 Tavern Road
    city: Martinsburg
    state: wv
    zip: '25401'
  place: '5452060'
  geo:
    lat: 39.47389
    lng: -77.96646
  phone: 304-263-7023
  website: https://www.shencommhealth.com/
  sources:
  - samhsa/findtreatment
  verified:
    'on': '2026-07-19'
    method: api
- id: wv/martinsburg/shenandoah-community-health-burke-st-elementary
  name: Shenandoah Community Health Burke St Elementary
  categories:
  - community-health-center
  address:
    street: 422 W Burke St
    city: Martinsburg
    state: wv
    zip: '25401'
  place: '5452060'
  geo:
    lat: 39.45852
    lng: -77.9681
  phone: 304-263-4999
  website: https://www.shencommhealth.com
  external_ids:
    bphc: BPS-H80-032773
  sources:
  - hrsa/health-center-sites
  verified:
    'on': '2026-07-19'
    method: api
- id: wv/martinsburg/shenandoah-community-health-martinsburg-high-sch
  name: Shenandoah Community Health Martinsburg High School
  categories:
  - community-health-center
  address:
    street: 701 S Queen St
    city: Martinsburg
    state: wv
    zip: '25401'
  place: '5452060'
  geo:
    lat: 39.44803
    lng: -77.96653
  phone: 304-263-4999
  website: https://www.shencommhealth.com
  external_ids:
    bphc: BPS-H80-035696
  sources:
  - hrsa/health-center-sites
  verified:
    'on': '2026-07-19'
    method: api
- id: wv/martinsburg/shenandoah-community-health-martinsburg-north-mi
  name: Shenandoah Community Health Martinsburg North Middle School
  categories:
  - community-health-center
  address:
    street: 250 E. Road
    city: Martinsburg
    state: wv
    zip: '25404'
  place: '5452060'
  geo:
    lat: 39.47279
    lng: -77.94995
  phone: 304-596-2610
  external_ids:
    bphc: BPS-H80-032772
  sources:
  - hrsa/health-center-sites
  verified:
    'on': '2026-07-19'
    method: api
- id: wv/martinsburg/shenandoah-community-health-mobile-health-unit
  name: Shenandoah Community Health Mobile Health Unit
  categories:
  - community-health-center
  address:
    street: 99 Tavern Rd
    city: Martinsburg
    state: wv
    zip: '25401'
  place: '5452060'
  geo:
    lat: 39.47397
    lng: -77.96641
  phone: 304-263-4999
  website: https://www.shencommhealth.com/
  external_ids:
    bphc: BPS-H80-036797
  sources:
  - hrsa/health-center-sites
  verified:
    'on': '2026-07-19'
    method: api
- id: wv/martinsburg/shenandoah-community-health-south-middle
  name: Shenandoah Community Health South Middle
  categories:
  - community-health-center
  address:
    street: 150 Bulldog Blvd
    city: Martinsburg
    state: wv
    zip: '25401'
  place: '5452060'
  geo:
    lat: 39.44936
    lng: -77.96855
  phone: 304-263-4999
  website: https://www.shencommhealth.com
  external_ids:
    bphc: BPS-H80-035697
  sources:
  - hrsa/health-center-sites
  verified:
    'on': '2026-07-19'
    method: api
- id: wv/martinsburg/shenandoah-community-health-tuscarora-elementary
  name: Shenandoah Community Health Tuscarora Elementary
  categories:
  - community-health-center
  address:
    street: 2000 Tavern Rd
    city: Martinsburg
    state: wv
    zip: '25401'
  place: '5452060'
  geo:
    lat: 39.47627
    lng: -77.97559
  phone: 304-263-4999
  external_ids:
    bphc: BPS-H80-034049
  sources:
  - hrsa/health-center-sites
  verified:
    'on': '2026-07-19'
    method: api
- id: wv/martinsburg/spring-mills-primary-school
  name: Spring Mills Primary School
  categories:
  - child-care
  address:
    street: 401 Campus Dr
    city: Martinsburg
    state: wv
    zip: '25404'
  place: '5452060'
  geo:
    lat: 39.54151
    lng: -77.90301
  phone: 304-582-3276
  sources:
  - acf/head-start-locations
  verified:
    'on': '2026-07-19'
    method: api
