- id: wv/new-martinsville/bb-5
  name: BB 5
  categories:
  - child-care
  address:
    street: 416 N State Route 2
    city: New Martinsville
    state: wv
    zip: '26155'
  place: '5458684'
  geo:
    lat: 39.67931
    lng: -80.85823
  phone: 304-398-2318
  sources:
  - acf/head-start-locations
  verified:
    'on': '2026-07-19'
    method: api
- id: wv/new-martinsville/community-care-of-new-martinsville
  name: Community Care of New Martinsville
  categories:
  - community-health-center
  address:
    street: 1021 3rd St
    city: New Martinsville
    state: wv
    zip: '26155'
  place: '5458684'
  geo:
    lat: 39.65477
    lng: -80.85663
  phone: 304-924-6262
  external_ids:
    bphc: BPS-H80-040996
  sources:
  - hrsa/health-center-sites
  verified:
    'on': '2026-07-19'
    method: api
- id: wv/new-martinsville/magnolia-head-start-center
  name: Magnolia Head Start Center
  categories:
  - child-care
  address:
    street: 601 Maple Ave
    city: New Martinsville
    state: wv
    zip: '26155'
  place: '5458684'
  geo:
    lat: 39.64619
    lng: -80.86063
  phone: 304-455-1990
  sources:
  - acf/head-start-locations
  verified:
    'on': '2026-07-19'
    method: api
- id: wv/new-martinsville/magnolia-high-shcool
  name: Magnolia High Shcool
  categories:
  - meal-program
  address: {street: 601 Maple Ave., city: New Martinsville, state: wv, zip: '26155'}
  description: Free summer meals for kids and teens (2026 season) — sponsored by Wetzel Co Bd of Education.
  place: '5458684'
  geo: {lat: 39.64642, lng: -80.86138}
  phone: (304) 455-1990
  external_ids: {usda_master: Cycle 07_WV_SFSP_0311}
  sources:
  - usda/summer-meal-sites
  verified: {'on': '2026-07-19', method: api}
- id: wv/new-martinsville/new-martinsville-school
  name: New Martinsville School
  categories:
  - child-care
  address:
    street: 20 E Benjamin Dr
    city: New Martinsville
    state: wv
    zip: '26155'
  place: '5458684'
  geo:
    lat: 39.6793
    lng: -80.84734
  phone: 304-455-2291
  sources:
  - acf/head-start-locations
  verified:
    'on': '2026-07-19'
    method: api
- id: wv/new-martinsville/new-martinsville-school-2
  name: New Martinsville School
  categories:
  - meal-program
  address: {street: 20 E Benjamin Dr, city: New Martinsville, state: wv, zip: '26155'}
  description: Free summer meals for kids and teens (2026 season) — sponsored by Wetzel Co Bd of Education.
  place: '5458684'
  geo: {lat: 39.68047, lng: -80.8559}
  phone: (304) 455-2441
  external_ids: {usda_master: Cycle 07_WV_SFSP_0313}
  sources:
  - usda/summer-meal-sites
  verified: {'on': '2026-07-19', method: api}
- id: wv/new-martinsville/northwood-health-systems-wetzel-county-clinic
  name: Northwood Health Systems Wetzel County Clinic
  categories:
  - su-treatment
  - mh-treatment
  address:
    street: 307 Main Street
    city: New Martinsville
    state: wv
    zip: '26155'
  place: '5458684'
  geo:
    lat: 39.64314
    lng: -80.86506
  phone: 304-455-3622
  website: https://www.northwoodhealth.com
  sources:
  - samhsa/findtreatment
  verified:
    'on': '2026-07-19'
    method: api
- id: wv/new-martinsville/northwood-health-systems-wetzel-county-treatment
  name: Northwood Health Systems Wetzel County Treatment Court
  categories:
  - su-treatment
  - mh-treatment
  address:
    street: 747 2nd Street
    city: New Martinsville
    state: wv
    zip: '26155'
  place: '5458684'
  geo:
    lat: 39.6495
    lng: -80.85839
  phone: 304-455-3607
  website: https://www.northwoodhealth.com
  sources:
  - samhsa/findtreatment
  verified:
    'on': '2026-07-19'
    method: api
- id: wv/new-martinsville/wellspring-family-services-crittenton-services
  name: Wellspring Family Services Crittenton Services
  categories:
  - su-treatment
  - mh-treatment
  address:
    street: 754 3rd Street
    city: New Martinsville
    state: wv
    zip: '26155'
  place: '5458684'
  geo:
    lat: 39.64973
    lng: -80.85782
  phone: 304-455-3035
  website: https://www.crittentonwv.org
  sources:
  - samhsa/findtreatment
  verified:
    'on': '2026-07-19'
    method: api
