- id: wv/sutton/braxton-county-high-school-wellness-center
  name: Braxton County High School Wellness Center
  categories:
  - community-health-center
  address:
    street: 200 Jerry Burton Dr
    city: Sutton
    state: wv
    zip: '26601'
  place: '5478580'
  geo:
    lat: 38.69576
    lng: -80.66727
  phone: 304-765-7331
  external_ids:
    bphc: BPS-H80-012029
  sources:
  - hrsa/health-center-sites
  verified:
    'on': '2026-07-19'
    method: api
- id: wv/sutton/braxton-county-middle-school-wellness-center
  name: Braxton County Middle School Wellness Center
  categories:
  - community-health-center
  address:
    street: 100 Carter Braxton Dr
    city: Sutton
    state: wv
    zip: '26601'
  place: '5478580'
  geo:
    lat: 38.69443
    lng: -80.66363
  phone: 304-765-9312
  external_ids:
    bphc: BPS-H80-012034
  sources:
  - hrsa/health-center-sites
  verified:
    'on': '2026-07-19'
    method: api
- id: wv/sutton/community-care-connections-of-flatwoods
  name: Community Care Connections of Flatwoods
  categories:
  - community-health-center
  address:
    street: 235 Skidmore Ln
    city: Sutton
    state: wv
    zip: '26601'
  place: '5478580'
  geo:
    lat: 38.70263
    lng: -80.66729
  phone: 304-924-6262
  external_ids:
    bphc: BPS-H80-036893
  sources:
  - hrsa/health-center-sites
  verified:
    'on': '2026-07-19'
    method: api
- id: wv/sutton/community-care-of-flatwoods
  name: Community Care of Flatwoods
  categories:
  - community-health-center
  address:
    street: 266 Skidmore Ln
    city: Sutton
    state: wv
    zip: '26601'
  place: '5478580'
  geo:
    lat: 38.70217
    lng: -80.66672
  phone: 304-623-6330
  website: https://www.ccwv.org
  external_ids:
    bphc: BPS-H80-012852
  sources:
  - hrsa/health-center-sites
  verified:
    'on': '2026-07-19'
    method: api
- id: wv/sutton/community-care-of-flatwoods-extension-office
  name: Community Care of Flatwoods Extension Office
  categories:
  - community-health-center
  address:
    street: 249 Skidmore Ln
    city: Sutton
    state: wv
    zip: '26601'
  place: '5478580'
  geo:
    lat: 38.70213
    lng: -80.66643
  phone: 304-924-6262
  external_ids:
    bphc: BPS-H80-019347
  sources:
  - hrsa/health-center-sites
  verified:
    'on': '2026-07-19'
    method: api
- id: wv/sutton/community-care-of-flatwoods-ii
  name: Community Care of Flatwoods II
  categories:
  - community-health-center
  address:
    street: 273 Skidmore Run Rd
    city: Sutton
    state: wv
    zip: '26601'
  place: '5478580'
  geo:
    lat: 38.65786
    lng: -80.71077
  phone: 304-765-0351
  external_ids:
    bphc: BPS-H80-017466
  sources:
  - hrsa/health-center-sites
  verified:
    'on': '2026-07-19'
    method: api
- id: wv/sutton/little-birch-elementary-school-wellness-center
  name: Little Birch Elementary School Wellness Center
  categories:
  - community-health-center
  address:
    street: 55 Little Birch Rd
    city: Sutton
    state: wv
    zip: '26601'
  place: '5478580'
  geo:
    lat: 38.57952
    lng: -80.70986
  phone: 304-924-6262
  website: https://ccwv.org
  external_ids:
    bphc: BPS-H80-021198
  sources:
  - hrsa/health-center-sites
  verified:
    'on': '2026-07-19'
    method: api
- id: wv/sutton/sutton-elementary-school
  name: Sutton Elementary School
  categories:
  - child-care
  address:
    street: 288 N Hill Rd
    city: Sutton
    state: wv
    zip: '26601'
  place: '5478580'
  geo:
    lat: 38.66753
    lng: -80.70738
  phone: 304-765-5202
  sources:
  - acf/head-start-locations
  verified:
    'on': '2026-07-19'
    method: api
- id: wv/sutton/sutton-elementary-school-wellness-center
  name: Sutton Elementary School Wellness Center
  categories:
  - community-health-center
  address:
    street: 288 N Hill Rd
    city: Sutton
    state: wv
    zip: '26601'
  place: '5478580'
  geo:
    lat: 38.66738
    lng: -80.70736
  phone: 304-924-6262
  external_ids:
    bphc: BPS-H80-021269
  sources:
  - hrsa/health-center-sites
  verified:
    'on': '2026-07-19'
    method: api
- id: wv/sutton/united-summit-center-healthy-minds-braxton-count
  name: United Summit Center Healthy Minds Braxton County
  categories:
  - su-treatment
  - mh-treatment
  address:
    street: 93 Skidmore Lane
    city: Sutton
    state: wv
    zip: '26601'
  place: '5478580'
  geo:
    lat: 38.70313
    lng: -80.66777
  phone: 304-623-5661 x18310
  website: https://rni.wvumedicine.org/bmed
  sources:
  - samhsa/findtreatment
  verified:
    'on': '2026-07-19'
    method: api
