- id: wv/sutton/braxton-county-dhhr-office
  name: Braxton County DHHR Office
  categories:
  - utility-assistance
  description: LIHEAP intake office serving Braxton County
  address: {street: 3708 Sutton Lane, city: Sutton, state: wv, zip: '26601'}
  place: '5478580'
  phone: 304-765-7344
  sources:
  - acf/liheap-clearinghouse
  verified: {'on': '2026-07-19', method: scrape}
  geo: {lat: 38.69805, lng: -80.66638}
- id: wv/sutton/braxton-county-high
  name: Braxton County High
  categories:
  - meal-program
  address: {street: Braxton County High School, city: Sutton, state: wv, zip: '26601'}
  description: Free summer meals for kids and teens (2026 season) — sponsored by BRAXTON CO BD OF EDUCATION.
  place: '5478580'
  geo: {lat: 38.69615, lng: -80.6674}
  phone: (304) 765-7101
  external_ids: {usda_master: Cycle 01_WV_SFSP_0001}
  sources:
  - usda/summer-meal-sites
  verified: {'on': '2026-07-19', method: api}
- id: wv/sutton/braxton-county-high-school-wellness-center
  name: Braxton County High School Wellness Center
  categories:
  - community-health-center
  cost: sliding-scale
  address: {street: 200 Jerry Burton Dr, city: Sutton, state: wv, zip: '26601'}
  place: '5478580'
  geo: {lat: 38.69576, lng: -80.66727}
  phone: 304-765-7331
  external_ids: {bphc: BPS-H80-012029}
  sources:
  - hrsa/health-center-sites
  verified: {'on': '2026-07-19', method: api}
- id: wv/sutton/braxton-county-middle-school-wellness-center
  name: Braxton County Middle School Wellness Center
  categories:
  - community-health-center
  cost: sliding-scale
  address: {street: 100 Carter Braxton Dr, city: Sutton, state: wv, zip: '26601'}
  place: '5478580'
  geo: {lat: 38.69443, lng: -80.66363}
  phone: 304-765-9312
  external_ids: {bphc: BPS-H80-012034}
  sources:
  - hrsa/health-center-sites
  verified: {'on': '2026-07-19', method: api}
- id: wv/sutton/community-care-connections-of-flatwoods
  name: Community Care Connections of Flatwoods
  categories:
  - community-health-center
  cost: sliding-scale
  address: {street: 235 Skidmore Ln, city: Sutton, state: wv, zip: '26601'}
  place: '5478580'
  geo: {lat: 38.70263, lng: -80.66729}
  phone: 304-924-6262
  external_ids: {bphc: BPS-H80-036893}
  sources:
  - hrsa/health-center-sites
  verified: {'on': '2026-07-19', method: api}
- id: wv/sutton/community-care-of-flatwoods
  name: Community Care of Flatwoods
  categories:
  - community-health-center
  cost: sliding-scale
  address: {street: 266 Skidmore Ln, city: Sutton, state: wv, zip: '26601'}
  place: '5478580'
  geo: {lat: 38.70217, lng: -80.66672}
  phone: 304-623-6330
  website: https://www.ccwv.org
  external_ids: {bphc: BPS-H80-012852}
  sources:
  - hrsa/health-center-sites
  verified: {'on': '2026-07-19', method: api}
- id: wv/sutton/community-care-of-flatwoods-ii
  name: Community Care of Flatwoods II
  categories:
  - community-health-center
  cost: sliding-scale
  address: {street: 273 Skidmore Run Rd, city: Sutton, state: wv, zip: '26601'}
  place: '5478580'
  geo: {lat: 38.65786, lng: -80.71077}
  phone: 304-765-0351
  external_ids: {bphc: BPS-H80-017466}
  sources:
  - hrsa/health-center-sites
  verified: {'on': '2026-07-19', method: api}
- id: wv/sutton/little-birch-elementary-school-wellness-center
  name: Little Birch Elementary School Wellness Center
  categories:
  - community-health-center
  cost: sliding-scale
  address: {street: 55 Little Birch Rd, city: Sutton, state: wv, zip: '26601'}
  place: '5478580'
  geo: {lat: 38.57952, lng: -80.70986}
  phone: 304-924-6262
  website: https://ccwv.org
  external_ids: {bphc: BPS-H80-021198}
  sources:
  - hrsa/health-center-sites
  verified: {'on': '2026-07-19', method: api}
- id: wv/sutton/sutton-elementary-school
  name: Sutton Elementary School
  categories:
  - child-care
  address: {street: 288 N Hill Rd, city: Sutton, state: wv, zip: '26601'}
  description: Head Start early childhood program — 26 funded slots; operated by Braxton County Board
    of Education.
  place: '5478580'
  geo: {lat: 38.66753, lng: -80.70738}
  phone: 304-765-5202
  sources:
  - acf/head-start-locations
  verified: {'on': '2026-07-19', method: api}
- id: wv/sutton/sutton-elementary-school-wellness-center
  name: Sutton Elementary School Wellness Center
  categories:
  - community-health-center
  cost: sliding-scale
  address: {street: 288 N Hill Rd, city: Sutton, state: wv, zip: '26601'}
  place: '5478580'
  geo: {lat: 38.66738, lng: -80.70736}
  phone: 304-924-6262
  external_ids: {bphc: BPS-H80-021269}
  sources:
  - hrsa/health-center-sites
  verified: {'on': '2026-07-19', method: api}
- id: wv/sutton/united-summit-center-healthy-minds-braxton-count
  name: United Summit Center Healthy Minds Braxton County
  categories:
  - su-treatment
  - mh-treatment
  address: {street: 93 Skidmore Lane, city: Sutton, state: wv, zip: '26601'}
  place: '5478580'
  geo: {lat: 38.70313, lng: -80.66777}
  phone: 304-623-5661 x18310
  website: https://rni.wvumedicine.org/bmed
  services:
  - Outpatient
  eligibility: Serves children/adolescents, young adults, adults, seniors.
  cost: sliding-scale
  sources:
  - samhsa/findtreatment
  verified: {'on': '2026-07-19', method: api}
