- id: wv/weston/camden-family-health
  name: Camden Family Health
  categories:
  - community-health-center
  cost: sliding-scale
  address:
    street: 300 Minuteman Dr
    city: Weston
    state: wv
    zip: '26452'
  place: '5485972'
  geo:
    lat: 39.02094
    lng: -80.47812
  phone: 304-997-8729
  website: https://www.camdenfamilyhealth.com
  external_ids:
    bphc: BPS-H80-015330
  sources:
  - hrsa/health-center-sites
  verified:
    'on': '2026-07-19'
    method: api
- id: wv/weston/carexpress-of-weston
  name: CareXpress of Weston
  categories:
  - community-health-center
  cost: sliding-scale
  address:
    street: 149 Staunton Dr
    city: Weston
    state: wv
    zip: '26452'
  place: '5485972'
  geo:
    lat: 39.02209
    lng: -80.41868
  phone: 304-269-2022
  website: https://www.ccwv.org
  external_ids:
    bphc: BPS-H80-013061
  sources:
  - hrsa/health-center-sites
  verified:
    'on': '2026-07-19'
    method: api
- id: wv/weston/community-care-connections-of-weston
  name: Community Care Connections of Weston
  categories:
  - community-health-center
  cost: sliding-scale
  address:
    street: 133 Staunton Dr
    city: Weston
    state: wv
    zip: '26452'
  place: '5485972'
  geo:
    lat: 39.02207
    lng: -80.41905
  phone: 304-269-9510
  external_ids:
    bphc: BPS-H80-036049
  sources:
  - hrsa/health-center-sites
  verified:
    'on': '2026-07-19'
    method: api
- id: wv/weston/community-care-of-weston
  name: Community Care of Weston
  categories:
  - community-health-center
  cost: sliding-scale
  address:
    street: 107 Staunton Dr
    city: Weston
    state: wv
    zip: '26452'
  place: '5485972'
  geo:
    lat: 39.02144
    lng: -80.41936
  phone: 304-924-6262
  external_ids:
    bphc: BPS-H80-022043
  sources:
  - hrsa/health-center-sites
  verified:
    'on': '2026-07-19'
    method: api
- id: wv/weston/housing-authority-of-the-city-of-weston
  name: Housing Authority Of The City Of Weston
  categories:
  - housing-assistance
  address:
    street: 124 E 1st St
    city: Weston
    state: wv
    zip: '26452'
  description: Public housing (Low-Rent) agency
  place: '5485972'
  geo:
    lat: 39.03637
    lng: -80.46819
  phone: 304-269-6159
  sources:
  - hud/resource-locator
  verified:
    'on': '2026-07-19'
    method: api
- id: wv/weston/lewis-county-dhhr-office
  name: Lewis County DHHR Office
  categories:
  - utility-assistance
  description: LIHEAP intake office serving Lewis County
  address:
    street: 91 Arnold Avenue (P.O. Box 1268)
    city: Weston
    state: wv
    zip: '26452'
  place: '5485972'
  phone: 304-269-6820
  sources:
  - acf/liheap-clearinghouse
  verified:
    'on': '2026-07-19'
    method: scrape
- id: wv/weston/lewis-county-high-football-camp
  name: Lewis County High Football Camp
  categories:
  - meal-program
  address: {street: 205 Minuteman Drive, city: Weston, state: wv, zip: '26452'}
  description: Free summer meals for kids and teens (2026 season) — sponsored by LEWIS CO BD OF EDUCATION.
  place: '5485972'
  geo: {lat: 39.01962, lng: -80.47793}
  phone: (304) 269-8315
  external_ids: {usda_master: Cycle 07_WV_SFSP_0105}
  sources:
  - usda/summer-meal-sites
  verified: {'on': '2026-07-19', method: api}
- id: wv/weston/peterson-central-elementary
  name: Peterson- Central Elementary
  categories:
  - child-care
  address:
    street: 509 Berlin Rd
    city: Weston
    state: wv
    zip: '26452'
  place: '5485972'
  geo:
    lat: 39.0245
    lng: -80.41509
  phone: 304-269-8330
  sources:
  - acf/head-start-locations
  verified:
    'on': '2026-07-19'
    method: api
- id: wv/weston/peterson-central-elementary-2
  name: Peterson-Central Elementary
  categories:
  - meal-program
  address: {street: 509 Berlin Road, city: Weston, state: wv, zip: '26452'}
  description: Free summer meals for kids and teens (2026 season) — sponsored by LEWIS CO BD OF EDUCATION.
  place: '5485972'
  geo: {lat: 39.02397, lng: -80.4148}
  phone: (304) 439-0560
  external_ids: {usda_master: Cycle 07_WV_SFSP_0107}
  sources:
  - usda/summer-meal-sites
  verified: {'on': '2026-07-19', method: api}
- id: wv/weston/peterson-central-elementary-school-wellness-cent
  name: Peterson-Central Elementary School Wellness Center
  categories:
  - community-health-center
  cost: sliding-scale
  address:
    street: 509 Berlin Rd
    city: Weston
    state: wv
    zip: '26452'
  place: '5485972'
  geo:
    lat: 39.02451
    lng: -80.41509
  phone: 304-369-0029
  website: https://www.ccwv.org
  external_ids:
    bphc: BPS-H80-015590
  sources:
  - hrsa/health-center-sites
  verified:
    'on': '2026-07-19'
    method: api
- id: wv/weston/robert-bland-middle-school-wellness-center
  name: Robert Bland Middle School Wellness Center
  categories:
  - community-health-center
  cost: sliding-scale
  address:
    street: 358 Court Ave
    city: Weston
    state: wv
    zip: '26452'
  place: '5485972'
  geo:
    lat: 39.03952
    lng: -80.46234
  phone: 304-269-8325
  external_ids:
    bphc: BPS-H80-016816
  sources:
  - hrsa/health-center-sites
  verified:
    'on': '2026-07-19'
    method: api
- id: wv/weston/robert-l-bland-middle-school-1
  name: 'Robert L. Bland Middle School #1'
  categories:
  - meal-program
  address: {street: 358 Court Avenue, city: Weston, state: wv, zip: '26452'}
  description: Free summer meals for kids and teens (2026 season) — sponsored by LEWIS CO BD OF EDUCATION.
  place: '5485972'
  geo: {lat: 39.03966, lng: -80.46247}
  phone: (304) 269-8300
  external_ids: {usda_master: Cycle 07_WV_SFSP_0108}
  sources:
  - usda/summer-meal-sites
  verified: {'on': '2026-07-19', method: api}
- id: wv/weston/weston
  name: Weston
  categories:
  - child-care
  address:
    street: 465 U S 33
    city: Weston
    state: wv
    zip: '26452'
  place: '5485972'
  geo:
    lat: 39.04623
    lng: -80.47594
  phone: 304-269-3353
  sources:
  - acf/head-start-locations
  verified:
    'on': '2026-07-19'
    method: api
