- id: pr/aguas-buenas/aguas-buenas-pueblo
  name: Aguas Buenas Pueblo
  categories:
  - child-care
  address:
    street: Barrio Sumidero
    street2: Carretera 156 Km 49.4
    city: Aguas Buenas
    state: pr
    zip: '00703'
  geo:
    lat: 18.25089
    lng: -66.11996
  phone: 787-732-4500
  sources:
  - acf/head-start-locations
  verified:
    'on': '2026-07-19'
    method: api
- id: pr/aguas-buenas/boys-girls-club
  name: Boys & Girls Club
  categories:
  - meal-program
  address: {street: 'Calle #1 Int. Carr. 173 Urb. San Antonio', city: Aguas Buenas, state: pr, zip: '00703'}
  description: Free summer meals for kids and teens (2026 season) — sponsored by Autoridad Escolar de
    Alimentos del DE.
  geo: {lat: 18.26026, lng: -66.10415}
  phone: (787) 924-7676
  external_ids: {usda_master: Cycle 08_PR_SFSP_0242}
  sources:
  - usda/summer-meal-sites
  verified: {'on': '2026-07-19', method: api}
- id: pr/aguas-buenas/camino-verde
  name: Camino Verde
  categories:
  - child-care
  address:
    street: CARRETERA794 Bada Vazquez Sector Camino Verde
    street2: Bda. Caguitas Camino Verde Km.0.2
    city: Aguas Buenas
    state: pr
    zip: '00703'
  geo:
    lat: 18.26467
    lng: -66.17202
  phone: 787-924-4120
  sources:
  - acf/head-start-locations
  verified:
    'on': '2026-07-19'
    method: api
- id: pr/aguas-buenas/escuela-carmen-d-ortiz-sumidero
  name: Escuela Carmen D. Ortiz (Sumidero)
  categories:
  - meal-program
  address: {street: Barrio Caguitas Carretera 173 Km 70, city: Aguas Buenas, state: pr, zip: '00703'}
  description: Free summer meals for kids and teens (2026 season) — sponsored by Autoridad Escolar de
    Alimentos del DE.
  geo: {lat: 18.25666, lng: -66.10429}
  phone: (787) 732-4040
  external_ids: {usda_master: Cycle 07_PR_SFSP_0018}
  sources:
  - usda/summer-meal-sites
  verified: {'on': '2026-07-19', method: api}
- id: pr/aguas-buenas/escuela-pedro-albizu-campos
  name: Escuela Pedro Albizu Campos
  categories:
  - meal-program
  address: {street: Carretera Ramal 794 Km 0.4 Barrio Caguitas, city: Aguas Buenas, state: pr, zip: '00703'}
  description: Free summer meals for kids and teens (2026 season) — sponsored by Autoridad Escolar de
    Alimentos del DE.
  geo: {lat: 18.2518, lng: -66.1009}
  phone: (787) 732-3521
  external_ids: {usda_master: Cycle 07_PR_SFSP_0002}
  sources:
  - usda/summer-meal-sites
  verified: {'on': '2026-07-19', method: api}
- id: pr/aguas-buenas/escuela-su-bayamoncito
  name: Escuela Su Bayamoncito
  categories:
  - meal-program
  address: {street: Carretera 156 Km. 42.3 Barrio Bayamoncito, city: Aguas Buenas, state: pr, zip: '00703'}
  description: Free summer meals for kids and teens (2026 season) — sponsored by Autoridad Escolar de
    Alimentos del DE.
  geo: {lat: 18.23776, lng: -66.15982}
  phone: (787) 732-0440
  external_ids: {usda_master: Cycle 07_PR_SFSP_0001}
  sources:
  - usda/summer-meal-sites
  verified: {'on': '2026-07-19', method: api}
- id: pr/aguas-buenas/juan-asencio
  name: Juan Asencio
  categories:
  - child-care
  address:
    street: Juan Asencio, Carr 156 Km 4.3 Interior, R 790
    city: Aguas Buenas
    state: pr
    zip: '00703'
  geo:
    lat: 18.25706
    lng: -66.10596
  phone: 787-732-4533
  sources:
  - acf/head-start-locations
  verified:
    'on': '2026-07-19'
    method: api
- id: pr/aguas-buenas/municipio-de-aguas-buenas
  name: Municipio De Aguas Buenas
  categories:
  - meal-program
  address: {street: Bo. Pueblo Carr. 174 Km. 22.8, city: Aguas Buenas, state: pr, zip: '00703'}
  description: Free summer meals for kids and teens (2026 season) — sponsored by Autoridad Escolar de
    Alimentos del DE.
  geo: {lat: 18.25852, lng: -66.10707}
  phone: (787) 314-1409
  external_ids: {usda_master: Cycle 07_PR_SFSP_0020}
  sources:
  - usda/summer-meal-sites
  verified: {'on': '2026-07-19', method: api}
- id: pr/aguas-buenas/neomed-center-aguas-buenas
  name: NeoMed Center-Aguas Buenas
  categories:
  - community-health-center
  cost: sliding-scale
  address:
    street: 41 Carr-156
    city: Aguas Buenas
    state: pr
    zip: '00703'
  geo:
    lat: 18.25674
    lng: -66.10462
  phone: 787-737-2311
  website: https://www.gchcpr.org
  external_ids:
    bphc: BPS-H80-011554
  sources:
  - hrsa/health-center-sites
  verified:
    'on': '2026-07-19'
    method: api
- id: pr/aguas-buenas/neomed-center-aguas-buenas-pueblo
  name: Neomed Center- Aguas Buenas Pueblo
  categories:
  - community-health-center
  cost: sliding-scale
  address:
    street: 32 Calle Rafael Lasa
    city: Aguas Buenas
    state: pr
    zip: '00703'
  geo:
    lat: 18.25711
    lng: -66.10444
  phone: 787-737-2311
  external_ids:
    bphc: BPS-H80-015293
  sources:
  - hrsa/health-center-sites
  verified:
    'on': '2026-07-19'
    method: api
- id: pr/aguas-buenas/sonadora
  name: Sonadora
  categories:
  - child-care
  address:
    street: Carr.792 Km.3.0 Sector
    street2: La Escuelita,Bo.Sonadora
    city: Aguas Buenas
    state: pr
    zip: '00703'
  geo:
    lat: 18.26654
    lng: -66.11621
  phone: 787-732-1574
  sources:
  - acf/head-start-locations
  verified:
    'on': '2026-07-19'
    method: api
- id: pr/aguas-buenas/sumidero
  name: Sumidero
  categories:
  - child-care
  address:
    street: Barrio Sumidero
    street2: Carr. 173 Km 6 Hm 0
    city: Aguas Buenas
    state: pr
    zip: '00703'
  geo:
    lat: 18.26467
    lng: -66.17202
  phone: 787-732-4422
  sources:
  - acf/head-start-locations
  verified:
    'on': '2026-07-19'
    method: api
