- id: pr/guaynabo/altos-torrimar
  name: Altos Torrimar
  categories:
  - child-care
  address:
    street: Calle Juan Martinez Int Ave. Casa Linda
    street2: Bo. Santa Rosa Iii, Altos Torrimar
    city: Guaynabo
    state: pr
    zip: 00971
  geo:
    lat: 18.37962
    lng: -66.1327
  phone: 787-720-4040
  sources:
  - acf/head-start-locations
  verified:
    'on': '2026-07-19'
    method: api
- id: pr/guaynabo/amelia-ii
  name: Amelia II
  categories:
  - child-care
  address:
    street: 'Cale Diego Vega # 43 Esq Baldorioty'
    street2: Bo. Amelia
    city: Guaynabo
    state: pr
    zip: 00965
  geo:
    lat: 18.43277
    lng: -66.11768
  phone: 787-720-4040
  sources:
  - acf/head-start-locations
  verified:
    'on': '2026-07-19'
    method: api
- id: pr/guaynabo/antilles-elementary-school
  name: Antilles Elementary School
  categories:
  - meal-program
  address:
    street: 700 Santiago St. Ft. Buchanam
    city: Guaynabo
    state: pr
    zip: 00934
  description: Free summer meals for kids and teens (2026 season) — sponsored by DDESS Puerto Rico District.
  geo:
    lat: 18.41557
    lng: -66.12244
  phone: (787) 707-2764
  external_ids:
    usda_master: Cycle 07_PR_SFSP_0154
  sources:
  - usda/summer-meal-sites
  verified:
    'on': '2026-07-19'
    method: api
- id: pr/guaynabo/barrio-ro
  name: Barrio Ro
  categories:
  - child-care
  address:
    street: 'Carr. # 834 Km. 25.5, Complejo Deportivo Pedro Lpez,'
    street2: Bo. Ro
    city: Guaynabo
    state: pr
    zip: 00971
  geo:
    lat: 18.31703
    lng: -66.0923
  phone: 787-720-4040
  sources:
  - acf/head-start-locations
  verified:
    'on': '2026-07-19'
    method: api
- id: pr/guaynabo/campamento-de-verano-adaptado-municipio-guaynabo
  name: Campamento De Verano Adaptado (Municipio Guaynabo)
  categories:
  - meal-program
  address:
    street: 'Museo De Deporte, Ave. Boulevard Del Deporte #3'
    city: Guaynabo
    state: pr
    zip: 00970
  description: Free summer meals for kids and teens (2026 season) — sponsored by Autoridad Escolar de
    Alimentos del DE.
  geo:
    lat: 18.36532
    lng: -66.10696
  phone: (787) 217-9349
  external_ids:
    usda_master: Cycle 10_PR_SFSP_0049
  sources:
  - usda/summer-meal-sites
  verified:
    'on': '2026-07-19'
    method: api
- id: pr/guaynabo/city-hall
  name: City Hall
  categories:
  - child-care
  address:
    street: Edificio City Hall
    street2: Calle Jose De Diego Esq. Herminio Diaz Navarro
    city: Guaynabo
    state: pr
    zip: 00970
  geo:
    lat: 18.35859
    lng: -66.11251
  phone: 787-720-4040
  sources:
  - acf/head-start-locations
  verified:
    'on': '2026-07-19'
    method: api
- id: pr/guaynabo/crayolas
  name: Crayolas
  categories:
  - meal-program
  address:
    street: 'Calle Principal #6 Sector Los Baez'
    city: Guaynabo
    state: pr
    zip: 00969
  description: Free summer meals for kids and teens (2026 season) — sponsored by Autoridad Escolar de
    Alimentos del DE.
  geo:
    lat: 18.36213
    lng: -66.0993
  phone: (787) 717-4532
  external_ids:
    usda_master: Cycle 10_PR_SFSP_0046
  sources:
  - usda/summer-meal-sites
  verified:
    'on': '2026-07-19'
    method: api
- id: pr/guaynabo/el-jardin
  name: El Jardin
  categories:
  - child-care
  address:
    street: L23 Calle 1 Final
    street2: Urb El Jardin, Bo Frailes Llanos
    city: Guaynabo
    state: pr
    zip: 00969
  geo:
    lat: 18.37558
    lng: -66.11166
  phone: 787-720-4040
  sources:
  - acf/head-start-locations
  verified:
    'on': '2026-07-19'
    method: api
- id: pr/guaynabo/escuela-biblica-de-verano
  name: Escuela Biblica De Verano
  categories:
  - meal-program
  address:
    street: 'Calle Union #95-99'
    city: Guaynabo
    state: pr
    zip: 00969
  description: Free summer meals for kids and teens (2026 season) — sponsored by Autoridad Escolar de
    Alimentos del DE.
  geo:
    lat: 18.3572
    lng: -66.11087
  phone: (787) 243-4246
  external_ids:
    usda_master: Cycle 10_PR_SFSP_0045
  sources:
  - usda/summer-meal-sites
  verified:
    'on': '2026-07-19'
    method: api
- id: pr/guaynabo/escuela-elemental-urbana
  name: Escuela Elemental Urbana
  categories:
  - meal-program
  address:
    street: 'Calle Carazo Final #20'
    city: Guaynabo
    state: pr
    zip: 00969
  description: Free summer meals for kids and teens (2026 season) — sponsored by Autoridad Escolar de
    Alimentos del DE.
  geo:
    lat: 18.35241
    lng: -66.11433
  phone: (787) 720-2195
  external_ids:
    usda_master: Cycle 10_PR_SFSP_0041
  sources:
  - usda/summer-meal-sites
  verified:
    'on': '2026-07-19'
    method: api
- id: pr/guaynabo/escuela-josefina-barcelo
  name: Escuela Josefina Barceló
  categories:
  - meal-program
  address:
    street: Carr. 177 Km 5 Ave. Lomas Verdes Los Frailes
    city: Guaynabo
    state: pr
    zip: 00969
  description: Free summer meals for kids and teens (2026 season) — sponsored by Autoridad Escolar de
    Alimentos del DE.
  geo:
    lat: 18.37797
    lng: -66.09109
  phone: (787) 720-6482
  external_ids:
    usda_master: Cycle 10_PR_SFSP_0006
  sources:
  - usda/summer-meal-sites
  verified:
    'on': '2026-07-19'
    method: api
- id: pr/guaynabo/escuela-juan-ponce-de-leon
  name: Escuela Juan Ponce De León
  categories:
  - meal-program
  address:
    street: Bo. Juan Domingo Carr. 2 Km 7 Hm. 3
    city: Guaynabo
    state: pr
    zip: 00969
  description: Free summer meals for kids and teens (2026 season) — sponsored by Autoridad Escolar de
    Alimentos del DE.
  geo:
    lat: 18.40073
    lng: -66.12164
  phone: (787) 604-6804
  external_ids:
    usda_master: Cycle 10_PR_SFSP_0003
  sources:
  - usda/summer-meal-sites
  verified:
    'on': '2026-07-19'
    method: api
- id: pr/guaynabo/escuela-ramon-marin
  name: Escuela Ramón Marín
  categories:
  - meal-program
  address:
    street: Urb. Muñoz Rivera Calle Azalea Esq. Campobello
    city: Guaynabo
    state: pr
    zip: 00969
  description: Free summer meals for kids and teens (2026 season) — sponsored by Autoridad Escolar de
    Alimentos del DE.
  geo:
    lat: 18.37218
    lng: -66.10874
  phone: (787) 397-8408
  external_ids:
    usda_master: Cycle 10_PR_SFSP_0005
  sources:
  - usda/summer-meal-sites
  verified:
    'on': '2026-07-19'
    method: api
- id: pr/guaynabo/explora-centro-academico-y-terapeutico
  name: Explora Centro Academico Y Terapeutico
  categories:
  - meal-program
  address:
    street: 'Calle Caraza #110'
    city: Guaynabo
    state: pr
    zip: 00926
  description: Free summer meals for kids and teens (2026 season) — sponsored by Autoridad Escolar de
    Alimentos del DE.
  geo:
    lat: 18.33941
    lng: -66.10489
  phone: (787) 633-0220
  external_ids:
    usda_master: Cycle 10_PR_SFSP_0098
  sources:
  - usda/summer-meal-sites
  verified:
    'on': '2026-07-19'
    method: api
- id: pr/guaynabo/fine-art-summer-artes
  name: Fine Art Summer Artes
  categories:
  - meal-program
  address:
    street: 'Calle Carazo # 64'
    city: Guaynabo
    state: pr
    zip: 00969
  description: Free summer meals for kids and teens (2026 season) — sponsored by Autoridad Escolar de
    Alimentos del DE.
  geo:
    lat: 18.43038
    lng: -66.11549
  phone: (787) 720-5246
  external_ids:
    usda_master: Cycle 10_PR_SFSP_0047
  sources:
  - usda/summer-meal-sites
  verified:
    'on': '2026-07-19'
    method: api
- id: pr/guaynabo/forjando-un-nuevo-comienzo
  name: Forjando Un Nuevo Comienzo
  categories:
  - meal-program
  address:
    street: 'Calle Venue Final #76 Bo. Los Frailes'
    city: Guaynabo
    state: pr
    zip: 00969
  description: Free summer meals for kids and teens (2026 season) — sponsored by Autoridad Escolar de
    Alimentos del DE.
  geo:
    lat: 18.36824
    lng: -66.10423
  phone: (787) 731-5480
  external_ids:
    usda_master: Cycle 10_PR_SFSP_0048
  sources:
  - usda/summer-meal-sites
  verified:
    'on': '2026-07-19'
    method: api
- id: pr/guaynabo/guaraguao-ii
  name: Guaraguao II
  categories:
  - child-care
  address:
    street: 'Carr # 833 Interior Km. 0.2, Al Lado Centro De Servicios Multiples Petra C'
    street2: Bo. Guaraguao
    city: Guaynabo
    state: pr
    zip: 00971
  geo:
    lat: 18.32709
    lng: -66.13586
  phone: 787-720-4040
  sources:
  - acf/head-start-locations
  verified:
    'on': '2026-07-19'
    method: api
- id: pr/guaynabo/hato-nuevo-antes-mamey-ii
  name: Hato Nuevo (antes Mamey II)
  categories:
  - child-care
  address:
    street: Carr. 834 Km 2.2 Iglesia Discipulos De Cristo
    street2: Bo Hato Nuevo
    city: Guaynabo
    state: pr
    zip: 00971
  geo:
    lat: 18.30755
    lng: -66.10284
  phone: 787-720-4040
  sources:
  - acf/head-start-locations
  verified:
    'on': '2026-07-19'
    method: api
- id: pr/guaynabo/health-promed-foundation
  name: HEALTH PROMED FOUNDATION
  categories:
  - community-health-center
  address:
    street: 121 Ave Ponce de Leon
    city: Guaynabo
    state: pr
    zip: 00965
  geo:
    lat: 18.43641
    lng: -66.11643
  phone: 787-268-4171
  external_ids:
    bphc: BPS-H80-030853
  sources:
  - hrsa/health-center-sites
  verified:
    'on': '2026-07-19'
    method: api
- id: pr/guaynabo/hogar-de-ayuda-el-refugio-inc
  name: Hogar de Ayuda El Refugio Inc
  categories:
  - su-treatment
  address:
    street: Avenida Ponce de Leon
    city: Guaynabo
    state: pr
    zip: 00965
  geo:
    lat: 18.43299
    lng: -66.11491
  phone: 787-792-1117
  website: https://www.hogardeayudaelrefugio.com
  sources:
  - samhsa/findtreatment
  verified:
    'on': '2026-07-19'
    method: api
- id: pr/guaynabo/hogar-dios-es-nuestro-refugio-inc
  name: Hogar Dios Es Nuestro Refugio Inc
  categories:
  - su-treatment
  - mh-treatment
  address:
    street: Carr 833 Km 3.0 Barrio Guaraguo
    city: Guaynabo
    state: pr
    zip: 00971
  geo:
    lat: 18.3791
    lng: -66.11937
  phone: 787-649-5461
  website: https://
  sources:
  - samhsa/findtreatment
  verified:
    'on': '2026-07-19'
    method: api
- id: pr/guaynabo/juan-domingo
  name: Juan Domingo
  categories:
  - child-care
  address:
    street: '# 3 Calle Flamboyan, Centro De Servicios Mltiples'
    street2: Juan Domingo
    city: Guaynabo
    state: pr
    zip: 00966
  geo:
    lat: 18.40009
    lng: -66.1194
  phone: 787-720-4040
  sources:
  - acf/head-start-locations
  verified:
    'on': '2026-07-19'
    method: api
- id: pr/guaynabo/los-bez
  name: Los Bez
  categories:
  - child-care
  address:
    street: Calle a, Sector Los Baez
    street2: Piedras Blancas, Frailes
    city: Guaynabo
    state: pr
    zip: 00969
  geo:
    lat: 18.35686
    lng: -66.09292
  phone: 787-720-4040
  sources:
  - acf/head-start-locations
  verified:
    'on': '2026-07-19'
    method: api
- id: pr/guaynabo/mamey-i
  name: Mamey I
  categories:
  - child-care
  address:
    street: Carr. 833 K1 H 4, Complejo Deportivo Moises Garcia Quintana
    street2: Bo. Mamey
    city: Guaynabo
    state: pr
    zip: 00971
  geo:
    lat: 18.31914
    lng: -66.10976
  phone: 787-720-4040
  sources:
  - acf/head-start-locations
  verified:
    'on': '2026-07-19'
    method: api
- id: pr/guaynabo/mariquita
  name: Mariquita
  categories:
  - child-care
  address:
    street: 10 Camino Los Baez
    street2: Bo Frailes Sector Mariquita
    city: Guaynabo
    state: pr
    zip: 00971
  geo:
    lat: 18.36109
    lng: -66.09942
  phone: 787-720-4040
  sources:
  - acf/head-start-locations
  verified:
    'on': '2026-07-19'
    method: api
- id: pr/guaynabo/municipality-of-guaynabo
  name: Municipality Of Guaynabo
  categories:
  - housing-assistance
  address:
    street: 50 Calle Jose De Diego
    city: Guaynabo
    state: pr
    zip: 00969
  description: Housing Choice Voucher (Section 8) agency
  geo:
    lat: 18.35741
    lng: -66.1125
  phone: 787-720-4040
  sources:
  - hud/resource-locator
  verified:
    'on': '2026-07-19'
    method: api
- id: pr/guaynabo/municipio-autonomo-de-guaynabo-centro-cultural-y
  name: Municipio Autonomo De Guaynabo, Centro Cultural Yolanda Guerrero
  categories:
  - meal-program
  address:
    street: 'Ave. Arbolote #9'
    city: Guaynabo
    state: pr
    zip: 00970
  description: Free summer meals for kids and teens (2026 season) — sponsored by Autoridad Escolar de
    Alimentos del DE.
  geo:
    lat: 18.36532
    lng: -66.10696
  phone: (787) 717-5519
  external_ids:
    usda_master: Cycle 10_PR_SFSP_0125
  sources:
  - usda/summer-meal-sites
  verified:
    'on': '2026-07-19'
    method: api
- id: pr/guaynabo/muoz-rivera
  name: Muoz Rivera
  categories:
  - child-care
  address:
    street: 32 Calle Azalea, Complejo Deportivo Muoz Rivera
    street2: Urb. Muoz Rivera
    city: Guaynabo
    state: pr
    zip: 00969
  geo:
    lat: 18.3761
    lng: -66.10399
  phone: 787-720-4040
  sources:
  - acf/head-start-locations
  verified:
    'on': '2026-07-19'
    method: api
- id: pr/guaynabo/piedras-blancas
  name: Piedras Blancas
  categories:
  - child-care
  address:
    street: 'Carr. # 20 Km. 6 Hm. 3 Calle Lopez Silverio'
    street2: Sector Piedras Blanca, Bo. Frailes Llanos
    city: Guaynabo
    state: pr
    zip: 00969
  geo:
    lat: 18.34857
    lng: -66.1033
  phone: 787-720-4040
  sources:
  - acf/head-start-locations
  verified:
    'on': '2026-07-19'
    method: api
- id: pr/guaynabo/rafael-martinez-nadal
  name: Rafael Martinez Nadal
  categories:
  - meal-program
  address:
    street: Calle Ramon Murga Bo. Cano
    city: Guaynabo
    state: pr
    zip: 00969
  description: Free summer meals for kids and teens (2026 season) — sponsored by Autoridad Escolar de
    Alimentos del DE.
  geo:
    lat: 18.35658
    lng: -66.10423
  phone: (787) 690-3476
  external_ids:
    usda_master: Cycle 10_PR_SFSP_0004
  sources:
  - usda/summer-meal-sites
  verified:
    'on': '2026-07-19'
    method: api
- id: pr/guaynabo/sabana
  name: Sabana
  categories:
  - child-care
  address:
    street: '#53 Calle Maritima Esq Desembacadero, al Lado Hogar Crea,'
    street2: Bo.Sabana
    city: Guaynabo
    state: pr
    zip: 00965
  geo:
    lat: 18.43006
    lng: -66.11234
  phone: 787-720-4040
  sources:
  - acf/head-start-locations
  verified:
    'on': '2026-07-19'
    method: api
- id: pr/guaynabo/san-juan-mobile-vet-center
  name: San Juan Mobile Vet Center
  categories: &id001
  - vet-center
  address:
    street: 7 Tabonuco Street, Suite 104
    city: Guaynabo
    state: pr
    zip: 00968
  geo:
    lat: 18.40542
    lng: -66.10628
  phone: 787-749-4409
  website: https://www.va.gov/san-juan-vet-center/locations/#san-juan-mobile-vet-center
  external_ids:
    va: vc_0802MVC
  sources:
  - va/facilities-api
  verified:
    'on': '2026-07-19'
    method: api
- id: pr/guaynabo/san-juan-va-regional-benefit-office
  name: San Juan VA Regional Benefit Office
  categories: &id002
  - va-facility
  description: Regional Benefit Office
  address:
    street: 50 Carr 165
    city: Guaynabo
    state: pr
    zip: 00968
  geo:
    lat: 18.40913
    lng: -66.10165
  phone: 800-827-1000
  website: https://www.va.gov/find-locations/facility/vba_355
  services:
  - ApplyingForBenefits
  - BurialClaimAssistance
  - DisabilityClaimAssistance
  - EducationAndCareerCounseling
  - EducationClaimAssistance
  - FamilyMemberClaimAssistance
  - HomelessAssistance
  - IntegratedDisabilityEvaluationSystemAssistance
  - PreDischargeClaimAssistance
  - TransitionAssistance
  - UpdatingDirectDepositInformation
  - VocationalRehabilitationAndEmploymentAssistance
  - eBenefitsRegistrationAssistance
  external_ids:
    va: vba_355
  sources:
  - va/facilities-api
  verified:
    'on': '2026-07-19'
    method: api
- id: pr/guaynabo/san-juan-vet-center
  name: San Juan Vet Center
  categories: *id001
  address:
    street: 7 Tabonuco Street, Suite 104
    city: Guaynabo
    state: pr
    zip: 00968
  geo:
    lat: 18.40542
    lng: -66.10628
  phone: 787-749-4409
  website: https://www.va.gov/san-juan-vet-center/
  hours:
  - days:
    - mon
    - tue
    - wed
    - thu
    - fri
    open: 08:00
    close: '16:30'
  services:
  - Addiction and substance use care
  - Community engagement
  - Couples and family counseling
  - Grief and bereavement counseling
  - Military sexual trauma care
  - PTSD care
  - Returning service member care
  - Suicide prevention
  - Veteran connections
  external_ids:
    va: vc_0307V
  sources:
  - va/facilities-api
  verified:
    'on': '2026-07-19'
    method: api
- id: pr/guaynabo/santa-rosa-ii
  name: Santa Rosa II
  categories:
  - child-care
  address:
    street: Carr. 833 Km. 4.4 Centro De Servicios Multiples Santa Rosa II
    street2: Bo. Santa Rosa II
    city: Guaynabo
    state: pr
    zip: 00969
  geo:
    lat: 18.33791
    lng: -66.13357
  phone: 787-720-4040
  sources:
  - acf/head-start-locations
  verified:
    'on': '2026-07-19'
    method: api
- id: pr/guaynabo/santa-rosa-iii
  name: Santa Rosa  III
  categories:
  - child-care
  address:
    street: Carr. 833 Km. 11.0
    street2: 'Centro De Servicios Multiples # 86, Bo. Santa Rosa III'
    city: Guaynabo
    state: pr
    zip: 00970
  geo:
    lat: 18.36893
    lng: -66.13639
  phone: 787-720-4040
  sources:
  - acf/head-start-locations
  verified:
    'on': '2026-07-19'
    method: api
- id: pr/guaynabo/shb-verano-de-baloncesto
  name: Shb Verano De Baloncesto
  categories:
  - meal-program
  address:
    street: 591-615 Calle Olimpic San Patricio
    city: Guaynabo
    state: pr
    zip: 00920
  description: Free summer meals for kids and teens (2026 season) — sponsored by DDESS Puerto Rico District.
  geo:
    lat: 18.3996
    lng: -66.10203
  phone: (787) 598-9461
  external_ids:
    usda_master: Cycle 07_PR_SFSP_0178
  sources:
  - usda/summer-meal-sites
  verified:
    'on': '2026-07-19'
    method: api
- id: pr/guaynabo/va-regional-benefit-satellite-office-at-fort-buc
  name: VA Regional Benefit Satellite Office at Fort Buchanan Puerto Rico
  categories: *id002
  description: Satellite Office
  address:
    street: 689 N Terminal Road
    city: Guaynabo
    state: pr
    zip: 00968
  geo:
    lat: 18.41998
    lng: -66.12416
  phone: 787-706-2696
  services:
  - ApplyingForBenefits
  - BurialClaimAssistance
  - DisabilityClaimAssistance
  - EducationClaimAssistance
  - IntegratedDisabilityEvaluationSystemAssistance
  - PreDischargeClaimAssistance
  - TransitionAssistance
  - VocationalRehabilitationAndEmploymentAssistance
  - eBenefitsRegistrationAssistance
  external_ids:
    va: vba_355b
  sources:
  - va/facilities-api
  verified:
    'on': '2026-07-19'
    method: api
