- id: pr/guaynabo/altos-torrimar
  name: Altos Torrimar
  categories:
  - child-care
  address:
    street: Calle Juan Martinez Int Ave. Casa Linda
    street2: Bo. Santa Rosa Iii, Altos Torrimar
    city: Guaynabo
    state: pr
    zip: 00971
  geo:
    lat: 18.37962
    lng: -66.1327
  phone: 787-720-4040
  sources:
  - acf/head-start-locations
  verified:
    'on': '2026-07-19'
    method: api
- id: pr/guaynabo/amelia-ii
  name: Amelia II
  categories:
  - child-care
  address:
    street: 'Cale Diego Vega # 43 Esq Baldorioty'
    street2: Bo. Amelia
    city: Guaynabo
    state: pr
    zip: 00965
  geo:
    lat: 18.43277
    lng: -66.11768
  phone: 787-720-4040
  sources:
  - acf/head-start-locations
  verified:
    'on': '2026-07-19'
    method: api
- id: pr/guaynabo/barrio-ro
  name: Barrio Ro
  categories:
  - child-care
  address:
    street: 'Carr. # 834 Km. 25.5, Complejo Deportivo Pedro Lpez,'
    street2: Bo. Ro
    city: Guaynabo
    state: pr
    zip: 00971
  geo:
    lat: 18.31703
    lng: -66.0923
  phone: 787-720-4040
  sources:
  - acf/head-start-locations
  verified:
    'on': '2026-07-19'
    method: api
- id: pr/guaynabo/city-hall
  name: City Hall
  categories:
  - child-care
  address:
    street: Edificio City Hall
    street2: Calle Jose De Diego Esq. Herminio Diaz Navarro
    city: Guaynabo
    state: pr
    zip: 00970
  geo:
    lat: 18.35859
    lng: -66.11251
  phone: 787-720-4040
  sources:
  - acf/head-start-locations
  verified:
    'on': '2026-07-19'
    method: api
- id: pr/guaynabo/el-jardin
  name: El Jardin
  categories:
  - child-care
  address:
    street: L23 Calle 1 Final
    street2: Urb El Jardin, Bo Frailes Llanos
    city: Guaynabo
    state: pr
    zip: 00969
  geo:
    lat: 18.37558
    lng: -66.11166
  phone: 787-720-4040
  sources:
  - acf/head-start-locations
  verified:
    'on': '2026-07-19'
    method: api
- id: pr/guaynabo/guaraguao-ii
  name: Guaraguao II
  categories:
  - child-care
  address:
    street: 'Carr # 833 Interior Km. 0.2, Al Lado Centro De Servicios Multiples Petra C'
    street2: Bo. Guaraguao
    city: Guaynabo
    state: pr
    zip: 00971
  geo:
    lat: 18.32709
    lng: -66.13586
  phone: 787-720-4040
  sources:
  - acf/head-start-locations
  verified:
    'on': '2026-07-19'
    method: api
- id: pr/guaynabo/hato-nuevo-antes-mamey-ii
  name: Hato Nuevo (antes Mamey II)
  categories:
  - child-care
  address:
    street: Carr. 834 Km 2.2 Iglesia Discipulos De Cristo
    street2: Bo Hato Nuevo
    city: Guaynabo
    state: pr
    zip: 00971
  geo:
    lat: 18.30755
    lng: -66.10284
  phone: 787-720-4040
  sources:
  - acf/head-start-locations
  verified:
    'on': '2026-07-19'
    method: api
- id: pr/guaynabo/health-promed-foundation
  name: HEALTH PROMED FOUNDATION
  categories:
  - community-health-center
  address:
    street: 121 Ave Ponce de Leon
    city: Guaynabo
    state: pr
    zip: 00965
  geo:
    lat: 18.43641
    lng: -66.11643
  phone: 787-268-4171
  external_ids:
    bphc: BPS-H80-030853
  sources:
  - hrsa/health-center-sites
  verified:
    'on': '2026-07-19'
    method: api
- id: pr/guaynabo/hogar-de-ayuda-el-refugio-inc
  name: Hogar de Ayuda El Refugio Inc
  categories:
  - su-treatment
  address:
    street: Avenida Ponce de Leon
    city: Guaynabo
    state: pr
    zip: 00965
  geo:
    lat: 18.43299
    lng: -66.11491
  phone: 787-792-1117
  website: https://www.hogardeayudaelrefugio.com
  sources:
  - samhsa/findtreatment
  verified:
    'on': '2026-07-19'
    method: api
- id: pr/guaynabo/hogar-dios-es-nuestro-refugio-inc
  name: Hogar Dios Es Nuestro Refugio Inc
  categories:
  - su-treatment
  - mh-treatment
  address:
    street: Carr 833 Km 3.0 Barrio Guaraguo
    city: Guaynabo
    state: pr
    zip: 00971
  geo:
    lat: 18.3791
    lng: -66.11937
  phone: 787-649-5461
  website: https://
  sources:
  - samhsa/findtreatment
  verified:
    'on': '2026-07-19'
    method: api
- id: pr/guaynabo/juan-domingo
  name: Juan Domingo
  categories:
  - child-care
  address:
    street: '# 3 Calle Flamboyan, Centro De Servicios Mltiples'
    street2: Juan Domingo
    city: Guaynabo
    state: pr
    zip: 00966
  geo:
    lat: 18.40009
    lng: -66.1194
  phone: 787-720-4040
  sources:
  - acf/head-start-locations
  verified:
    'on': '2026-07-19'
    method: api
- id: pr/guaynabo/los-bez
  name: Los Bez
  categories:
  - child-care
  address:
    street: Calle a, Sector Los Baez
    street2: Piedras Blancas, Frailes
    city: Guaynabo
    state: pr
    zip: 00969
  geo:
    lat: 18.35686
    lng: -66.09292
  phone: 787-720-4040
  sources:
  - acf/head-start-locations
  verified:
    'on': '2026-07-19'
    method: api
- id: pr/guaynabo/mamey-i
  name: Mamey I
  categories:
  - child-care
  address:
    street: Carr. 833 K1 H 4, Complejo Deportivo Moises Garcia Quintana
    street2: Bo. Mamey
    city: Guaynabo
    state: pr
    zip: 00971
  geo:
    lat: 18.31914
    lng: -66.10976
  phone: 787-720-4040
  sources:
  - acf/head-start-locations
  verified:
    'on': '2026-07-19'
    method: api
- id: pr/guaynabo/mariquita
  name: Mariquita
  categories:
  - child-care
  address:
    street: 10 Camino Los Baez
    street2: Bo Frailes Sector Mariquita
    city: Guaynabo
    state: pr
    zip: 00971
  geo:
    lat: 18.36109
    lng: -66.09942
  phone: 787-720-4040
  sources:
  - acf/head-start-locations
  verified:
    'on': '2026-07-19'
    method: api
- id: pr/guaynabo/municipality-of-guaynabo
  name: Municipality Of Guaynabo
  categories:
  - housing-assistance
  address: {street: 50 Calle Jose De Diego, city: Guaynabo, state: pr, zip: 00969}
  description: Housing Choice Voucher (Section 8) agency
  geo: {lat: 18.35741, lng: -66.1125}
  phone: 787-720-4040
  sources:
  - hud/resource-locator
  verified: {'on': '2026-07-19', method: api}
- id: pr/guaynabo/muoz-rivera
  name: Muoz Rivera
  categories:
  - child-care
  address:
    street: 32 Calle Azalea, Complejo Deportivo Muoz Rivera
    street2: Urb. Muoz Rivera
    city: Guaynabo
    state: pr
    zip: 00969
  geo:
    lat: 18.3761
    lng: -66.10399
  phone: 787-720-4040
  sources:
  - acf/head-start-locations
  verified:
    'on': '2026-07-19'
    method: api
- id: pr/guaynabo/piedras-blancas
  name: Piedras Blancas
  categories:
  - child-care
  address:
    street: 'Carr. # 20 Km. 6 Hm. 3 Calle Lopez Silverio'
    street2: Sector Piedras Blanca, Bo. Frailes Llanos
    city: Guaynabo
    state: pr
    zip: 00969
  geo:
    lat: 18.34857
    lng: -66.1033
  phone: 787-720-4040
  sources:
  - acf/head-start-locations
  verified:
    'on': '2026-07-19'
    method: api
- id: pr/guaynabo/sabana
  name: Sabana
  categories:
  - child-care
  address:
    street: '#53 Calle Maritima Esq Desembacadero, al Lado Hogar Crea,'
    street2: Bo.Sabana
    city: Guaynabo
    state: pr
    zip: 00965
  geo:
    lat: 18.43006
    lng: -66.11234
  phone: 787-720-4040
  sources:
  - acf/head-start-locations
  verified:
    'on': '2026-07-19'
    method: api
- id: pr/guaynabo/santa-rosa-ii
  name: Santa Rosa II
  categories:
  - child-care
  address:
    street: Carr. 833 Km. 4.4 Centro De Servicios Multiples Santa Rosa II
    street2: Bo. Santa Rosa II
    city: Guaynabo
    state: pr
    zip: 00969
  geo:
    lat: 18.33791
    lng: -66.13357
  phone: 787-720-4040
  sources:
  - acf/head-start-locations
  verified:
    'on': '2026-07-19'
    method: api
- id: pr/guaynabo/santa-rosa-iii
  name: Santa Rosa  III
  categories:
  - child-care
  address:
    street: Carr. 833 Km. 11.0
    street2: 'Centro De Servicios Multiples # 86, Bo. Santa Rosa III'
    city: Guaynabo
    state: pr
    zip: 00970
  geo:
    lat: 18.36893
    lng: -66.13639
  phone: 787-720-4040
  sources:
  - acf/head-start-locations
  verified:
    'on': '2026-07-19'
    method: api
