- id: pr/hatillo/aibonito
  name: Aibonito
  categories:
  - child-care
  address:
    street: Berrocal Carr. 489 Km 4.2
    street2: Bo. Aibonito, Sector Berrocal
    city: Hatillo
    state: pr
    zip: 00659
  geo:
    lat: 18.3355
    lng: -66.79331
  sources:
  - acf/head-start-locations
  verified:
    'on': '2026-07-19'
    method: api
- id: pr/hatillo/bayaney-i-ii
  name: Bayaney I-II
  categories:
  - child-care
  address:
    street: Carr. 487, Km 8.3
    street2: Parcelas Manuel Candelaria
    city: Hatillo
    state: pr
    zip: 00659
  geo:
    lat: 18.41288
    lng: -66.79593
  sources:
  - acf/head-start-locations
  verified:
    'on': '2026-07-19'
    method: api
- id: pr/hatillo/campo-alegre
  name: Campo Alegre
  categories:
  - child-care
  address:
    street: Carr 129
    street2: Bo. Campo Alegre
    city: Hatillo
    state: pr
    zip: 00659
  geo:
    lat: 18.38966
    lng: -66.79271
  sources:
  - acf/head-start-locations
  verified:
    'on': '2026-07-19'
    method: api
- id: pr/hatillo/capaez
  name: Capaez
  categories:
  - child-care
  address:
    street: Carr 130 Km 6.2 Parcelas Capaez
    city: Hatillo
    state: pr
    zip: 00659
  geo:
    lat: 18.4559
    lng: -66.81109
  phone: 787-846-3400
  sources:
  - acf/head-start-locations
  verified:
    'on': '2026-07-19'
    method: api
- id: pr/hatillo/carrizales-i
  name: Carrizales I
  categories:
  - child-care
  address:
    street: Carrizales
    street2: Calle B Km 84, Carr. 2
    city: Hatillo
    state: pr
    zip: 00659
  geo:
    lat: 18.48189
    lng: -66.7899
  sources:
  - acf/head-start-locations
  verified:
    'on': '2026-07-19'
    method: api
- id: pr/hatillo/carrizales-ii
  name: Carrizales II
  categories:
  - child-care
  address:
    street: Carrizales
    street2: Int. Calle B, Carr. 2
    city: Hatillo
    state: pr
    zip: 00659
  geo:
    lat: 18.48189
    lng: -66.7899
  phone: 787-846-3400
  sources:
  - acf/head-start-locations
  verified:
    'on': '2026-07-19'
    method: api
- id: pr/hatillo/carrizales-iii
  name: Carrizales III
  categories:
  - child-care
  address:
    street: Carrizales
    street2: Calle B
    city: Hatillo
    state: pr
    zip: 00659
  geo:
    lat: 18.48189
    lng: -66.7899
  sources:
  - acf/head-start-locations
  verified:
    'on': '2026-07-19'
    method: api
- id: pr/hatillo/corcovado-i
  name: Corcovado I
  categories:
  - child-care
  address:
    street: Carr. 492, Calle 3
    street2: Parcelas Corcovado
    city: Hatillo
    state: pr
    zip: 00659
  geo:
    lat: 18.48939
    lng: -66.81693
  sources:
  - acf/head-start-locations
  verified:
    'on': '2026-07-19'
    method: api
- id: pr/hatillo/corcovado-ii
  name: Corcovado II
  categories:
  - child-care
  address:
    street: Parcelas Corcovado
    street2: Carr. 492, Km 1.6
    city: Hatillo
    state: pr
    zip: 00659
  geo:
    lat: 18.45652
    lng: -66.77606
  sources:
  - acf/head-start-locations
  verified:
    'on': '2026-07-19'
    method: api
- id: pr/hatillo/corcovado-iii
  name: Corcovado III
  categories:
  - child-care
  address:
    street: Carr 492, Km 33.0, Bo Corcovado
    city: Hatillo
    state: pr
    zip: 00659
  geo:
    lat: 18.45274
    lng: -66.77842
  phone: 787-846-3400
  sources:
  - acf/head-start-locations
  verified:
    'on': '2026-07-19'
    method: api
- id: pr/hatillo/csm-admin-office-hatillo
  name: CSM Admin Office Hatillo
  categories:
  - community-health-center
  address:
    street: 116 Ave Dr Susoni
    city: Hatillo
    state: pr
    zip: 00659
  geo:
    lat: 18.48703
    lng: -66.82597
  phone: 787-898-4190
  website: https://www.csmpr.org
  external_ids:
    bphc: BPS-H80-039653
  sources:
  - hrsa/health-center-sites
  verified:
    'on': '2026-07-19'
    method: api
- id: pr/hatillo/csm-bhi-clinic-and-administrative-offices
  name: CSM BHI Clinic and Administrative Offices
  categories:
  - community-health-center
  address:
    street: 0.6 Carr 119
    city: Hatillo
    state: pr
    zip: 00659
  geo:
    lat: 18.48842
    lng: -66.81613
  phone: 787-898-4190
  website: https://www.csmpr.org
  external_ids:
    bphc: BPS-H80-029897
  sources:
  - hrsa/health-center-sites
  verified:
    'on': '2026-07-19'
    method: api
- id: pr/hatillo/csm-hatillo-clinic
  name: CSM Hatillo Clinic
  categories:
  - community-health-center
  address:
    street: 86.6 Carr 2
    city: Hatillo
    state: pr
    zip: 00659
  geo:
    lat: 18.48767
    lng: -66.81223
  phone: 787-898-4190
  website: https://www.csmpr.org
  external_ids:
    bphc: BPS-H80-027918
  sources:
  - hrsa/health-center-sites
  verified:
    'on': '2026-07-19'
    method: api
- id: pr/hatillo/csm-mobile-clinic
  name: CSM Mobile Clinic
  categories:
  - community-health-center
  address:
    street: 86.6 Carr 2
    city: Hatillo
    state: pr
    zip: 00659
  geo:
    lat: 18.48767
    lng: -66.81223
  phone: 787-898-4190
  website: https://www.csmpr.org
  external_ids:
    bphc: BPS-H80-039074
  sources:
  - hrsa/health-center-sites
  verified:
    'on': '2026-07-19'
    method: api
- id: pr/hatillo/hatillo-pueblo-i-ii
  name: Hatillo Pueblo I-II
  categories:
  - child-care
  address:
    street: 31057 Calle Tulipan
    street2: Bo. Pueblo Sector Quiones
    city: Hatillo
    state: pr
    zip: 00659
  geo:
    lat: 18.4852
    lng: -66.81644
  sources:
  - acf/head-start-locations
  verified:
    'on': '2026-07-19'
    method: api
- id: pr/hatillo/naranjito
  name: Naranjito
  categories:
  - child-care
  address:
    street: Carr. 491, Km 1.4
    street2: Naranjito
    city: Hatillo
    state: pr
    zip: 00659
  geo:
    lat: 18.43589
    lng: -66.80803
  sources:
  - acf/head-start-locations
  verified:
    'on': '2026-07-19'
    method: api
- id: pr/hatillo/pajuil-i-ii
  name: Pajuil I-II
  categories:
  - child-care
  address:
    street: Bo. Pajuil
    street2: Carr. 130 Km 8.2
    city: Hatillo
    state: pr
    zip: 00659
  geo:
    lat: 18.46644
    lng: -66.81212
  sources:
  - acf/head-start-locations
  verified:
    'on': '2026-07-19'
    method: api
