- id: pr/las-piedras/campamento-de-verano-terapias-integradas-individ
  name: Campamento De Verano- Terapias Integradas Individualizadas
  categories:
  - meal-program
  address:
    street: Carr. Pr 198 Km 20.4, Unidad Lote 2 Bo. Quebrada Arena
    city: Las Piedras
    state: pr
    zip: '00771'
  description: Free summer meals for kids and teens (2026 season) — sponsored by Autoridad Escolar de
    Alimentos del DE.
  geo:
    lat: 18.18357
    lng: -65.86937
  phone: (787) 313-8149
  external_ids:
    usda_master: Cycle 10_PR_SFSP_0052
  sources:
  - usda/summer-meal-sites
  verified:
    'on': '2026-07-19'
    method: api
- id: pr/las-piedras/caroletta-kids-centro-pedagogico-integral-llc
  name: Caroletta Kids, Centro Pedagogico Integral Llc
  categories:
  - meal-program
  address:
    street: Ave T Piñero, Carr 183 Km 21.4
    city: Las Piedras
    state: pr
    zip: '00771'
  description: Free summer meals for kids and teens (2026 season) — sponsored by Corporación de Servicios
    Educativos de Yabucoa (COSEY).
  geo:
    lat: 18.17874
    lng: -65.87227
  phone: (787) 399-6579
  external_ids:
    usda_master: Cycle 07_PR_SFSP_0038
  sources:
  - usda/summer-meal-sites
  verified:
    'on': '2026-07-19'
    method: api
- id: pr/las-piedras/centro-boqueron
  name: Centro Boqueron
  categories:
  - child-care
  address:
    street: Carretera PR-937 Km 1.5
    city: Las Piedras
    state: pr
    zip: '00771'
  geo:
    lat: 18.19572
    lng: -65.83353
  sources:
  - acf/head-start-locations
  verified:
    'on': '2026-07-19'
    method: api
- id: pr/las-piedras/centro-collores
  name: Centro Collores
  categories:
  - child-care
  address:
    street: Barrio Collores Sector Amalio Pagan
    street2: Carretera PR-926 Km. 2.2
    city: Las Piedras
    state: pr
    zip: '00771'
  geo:
    lat: 18.18113
    lng: -65.8459
  sources:
  - acf/head-start-locations
  verified:
    'on': '2026-07-19'
    method: api
- id: pr/las-piedras/centro-la-ribera-early-head-start
  name: Centro La Ribera Early Head Start
  categories:
  - child-care
  address:
    street: PR-198 Km 22.5 Interior Calle Manuel Gracia Sur
    city: Las Piedras
    state: pr
    zip: '00771'
  geo:
    lat: 18.18169
    lng: -65.86621
  sources:
  - acf/head-start-locations
  verified:
    'on': '2026-07-19'
    method: api
- id: pr/las-piedras/centro-montones
  name: Centro Montones
  categories:
  - child-care
  address:
    street: Carr 183 Sector Los Marquez
    street2: Km 17.8
    city: Las Piedras
    state: pr
    zip: '00771'
  geo:
    lat: 18.1818
    lng: -65.9042
  phone: 787-733-5594
  sources:
  - acf/head-start-locations
  verified:
    'on': '2026-07-19'
    method: api
- id: pr/las-piedras/centro-montones-iii
  name: Centro Montones III
  categories:
  - child-care
  address:
    street: Km Hm 3.9 Carretera 917 Barrio Tejas
    city: Las Piedras
    state: pr
    zip: '00771'
  geo:
    lat: 18.14688
    lng: -65.91462
  sources:
  - acf/head-start-locations
  verified:
    'on': '2026-07-19'
    method: api
- id: pr/las-piedras/centro-pueblo
  name: Centro Pueblo
  categories:
  - child-care
  address:
    street: '#2'
    street2: Jess T. Pinero
    city: Las Piedras
    state: pr
    zip: '00771'
  geo:
    lat: 18.18159
    lng: -65.8696
  phone: 787-716-9729
  sources:
  - acf/head-start-locations
  verified:
    'on': '2026-07-19'
    method: api
- id: pr/las-piedras/centro-san-juan-bautista
  name: Centro San Juan Bautista
  categories:
  - child-care
  address:
    street: Pueblito del Ro
    street2: Carr 31, calle 3 Parcela 65
    city: Las Piedras
    state: pr
    zip: '00777'
  geo:
    lat: 18.22942
    lng: -65.86047
  phone: 787-510-1606
  sources:
  - acf/head-start-locations
  verified:
    'on': '2026-07-19'
    method: api
- id: pr/las-piedras/centro-tejas
  name: Centro Tejas
  categories:
  - child-care
  address:
    street: Bo. Tejas
    street2: Carr 921 Esq. Ramal 921
    city: Las Piedras
    state: pr
    zip: '00771'
  geo:
    lat: 18.15581
    lng: -65.86375
  phone: 787-912-1320
  sources:
  - acf/head-start-locations
  verified:
    'on': '2026-07-19'
    method: api
- id: pr/las-piedras/centro-thomas-edison
  name: Centro Thomas Edison
  categories:
  - child-care
  address:
    street: Barrio Ceiba Carretera PR-198 Km 19.7
    city: Las Piedras
    state: pr
    zip: '00771'
  geo:
    lat: 18.19706
    lng: -65.88747
  sources:
  - acf/head-start-locations
  verified:
    'on': '2026-07-19'
    method: api
- id: pr/las-piedras/colegio-mi-cuido-y-educacion
  name: Colegio Mi Cuido Y Educacion
  categories:
  - meal-program
  address:
    street: Carr 198 Km. 21.5 Barrio Arenas
    city: Las Piedras
    state: pr
    zip: '00771'
  description: Free summer meals for kids and teens (2026 season) — sponsored by Corporación de Servicios
    Educativos de Yabucoa (COSEY).
  geo:
    lat: 18.19865
    lng: -65.88788
  phone: (787) 733-4868
  external_ids:
    usda_master: Cycle 07_PR_SFSP_0028
  sources:
  - usda/summer-meal-sites
  verified:
    'on': '2026-07-19'
    method: api
- id: pr/las-piedras/cossma-las-piedras
  name: COSSMA Las Piedras
  categories:
  - community-health-center
  address:
    street: Centro Industrial Tejas, Lote 8 Carr. 9921
    city: Las Piedras
    state: pr
    zip: '00771'
  geo:
    lat: 18.18955
    lng: -65.87143
  phone: 787-739-8182
  website: https://cossma.org
  external_ids:
    bphc: BPS-H80-019633
  sources:
  - hrsa/health-center-sites
  verified:
    'on': '2026-07-19'
    method: api
- id: pr/las-piedras/escuela-florencia-garcia
  name: Escuela Florencia García
  categories:
  - meal-program
  address:
    street: Calle Antonio Márquez
    city: Las Piedras
    state: pr
    zip: '00771'
  description: Free summer meals for kids and teens (2026 season) — sponsored by Autoridad Escolar de
    Alimentos del DE.
  geo:
    lat: 18.18493
    lng: -65.87228
  phone: (787) 716-0044
  external_ids:
    usda_master: Cycle 10_PR_SFSP_0008
  sources:
  - usda/summer-meal-sites
  verified:
    'on': '2026-07-19'
    method: api
- id: pr/las-piedras/iglesia-bautista-las-piedras
  name: Iglesia Bautista - Las Piedras
  categories:
  - meal-program
  address:
    street: Bo. Montones 1 Sector Miraflores
    city: Las Piedras
    state: pr
    zip: '00771'
  description: Free summer meals for kids and teens (2026 season) — sponsored by Corporación de Servicios
    Educativos de Yabucoa (COSEY).
  geo:
    lat: 18.18955
    lng: -65.87143
  phone: (787) 900-1362
  external_ids:
    usda_master: Cycle 07_PR_SFSP_0029
  sources:
  - usda/summer-meal-sites
  verified:
    'on': '2026-07-19'
    method: api
- id: pr/las-piedras/nissi-s-day-care
  name: Nissi'S Day Care
  categories:
  - meal-program
  address:
    street: Urb April Garden Calle 3 D35
    city: Las Piedras
    state: pr
    zip: '00771'
  description: Free summer meals for kids and teens (2026 season) — sponsored by Corporación de Servicios
    Educativos de Yabucoa (COSEY).
  geo:
    lat: 18.17599
    lng: -65.88934
  phone: (939) 278-5848
  external_ids:
    usda_master: Cycle 07_PR_SFSP_0042
  sources:
  - usda/summer-meal-sites
  verified:
    'on': '2026-07-19'
    method: api
