- id: pr/luquillo/canta-gallo
  name: Canta Gallo
  categories:
  - child-care
  address:
    street: Carr. 992 Km. 4.2
    street2: Bo. Mameyes Sector Canta Gallo
    city: Luquillo
    state: pr
    zip: '00773'
  geo:
    lat: 18.35162
    lng: -65.74047
  phone: 787-701-0200
  sources:
  - acf/head-start-locations
  verified:
    'on': '2026-07-19'
    method: api
- id: pr/luquillo/el-cem
  name: El Cem
  categories:
  - child-care
  address:
    street: Calle Fernndez Garcia Final
    street2: Res. El Cemi
    city: Luquillo
    state: pr
    zip: '00773'
  geo:
    lat: 18.37288
    lng: -65.71566
  phone: 787-889-4877
  sources:
  - acf/head-start-locations
  verified:
    'on': '2026-07-19'
    method: api
- id: pr/luquillo/estancias-del-atlntico
  name: Estancias del Atlntico
  categories:
  - child-care
  address:
    street: Calle 1 Bloque G
    street2: Estancias Del Atlntico
    city: Luquillo
    state: pr
    zip: '00773'
  geo:
    lat: 18.37007
    lng: -65.72839
  phone: 787-701-0200
  sources:
  - acf/head-start-locations
  verified:
    'on': '2026-07-19'
    method: api
- id: pr/luquillo/fortuna
  name: Fortuna
  categories:
  - child-care
  address:
    street: Calle 11 Parcelas Fortuna
    city: Luquillo
    state: pr
    zip: '00773'
  geo:
    lat: 18.37967
    lng: -65.74516
  phone: 787-701-0200
  sources:
  - acf/head-start-locations
  verified:
    'on': '2026-07-19'
    method: api
- id: pr/luquillo/juan-martn
  name: Juan Martn
  categories:
  - child-care
  address:
    street: Carr. 983 Km. 1.1
    street2: Bo. Juan Martn
    city: Luquillo
    state: pr
    zip: '00773'
  geo:
    lat: 18.34207
    lng: -65.70591
  phone: 787-701-0200
  sources:
  - acf/head-start-locations
  verified:
    'on': '2026-07-19'
    method: api
- id: pr/luquillo/pitahaya-i
  name: Pitahaya I
  categories:
  - child-care
  address:
    street: Carr. 983 Km. 10
    street2: Sector Casa Banca, Bo. Pitahaya
    city: Luquillo
    state: pr
    zip: '00773'
  geo:
    lat: 18.35162
    lng: -65.74047
  phone: 787-701-0200
  sources:
  - acf/head-start-locations
  verified:
    'on': '2026-07-19'
    method: api
- id: pr/luquillo/pitahaya-ii
  name: Pitahaya II
  categories:
  - child-care
  address:
    street: Carr. 991 Km. 2.3
    street2: Bo. Pitahaya
    city: Luquillo
    state: pr
    zip: '00773'
  geo:
    lat: 18.34175
    lng: -65.72529
  phone: 787-701-0200
  sources:
  - acf/head-start-locations
  verified:
    'on': '2026-07-19'
    method: api
