- id: pr/yabucoa/centro-calabazas
  name: Centro Calabazas
  categories:
  - child-care
  address:
    street: Carretera 182 Parcelas Rosa Sanchez
    street2: Barrio Calabazas
    city: Yabucoa
    state: pr
    zip: '00767'
  geo:
    lat: 18.0606
    lng: -65.91742
  sources:
  - acf/head-start-locations
  verified:
    'on': '2026-07-19'
    method: api
- id: pr/yabucoa/centro-caritas-early-head-start
  name: Centro Caritas Early Head Start
  categories:
  - child-care
  address:
    street: Bo Pueblo Sector Urb Ramos Antonini Carr 182 Km 2
    city: Yabucoa
    state: pr
    zip: '00767'
  geo:
    lat: 18.04908
    lng: -65.88191
  sources:
  - acf/head-start-locations
  verified:
    'on': '2026-07-19'
    method: api
- id: pr/yabucoa/centro-martorell-i
  name: Centro Martorell I
  categories:
  - child-care
  address:
    street: Barrio Limones Sector Martorell
    street2: Carretera 904 Km. 0.7
    city: Yabucoa
    state: pr
    zip: '00767'
  geo:
    lat: 18.07348
    lng: -65.89626
  sources:
  - acf/head-start-locations
  verified:
    'on': '2026-07-19'
    method: api
- id: pr/yabucoa/centro-martorell-ii
  name: Centro Martorell II
  categories:
  - child-care
  address:
    street: Barrio Limones Sector Martorell
    street2: Carretera 904 Km. 0.3
    city: Yabucoa
    state: pr
    zip: '00767'
  geo:
    lat: 18.07348
    lng: -65.89626
  sources:
  - acf/head-start-locations
  verified:
    'on': '2026-07-19'
    method: api
- id: pr/yabucoa/centro-mendez
  name: Centro Mendez
  categories:
  - child-care
  address:
    street: 'Urb. Mendez Calle A #60'
    city: Yabucoa
    state: pr
    zip: '00767'
  geo:
    lat: 18.04522
    lng: -65.87264
  sources:
  - acf/head-start-locations
  verified:
    'on': '2026-07-19'
    method: api
- id: pr/yabucoa/centro-playa-guayanes
  name: Centro Playa Guayanes
  categories:
  - child-care
  address:
    street: Carretera 3 R 906 Km. 1.1
    street2: Barrio Playa Guayanes
    city: Yabucoa
    state: pr
    zip: '00767'
  geo:
    lat: 18.04123
    lng: -65.8802
  sources:
  - acf/head-start-locations
  verified:
    'on': '2026-07-19'
    method: api
- id: pr/yabucoa/cossma-new-yabucoa-clinic-site
  name: COSSMA New Yabucoa Clinic Site
  categories:
  - community-health-center
  address:
    street: Carr-901
    city: Yabucoa
    state: pr
    zip: '00767'
  geo:
    lat: 18.04484
    lng: -65.87175
  phone: 787-739-8182
  website: https://www.cossmapr.org
  external_ids:
    bphc: BPS-H80-008636
  sources:
  - hrsa/health-center-sites
  verified:
    'on': '2026-07-19'
    method: api
