- id: nm/albuquerque/alameda
  name: Alameda
  categories:
  - child-care
  address:
    street: 9800 4th St NW
    city: Albuquerque
    state: nm
    zip: '87114'
  place: '3502000'
  geo:
    lat: 35.19272
    lng: -106.61474
  phone: 505-792-1284
  sources:
  - acf/head-start-locations
  verified:
    'on': '2026-07-19'
    method: api
- id: nm/albuquerque/albuquerque-behavioral-health
  name: Albuquerque Behavioral Health
  categories:
  - su-treatment
  - mh-treatment
  address:
    street: 8200 Mountain Road NE
    city: Albuquerque
    state: nm
    zip: '87110'
  place: '3502000'
  geo:
    lat: 35.0913
    lng: -106.55606
  phone: 505-830-6500
  website: https://www.abqbh.com
  sources:
  - samhsa/findtreatment
  verified:
    'on': '2026-07-19'
    method: api
- id: nm/albuquerque/albuquerque-behavioral-health-2
  name: Albuquerque Behavioral Health
  categories:
  - su-treatment
  - mh-treatment
  address:
    street: 1401 San Pedro NE
    city: Albuquerque
    state: nm
    zip: '87110'
  place: '3502000'
  geo:
    lat: 35.09156
    lng: -106.57791
  phone: 505-830-6500
  website: https://www.abqbh.com
  sources:
  - samhsa/findtreatment
  verified:
    'on': '2026-07-19'
    method: api
- id: nm/albuquerque/albuquerque-health-care-for-the-homeless-inc-ahc
  name: Albuquerque Health Care for The Homeless Inc (AHCH)
  categories:
  - su-treatment
  - mh-treatment
  address:
    street: 1217 1st Street
    city: Albuquerque
    state: nm
    zip: '87102'
  place: '3502000'
  geo:
    lat: 35.0955
    lng: -106.6461
  phone: 505-766-5197
  website: https://www.abqhch.org
  sources:
  - samhsa/findtreatment
  verified:
    'on': '2026-07-19'
    method: api
- id: nm/albuquerque/albuquerque-health-services-nw
  name: Albuquerque Health Services NW
  categories:
  - su-treatment
  address:
    street: 172 Montano Road
    city: Albuquerque
    state: nm
    zip: '87108'
  place: '3502000'
  geo:
    lat: 35.13785
    lng: -106.63549
  phone: 505-582-1760
  website: https://www.abqhealthservices.com/
  sources:
  - samhsa/findtreatment
  verified:
    'on': '2026-07-19'
    method: api
- id: nm/albuquerque/albuquerque-health-services-nw-2
  name: Albuquerque Health Services NW
  categories:
  - su-treatment
  address:
    street: 112 Monroe Street NE
    city: Albuquerque
    state: nm
    zip: '87108'
  place: '3502000'
  geo:
    lat: 35.07906
    lng: -106.59107
  phone: 505-260-9917
  website: https://Albuquerquehealthservices.org
  sources:
  - samhsa/findtreatment
  verified:
    'on': '2026-07-19'
    method: api
- id: nm/albuquerque/aliviar-counseling-services-inc
  name: Aliviar Counseling Services Inc
  categories:
  - su-treatment
  - mh-treatment
  address:
    street: 1611 Central NW
    city: Albuquerque
    state: nm
    zip: '87104'
  place: '3502000'
  geo:
    lat: 35.09073
    lng: -106.66515
  phone: 505-247-4622
  website: https://www.aliviarcounselingservices.com
  sources:
  - samhsa/findtreatment
  verified:
    'on': '2026-07-19'
    method: api
- id: nm/albuquerque/all-faiths
  name: All Faiths
  categories:
  - su-treatment
  - mh-treatment
  address:
    street: 1709 Moon Street NE
    city: Albuquerque
    state: nm
    zip: '87112'
  place: '3502000'
  geo:
    lat: 35.10112
    lng: -106.5424
  phone: 505-271-0329
  website: https://www.allfaiths.org
  sources:
  - samhsa/findtreatment
  verified:
    'on': '2026-07-19'
    method: api
- id: nm/albuquerque/all-faiths-2
  name: All Faiths
  categories:
  - su-treatment
  - mh-treatment
  address:
    street: 8401 Constitution Avenue
    city: Albuquerque
    state: nm
    zip: '87110'
  place: '3502000'
  geo:
    lat: 35.09486
    lng: -106.55211
  phone: 505-271-0329
  website: https://www.allfaiths.org
  sources:
  - samhsa/findtreatment
  verified:
    'on': '2026-07-19'
    method: api
- id: nm/albuquerque/all-nations-wellness-center
  name: All Nations Wellness Center
  categories:
  - community-health-center
  address:
    street: 6416 Zuni Rd SE
    city: Albuquerque
    state: nm
    zip: '87108'
  place: '3502000'
  geo:
    lat: 35.07271
    lng: -106.57563
  phone: 505-717-2704
  website: https://www.fnch.org
  external_ids:
    bphc: BPS-H80-033448
  sources:
  - hrsa/health-center-sites
  verified:
    'on': '2026-07-19'
    method: api
- id: nm/albuquerque/ascend-recovery-center
  name: Ascend Recovery Center
  categories:
  - su-treatment
  - mh-treatment
  address:
    street: 883 Lead Avenue SE
    city: Albuquerque
    state: nm
    zip: '87102'
  place: '3502000'
  geo:
    lat: 35.0802
    lng: -106.63842
  phone: 505-369-1699
  website: https://ascendrecoverycenternm.com/
  sources:
  - samhsa/findtreatment
  verified:
    'on': '2026-07-19'
    method: api
- id: nm/albuquerque/bernalillo-county-care-campus-behavioral-health
  name: Bernalillo County CARE Campus Behavioral Health Services CARE Campus
  categories:
  - su-treatment
  address:
    street: 5901 Zuni Road SE
    city: Albuquerque
    state: nm
    zip: '87108'
  place: '3502000'
  geo:
    lat: 35.07384
    lng: -106.58016
  phone: 505-468-1650
  website: https://www.bernco.gov
  sources:
  - samhsa/findtreatment
  verified:
    'on': '2026-07-19'
    method: api
- id: nm/albuquerque/bernalillo-county-housing-department
  name: Bernalillo County Housing Department
  categories:
  - housing-assistance
  address: {street: 2400 Wellesley Dr NE Ste 100, city: Albuquerque, state: nm, zip: '87107'}
  description: Public housing and Housing Choice Voucher agency
  place: '3502000'
  geo: {lat: 35.11297, lng: -106.60673}
  phone: 505-314-0200
  sources:
  - hud/resource-locator
  verified: {'on': '2026-07-19', method: api}
- id: nm/albuquerque/central-new-mexico-treatment-center-metro-treatm
  name: Central New Mexico Treatment Center Metro Treatment of New Mexico LP
  categories:
  - su-treatment
  address:
    street: 630 Haines Avenue NW
    city: Albuquerque
    state: nm
    zip: '87102'
  place: '3502000'
  geo:
    lat: 35.10326
    lng: -106.65208
  phone: 505-268-5611 x24505
  website: https://www.newseason.com/treatment-center-locations/new-mexico/central-new-mexico-treatment-center/
  sources:
  - samhsa/findtreatment
  verified:
    'on': '2026-07-19'
    method: api
- id: nm/albuquerque/centro-de-amor
  name: Centro De Amor
  categories:
  - child-care
  address:
    street: 309 Stover Ave SW
    city: Albuquerque
    state: nm
    zip: '87102'
  place: '3502000'
  geo:
    lat: 35.07876
    lng: -106.65202
  phone: 505-212-7267
  sources:
  - acf/head-start-locations
  verified:
    'on': '2026-07-19'
    method: api
- id: nm/albuquerque/chico-general-bradley
  name: Chico & General Bradley
  categories:
  - child-care
  address:
    street: 150 General Bradley St NE
    city: Albuquerque
    state: nm
    zip: '87123'
  place: '3502000'
  geo:
    lat: 35.0757
    lng: -106.54837
  phone: 505-299-3262
  sources:
  - acf/head-start-locations
  verified:
    'on': '2026-07-19'
    method: api
- id: nm/albuquerque/city-of-albuquerque-housing-authority
  name: City Of Albuquerque Housing Authority
  categories:
  - housing-assistance
  address: {street: 1840 University Blvd SE, city: Albuquerque, state: nm, zip: '87106'}
  description: Public housing and Housing Choice Voucher agency
  place: '3502000'
  geo: {lat: 35.06157, lng: -106.63143}
  phone: 505-764-3920
  sources:
  - hud/resource-locator
  verified: {'on': '2026-07-19', method: api}
- id: nm/albuquerque/client-services-center
  name: Client Services Center
  categories:
  - community-health-center
  address:
    street: 1220 1st St NW
    city: Albuquerque
    state: nm
    zip: '87102'
  place: '3502000'
  geo:
    lat: 35.09546
    lng: -106.64585
  phone: 505-766-5197
  website: https://www.abqhch.org
  external_ids:
    bphc: BPS-H80-011337
  sources:
  - hrsa/health-center-sites
  verified:
    'on': '2026-07-19'
    method: api
- id: nm/albuquerque/counseling-world-llc
  name: Counseling World LLC
  categories:
  - su-treatment
  - mh-treatment
  address:
    street: 1600 San Pedro Drive NE
    city: Albuquerque
    state: nm
    zip: '87110'
  place: '3502000'
  geo:
    lat: 35.09284
    lng: -106.577
  phone: 505-404-0717
  website: https://www.counselingworld.com
  sources:
  - samhsa/findtreatment
  verified:
    'on': '2026-07-19'
    method: api
- id: nm/albuquerque/division-of-child-family-development-administrat
  name: Division of Child & Family Development - Administration
  categories:
  - child-care
  address:
    street: 1820 Randolph Rd SE
    city: Albuquerque
    state: nm
    zip: '87106'
  place: '3502000'
  geo:
    lat: 35.05261
    lng: -106.62566
  phone: 505-765-6500
  sources:
  - acf/head-start-locations
  verified:
    'on': '2026-07-19'
    method: api
- id: nm/albuquerque/dragonfly-counseling-associates
  name: Dragonfly Counseling Associates
  categories:
  - su-treatment
  - mh-treatment
  address:
    street: 1110 Pennsylvania Street NE
    city: Albuquerque
    state: nm
    zip: '87110'
  place: '3502000'
  geo:
    lat: 35.08929
    lng: -106.55895
  phone: 505-265-0753
  website: https://dragonflyabq.com/
  sources:
  - samhsa/findtreatment
  verified:
    'on': '2026-07-19'
    method: api
- id: nm/albuquerque/duke-city-recovery-toolbox-llc
  name: Duke City Recovery Toolbox LLC
  categories:
  - su-treatment
  - mh-treatment
  address:
    street: 912 1st Street NW
    city: Albuquerque
    state: nm
    zip: '87102'
  place: '3502000'
  geo:
    lat: 35.09214
    lng: -106.64627
  phone: 505-224-9777
  website: https://www.dukecityrecovery.com/
  sources:
  - samhsa/findtreatment
  verified:
    'on': '2026-07-19'
    method: api
- id: nm/albuquerque/ec-blessing-box
  name: EC Blessing Box
  categories:
  - food-pantry
  place: '3502000'
  geo:
    lat: 35.11869
    lng: -106.59821
  external_ids:
    lfp: '5717'
  sources:
  - littlefreepantry/map
  verified:
    'on': '2026-07-19'
    method: scrape
- id: nm/albuquerque/ellie-mental-health-southwest-healthworks-llc
  name: Ellie Mental Health Southwest Healthworks LLC
  categories:
  - su-treatment
  - mh-treatment
  address:
    street: 5001 Indian School Road Northeast
    city: Albuquerque
    state: nm
    zip: '87110'
  place: '3502000'
  geo:
    lat: 35.10271
    lng: -106.58898
  phone: 505-548-9023
  website: https://www.elliementalhealth.com/locations/albuquerque-nm/
  sources:
  - samhsa/findtreatment
  verified:
    'on': '2026-07-19'
    method: api
- id: nm/albuquerque/embudo
  name: Embudo
  categories:
  - child-care
  address:
    street: 8000 Mountain Rd NE
    city: Albuquerque
    state: nm
    zip: '87110'
  place: '3502000'
  geo:
    lat: 35.09067
    lng: -106.55752
  phone: 505-212-7335
  sources:
  - acf/head-start-locations
  verified:
    'on': '2026-07-19'
    method: api
- id: nm/albuquerque/emerson-elementary-school
  name: Emerson Elementary School
  categories:
  - community-health-center
  address:
    street: 620 Georgia St SE
    city: Albuquerque
    state: nm
    zip: '87108'
  place: '3502000'
  geo:
    lat: 35.0684
    lng: -106.57192
  phone: 505-255-9091
  website: https://www.fnch.org
  external_ids:
    bphc: BPS-H80-021944
  sources:
  - hrsa/health-center-sites
  verified:
    'on': '2026-07-19'
    method: api
- id: nm/albuquerque/fcch-alameda-center
  name: FCCH/ALAMEDA CENTER
  categories:
  - community-health-center
  address:
    street: 7704 2nd St NW
    city: Albuquerque
    state: nm
    zip: '87107'
  place: '3502000'
  geo:
    lat: 35.16739
    lng: -106.62826
  phone: 505-890-1458
  website: https://www.fcch.com
  external_ids:
    bphc: BPS-H80-005262
  sources:
  - hrsa/health-center-sites
  verified:
    'on': '2026-07-19'
    method: api
- id: nm/albuquerque/fcch-alamosa-center
  name: FCCH/ALAMOSA CENTER
  categories:
  - community-health-center
  address:
    street: 6900 Gonzales Rd SW
    city: Albuquerque
    state: nm
    zip: '87121'
  place: '3502000'
  geo:
    lat: 35.07136
    lng: -106.71039
  phone: 505-831-2534
  website: https://www.fcch.com
  external_ids:
    bphc: BPS-H80-001338
  sources:
  - hrsa/health-center-sites
  verified:
    'on': '2026-07-19'
    method: api
- id: nm/albuquerque/fcch-rio-grande-high-school-sbhc
  name: FCCH/RIO GRANDE HIGH SCHOOL SBHC
  categories:
  - community-health-center
  address:
    street: 2300 Arenal Rd SW
    city: Albuquerque
    state: nm
    zip: '87105'
  place: '3502000'
  geo:
    lat: 35.0504
    lng: -106.69455
  phone: 505-873-0220
  website: https://www.fcch.com
  external_ids:
    bphc: BPS-H80-007471
  sources:
  - hrsa/health-center-sites
  verified:
    'on': '2026-07-19'
    method: api
- id: nm/albuquerque/fcch-south-broadway-center
  name: FCCH/SOUTH BROADWAY CENTER
  categories:
  - community-health-center
  address:
    street: 1401 William St SE
    city: Albuquerque
    state: nm
    zip: '87102'
  place: '3502000'
  geo:
    lat: 35.06929
    lng: -106.64893
  phone: 505-768-5450
  website: https://www.fcch.com
  external_ids:
    bphc: BPS-H80-008628
  sources:
  - hrsa/health-center-sites
  verified:
    'on': '2026-07-19'
    method: api
- id: nm/albuquerque/fcch-south-valley-center
  name: FCCH/SOUTH VALLEY CENTER
  categories:
  - community-health-center
  address:
    street: 2001 Centro Familiar Blvd SW
    city: Albuquerque
    state: nm
    zip: '87105'
  place: '3502000'
  geo:
    lat: 35.0459
    lng: -106.68253
  phone: 505-873-7400
  website: https://www.fcch.com
  external_ids:
    bphc: BPS-H80-000395
  sources:
  - hrsa/health-center-sites
  verified:
    'on': '2026-07-19'
    method: api
- id: nm/albuquerque/fcch-south-valley-center-building-c
  name: FCCH/SOUTH VALLEY CENTER Building C
  categories:
  - community-health-center
  address:
    street: 2001 Centro Familiar Blvd SW
    city: Albuquerque
    state: nm
    zip: '87105'
  place: '3502000'
  geo:
    lat: 35.0459
    lng: -106.68253
  phone: 505-873-7401
  external_ids:
    bphc: BPS-H80-027597
  sources:
  - hrsa/health-center-sites
  verified:
    'on': '2026-07-19'
    method: api
- id: nm/albuquerque/fcch-south-valley-center-building-d
  name: FCCH/SOUTH VALLEY CENTER Building D
  categories:
  - community-health-center
  address:
    street: 2001 Centro Familiar Blvd SW
    city: Albuquerque
    state: nm
    zip: '87105'
  place: '3502000'
  geo:
    lat: 35.0459
    lng: -106.68253
  phone: 505-873-7405
  external_ids:
    bphc: BPS-H80-027596
  sources:
  - hrsa/health-center-sites
  verified:
    'on': '2026-07-19'
    method: api
- id: nm/albuquerque/first-fruits-christian-academy
  name: First Fruits Christian Academy
  categories:
  - child-care
  address:
    street: 500 Oliver Ross Dr NW
    city: Albuquerque
    state: nm
    zip: '87121'
  place: '3502000'
  geo:
    lat: 35.08215
    lng: -106.72898
  phone: 505-833-0358
  sources:
  - acf/head-start-locations
  verified:
    'on': '2026-07-19'
    method: api
- id: nm/albuquerque/first-nations-community-healthsource
  name: First Nations Community HealthSource
  categories:
  - community-health-center
  address:
    street: 5608 Zuni Rd SE
    city: Albuquerque
    state: nm
    zip: '87108'
  place: '3502000'
  geo:
    lat: 35.07253
    lng: -106.58357
  phone: 505-262-2481
  website: https://www.fnch.org
  external_ids:
    bphc: BPS-H80-005607
  sources:
  - hrsa/health-center-sites
  verified:
    'on': '2026-07-19'
    method: api
- id: nm/albuquerque/first-nations-community-healthsource-inc-central
  name: First Nations Community HealthSource Inc Central Avenue Health Center
  categories:
  - community-health-center
  address:
    street: 7317 Central Ave NE
    city: Albuquerque
    state: nm
    zip: '87108'
  place: '3502000'
  geo:
    lat: 35.07566
    lng: -106.5656
  phone: 505-262-2481
  website: https://www.fnch.org
  external_ids:
    bphc: BPS-H80-029889
  sources:
  - hrsa/health-center-sites
  verified:
    'on': '2026-07-19'
    method: api
- id: nm/albuquerque/fishburn-medical-llc-dba-meaningful-recovery-of
  name: Fishburn Medical, LLC DBA Meaningful Recovery of New Mexico
  categories:
  - su-treatment
  address:
    street: 7123 Prospect Place NE
    city: Albuquerque
    state: nm
    zip: '87110'
  place: '3502000'
  geo:
    lat: 35.10622
    lng: -106.56504
  phone: 505-596-4524
  website: https://www.mymeaningfulrecovery.com
  sources:
  - samhsa/findtreatment
  verified:
    'on': '2026-07-19'
    method: api
- id: nm/albuquerque/fnch-integrated-care-mobile-medical-van
  name: FNCH Integrated Care Mobile Medical Van
  categories:
  - community-health-center
  address:
    street: 5608 Zuni Rd SE
    city: Albuquerque
    state: nm
    zip: '87108'
  place: '3502000'
  geo:
    lat: 35.07253
    lng: -106.58357
  phone: 505-262-2481
  website: https://www.fnch.org
  external_ids:
    bphc: BPS-H80-038517
  sources:
  - hrsa/health-center-sites
  verified:
    'on': '2026-07-19'
    method: api
- id: nm/albuquerque/fnch-mobile-medical-clinic-sprinter
  name: FNCH Mobile Medical Clinic Sprinter
  categories:
  - community-health-center
  address:
    street: 5608 Zuni Rd SE
    city: Albuquerque
    state: nm
    zip: '87108'
  place: '3502000'
  geo:
    lat: 35.07253
    lng: -106.58357
  phone: 505-262-2481
  website: https://www.fnch.org
  external_ids:
    bphc: BPS-H80-030944
  sources:
  - hrsa/health-center-sites
  verified:
    'on': '2026-07-19'
    method: api
- id: nm/albuquerque/fnch-outpatient-services
  name: FNCH Outpatient Services
  categories:
  - community-health-center
  address:
    street: 634 Manzano St NE
    city: Albuquerque
    state: nm
    zip: '87110'
  place: '3502000'
  geo:
    lat: 35.08896
    lng: -106.58858
  phone: 505-515-3919
  website: https://www.fnch.org
  external_ids:
    bphc: BPS-H80-020946
  sources:
  - hrsa/health-center-sites
  verified:
    'on': '2026-07-19'
    method: api
- id: nm/albuquerque/fnch-truman-health-center
  name: FNCH-Truman Health Center
  categories:
  - community-health-center
  address:
    street: 625 Truman St NE
    city: Albuquerque
    state: nm
    zip: '87110'
  place: '3502000'
  geo:
    lat: 35.08854
    lng: -106.58779
  phone: 505-262-2481
  website: https://www.fnch.org
  external_ids:
    bphc: BPS-H80-012980
  sources:
  - hrsa/health-center-sites
  verified:
    'on': '2026-07-19'
    method: api
- id: nm/albuquerque/fnch-vision-clinic
  name: FNCH Vision Clinic
  categories:
  - community-health-center
  address:
    street: 505 Madeira Dr SE
    city: Albuquerque
    state: nm
    zip: '87108'
  place: '3502000'
  geo:
    lat: 35.0724
    lng: -106.58442
  phone: 505-944-7397
  external_ids:
    bphc: BPS-H80-036341
  sources:
  - hrsa/health-center-sites
  verified:
    'on': '2026-07-19'
    method: api
- id: nm/albuquerque/grant-middle-school
  name: Grant Middle School
  categories:
  - community-health-center
  address:
    street: 1111 Easterday Dr NE
    city: Albuquerque
    state: nm
    zip: '87112'
  place: '3502000'
  geo:
    lat: 35.09232
    lng: -106.54065
  phone: 505-299-2113
  external_ids:
    bphc: BPS-H80-020872
  sources:
  - hrsa/health-center-sites
  verified:
    'on': '2026-07-19'
    method: api
- id: nm/albuquerque/harm-reduction-outreach-van
  name: Harm Reduction Outreach Van
  categories:
  - community-health-center
  address:
    street: 1217 1st St NW
    city: Albuquerque
    state: nm
    zip: '87102'
  place: '3502000'
  geo:
    lat: 35.09517
    lng: -106.64629
  phone: 505-766-5197
  external_ids:
    bphc: BPS-H80-021176
  sources:
  - hrsa/health-center-sites
  verified:
    'on': '2026-07-19'
    method: api
- id: nm/albuquerque/healing-addiction-in-our-community-serenity-mesa
  name: Healing Addiction in Our Community Serenity Mesa Recovery Center
  categories:
  - su-treatment
  address:
    street: 3701 Condershire Drive SW
    city: Albuquerque
    state: nm
    zip: '87121'
  place: '3502000'
  geo:
    lat: 35.02213
    lng: -106.72277
  phone: 505-877-3644
  website: https://healingaddictionnm.org/
  sources:
  - samhsa/findtreatment
  verified:
    'on': '2026-07-19'
    method: api
- id: nm/albuquerque/heights
  name: Heights
  categories:
  - child-care
  address:
    street: 2520 Virginia St NE
    city: Albuquerque
    state: nm
    zip: '87110'
  place: '3502000'
  geo:
    lat: 35.1102
    lng: -106.55319
  phone: 505-212-7318
  sources:
  - acf/head-start-locations
  verified:
    'on': '2026-07-19'
    method: api
- id: nm/albuquerque/homebased-bernalillo-county
  name: Homebased Bernalillo County
  categories:
  - child-care
  address:
    street: 3451 Candelaria Rd NE
    street2: Ste A
    city: Albuquerque
    state: nm
    zip: '87107'
  place: '3502000'
  geo:
    lat: 35.11674
    lng: -106.60566
  phone: 505-212-7239
  sources:
  - acf/head-start-locations
  verified:
    'on': '2026-07-19'
    method: api
- id: nm/albuquerque/hopeworks-recovering-hope-behavioral-health-cent
  name: HopeWorks Recovering Hope Behavioral Health Cent
  categories:
  - su-treatment
  - mh-treatment
  address:
    street: 1216 4th Street NW
    city: Albuquerque
    state: nm
    zip: '87102'
  place: '3502000'
  geo:
    lat: 35.09626
    lng: -106.64925
  phone: 505-764-8231
  website: https://www.hopeworksnm.org
  sources:
  - samhsa/findtreatment
  verified:
    'on': '2026-07-19'
    method: api
- id: nm/albuquerque/icarus-behavioral-health
  name: Icarus Behavioral Health
  categories:
  - su-treatment
  - mh-treatment
  address:
    street: 8601 Golf Course Road NW
    city: Albuquerque
    state: nm
    zip: '87114'
  place: '3502000'
  geo:
    lat: 35.1815
    lng: -106.68785
  phone: 505-305-0902
  website: https://www.icarusbehavioralhealth.com/
  sources:
  - samhsa/findtreatment
  verified:
    'on': '2026-07-19'
    method: api
- id: nm/albuquerque/integrated-medical-dental-outreach-van
  name: Integrated Medical/Dental Outreach Van
  categories:
  - community-health-center
  address:
    street: 1217 1st St NW
    city: Albuquerque
    state: nm
    zip: '87102'
  place: '3502000'
  geo:
    lat: 35.09517
    lng: -106.64629
  phone: 505-766-5197
  external_ids:
    bphc: BPS-H80-036413
  sources:
  - hrsa/health-center-sites
  verified:
    'on': '2026-07-19'
    method: api
- id: nm/albuquerque/job-corps
  name: Job Corps
  categories:
  - child-care
  address:
    street: 1500 Indian School Rd NW
    city: Albuquerque
    state: nm
    zip: '87104'
  place: '3502000'
  geo:
    lat: 35.1094
    lng: -106.66086
  phone: 505-346-2726
  sources:
  - acf/head-start-locations
  verified:
    'on': '2026-07-19'
    method: api
- id: nm/albuquerque/kirtland
  name: Kirtland
  categories:
  - child-care
  address:
    street: 3530 Gibson Blvd SE
    city: Albuquerque
    state: nm
    zip: '87116'
  place: '3502000'
  geo:
    lat: 35.05802
    lng: -106.60597
  phone: 505-255-2085
  sources:
  - acf/head-start-locations
  verified:
    'on': '2026-07-19'
    method: api
- id: nm/albuquerque/marcos-baca
  name: Marcos Baca
  categories:
  - child-care
  address:
    street: 1714 Centro Familiar Blvd SW
    city: Albuquerque
    state: nm
    zip: '87105'
  place: '3502000'
  geo:
    lat: 35.04471
    lng: -106.68295
  phone: 505-831-6038
  sources:
  - acf/head-start-locations
  verified:
    'on': '2026-07-19'
    method: api
- id: nm/albuquerque/mary-ann-binford
  name: Mary Ann Binford
  categories:
  - child-care
  address:
    street: 1400 Corriz Dr SW
    city: Albuquerque
    state: nm
    zip: '87121'
  place: '3502000'
  geo:
    lat: 35.05147
    lng: -106.72579
  phone: 505-836-0276
  sources:
  - acf/head-start-locations
  verified:
    'on': '2026-07-19'
    method: api
- id: nm/albuquerque/medical-dental-behavioral-health-services-admini
  name: MEDICAL, DENTAL, BEHAVIORAL HEALTH SERVICES & ADMINISTRATION
  categories:
  - community-health-center
  address:
    street: 1217 1st St NW
    city: Albuquerque
    state: nm
    zip: '87102'
  place: '3502000'
  geo:
    lat: 35.09517
    lng: -106.64629
  phone: 505-766-5197
  website: https://www.abqhch.org
  external_ids:
    bphc: BPS-H80-004144
  sources:
  - hrsa/health-center-sites
  verified:
    'on': '2026-07-19'
    method: api
- id: nm/albuquerque/medical-respite-collaborative-gateway-center
  name: Medical Respite Collaborative @ Gateway Center
  categories:
  - community-health-center
  address:
    street: 5400 Gibson Blvd SE
    city: Albuquerque
    state: nm
    zip: '87108'
  place: '3502000'
  geo:
    lat: 35.05736
    lng: -106.5821
  phone: 505-766-5197
  external_ids:
    bphc: BPS-H80-040830
  sources:
  - hrsa/health-center-sites
  verified:
    'on': '2026-07-19'
    method: api
- id: nm/albuquerque/medmark-treatment-centers-five-points
  name: MedMark Treatment Centers Five Points
  categories:
  - su-treatment
  address:
    street: 1528 Five Points Road SW
    city: Albuquerque
    state: nm
    zip: '87105'
  place: '3502000'
  geo:
    lat: 35.06679
    lng: -106.67571
  phone: 469-830-8461
  website: https://www.medmark.com/locations/new-mexico/five-points
  sources:
  - samhsa/findtreatment
  verified:
    'on': '2026-07-19'
    method: api
- id: nm/albuquerque/mel-aragon
  name: Mel Aragon
  categories:
  - child-care
  address:
    street: 5317 2nd St SW
    city: Albuquerque
    state: nm
    zip: '87105'
  place: '3502000'
  geo:
    lat: 35.00188
    lng: -106.66445
  phone: 505-877-2750
  sources:
  - acf/head-start-locations
  verified:
    'on': '2026-07-19'
    method: api
- id: nm/albuquerque/nappr-ehs-child-care-center
  name: NAPPR EHS Child Care Center
  categories:
  - child-care
  address:
    street: 801 Girard Blvd NE
    city: Albuquerque
    state: nm
    zip: '87106'
  place: '3502000'
  geo:
    lat: 35.08849
    lng: -106.61344
  phone: 505-345-6289
  sources:
  - acf/head-start-locations
  verified:
    'on': '2026-07-19'
    method: api
- id: nm/albuquerque/native-american-community-academy-high-school
  name: Native American Community Academy High School
  categories:
  - community-health-center
  address:
    street: 940 University Blvd SE
    city: Albuquerque
    state: nm
    zip: '87106'
  place: '3502000'
  geo:
    lat: 35.07215
    lng: -106.63045
  phone: 505-224-4960
  website: https://www.fnch.org
  external_ids:
    bphc: BPS-H80-029406
  sources:
  - hrsa/health-center-sites
  verified:
    'on': '2026-07-19'
    method: api
- id: nm/albuquerque/native-american-community-academy-school-based-h
  name: Native American Community Academy School Based Health Center
  categories:
  - community-health-center
  address:
    street: 1000 Indian School Rd NW
    city: Albuquerque
    state: nm
    zip: '87104'
  place: '3502000'
  geo:
    lat: 35.10744
    lng: -106.656
  phone: 505-266-0992
  website: https://www.fnch.org
  external_ids:
    bphc: BPS-H80-020878
  sources:
  - hrsa/health-center-sites
  verified:
    'on': '2026-07-19'
    method: api
- id: nm/albuquerque/new-futures-high-school
  name: New Futures High School
  categories:
  - community-health-center
  address:
    street: 5400 Cutler Ave NE
    city: Albuquerque
    state: nm
    zip: '87110'
  place: '3502000'
  geo:
    lat: 35.1055
    lng: -106.58492
  phone: 505-883-5680
  external_ids:
    bphc: BPS-H80-039938
  sources:
  - hrsa/health-center-sites
  verified:
    'on': '2026-07-19'
    method: api
- id: nm/albuquerque/new-season-albuquerque-north-metro-treatment-of
  name: New Season Albuquerque North Metro Treatment of New Mexico LP
  categories:
  - su-treatment
  address:
    street: 9421 Coors Boulevard NW
    city: Albuquerque
    state: nm
    zip: '87114'
  place: '3502000'
  geo:
    lat: 35.18767
    lng: -106.66232
  phone: 505-445-2400 x31005
  website: https://www.newseason.com/treatment-center-locations/new-mexico/albuquerque-north-treatment-center/
  sources:
  - samhsa/findtreatment
  verified:
    'on': '2026-07-19'
    method: api
- id: nm/albuquerque/nm-department-of-health-turquoise-lodge-hospital
  name: NM Department of Health Turquoise Lodge Hospital
  categories:
  - su-treatment
  address:
    street: 5400 Gibson Boulevard SE
    city: Albuquerque
    state: nm
    zip: '87108'
  place: '3502000'
  geo:
    lat: 35.05799
    lng: -106.58138
  phone: 505-841-8978 x4
  website: https://www.nmhealth.org/about/ofm/ltcf/tlh
  sources:
  - samhsa/findtreatment
  verified:
    'on': '2026-07-19'
    method: api
- id: nm/albuquerque/pedro-baca
  name: Pedro Baca
  categories:
  - child-care
  address:
    street: 1700 El Centro Familiar Blvd SW
    city: Albuquerque
    state: nm
    zip: '87105'
  place: '3502000'
  geo:
    lat: 35.04467
    lng: -106.68002
  phone: 505-212-7284
  sources:
  - acf/head-start-locations
  verified:
    'on': '2026-07-19'
    method: api
- id: nm/albuquerque/perfectly-imperfect
  name: Perfectly Imperfect
  categories:
  - su-treatment
  - mh-treatment
  address:
    street: 146 Quincy Street NE
    city: Albuquerque
    state: nm
    zip: '87108'
  place: '3502000'
  geo:
    lat: 35.07984
    lng: -106.5899
  phone: 505-550-1306
  website: https://perfectlyimperfectnm.com
  sources:
  - samhsa/findtreatment
  verified:
    'on': '2026-07-19'
    method: api
- id: nm/albuquerque/plaza-feliz
  name: Plaza Feliz
  categories:
  - child-care
  address:
    street: 517 San Pablo St SE
    street2: Bldg K
    city: Albuquerque
    state: nm
    zip: '87108'
  place: '3502000'
  geo:
    lat: 35.0701
    lng: -106.56357
  phone: 505-255-0247
  sources:
  - acf/head-start-locations
  verified:
    'on': '2026-07-19'
    method: api
- id: nm/albuquerque/reginald-chavez
  name: Reginald Chavez
  categories:
  - child-care
  address:
    street: 2700 Mountain Rd NW
    city: Albuquerque
    state: nm
    zip: '87104'
  place: '3502000'
  geo:
    lat: 35.09902
    lng: -106.67947
  phone: 505-244-0330
  sources:
  - acf/head-start-locations
  verified:
    'on': '2026-07-19'
    method: api
- id: nm/albuquerque/school-on-wheels-ehs
  name: School On Wheels EHS
  categories:
  - child-care
  address:
    street: 129 Hartline Ave SW
    city: Albuquerque
    state: nm
    zip: '87105'
  place: '3502000'
  geo:
    lat: 35.06815
    lng: -106.66831
  phone: 505-764-3297
  sources:
  - acf/head-start-locations
  verified:
    'on': '2026-07-19'
    method: api
- id: nm/albuquerque/sequoyah-adolescent-treatment-center
  name: Sequoyah Adolescent Treatment Center
  categories:
  - su-treatment
  - mh-treatment
  address:
    city: Albuquerque
    state: nm
    zip: '87107'
  place: '3502000'
  phone: 505-222-0355
  website: https://www.nmhealth.org/about/ofm/ltcf/satc/
  sources:
  - samhsa/findtreatment
  verified:
    'on': '2026-07-19'
    method: api
- id: nm/albuquerque/severo-padillas
  name: Severo Padillas
  categories:
  - child-care
  address:
    street: 2525 Los Padillas Rd SW
    city: Albuquerque
    state: nm
    zip: '87105'
  place: '3502000'
  geo:
    lat: 34.95801
    lng: -106.70848
  phone: 505-873-3841
  sources:
  - acf/head-start-locations
  verified:
    'on': '2026-07-19'
    method: api
- id: nm/albuquerque/south-valley-cnm
  name: South Valley CNM
  categories:
  - child-care
  address:
    street: 5816 Isleta Blvd SW
    city: Albuquerque
    state: nm
    zip: '87105'
  place: '3502000'
  geo:
    lat: 34.9961
    lng: -106.69227
  phone: 505-873-0905
  sources:
  - acf/head-start-locations
  verified:
    'on': '2026-07-19'
    method: api
- id: nm/albuquerque/south-valley-health-services
  name: South Valley Health Services
  categories:
  - su-treatment
  address:
    street: 1209 Isaleta Boulevard SW
    city: Albuquerque
    state: nm
    zip: '87105'
  place: '3502000'
  geo:
    lat: 35.05547
    lng: -106.67278
  phone: 505-873-1973
  website: https://www.nwrecoverycenters.com/centers/south-valley-health-services-albuquerque-nm-1555635
  sources:
  - samhsa/findtreatment
  verified:
    'on': '2026-07-19'
    method: api
- id: nm/albuquerque/southwest-care-center-albuquerque
  name: Southwest CARE Center - Albuquerque
  categories:
  - community-health-center
  address:
    street: 4710 Jefferson St NE, Ste A
    city: Albuquerque
    state: nm
    zip: '87109'
  place: '3502000'
  geo:
    lat: 35.13467
    lng: -106.59346
  phone: 505-955-9454
  website: https://southwestcare.org/
  external_ids:
    bphc: BPS-LAL-030649
  sources:
  - hrsa/health-center-sites
  verified:
    'on': '2026-07-19'
    method: api
- id: nm/albuquerque/southwestern-indian-polytechnic-institute-sipi
  name: Southwestern Indian Polytechnic Institute (SIPI)
  categories:
  - child-care
  address:
    street: 9169 Coors Blvd NW
    city: Albuquerque
    state: nm
    zip: '87120'
  place: '3502000'
  geo:
    lat: 35.17625
    lng: -106.67083
  phone: 505-922-6524
  sources:
  - acf/head-start-locations
  verified:
    'on': '2026-07-19'
    method: api
- id: nm/albuquerque/st-marks-in-the-valley-day-school
  name: St. Marks in the Valley Day School
  categories:
  - child-care
  address:
    street: 2913 Commercial St NE
    city: Albuquerque
    state: nm
    zip: '87107'
  place: '3502000'
  geo:
    lat: 35.11582
    lng: -106.63979
  phone: 505-344-7369
  sources:
  - acf/head-start-locations
  verified:
    'on': '2026-07-19'
    method: api
- id: nm/albuquerque/state-of-the-heart-recovery-inc
  name: State of the Heart Recovery Inc
  categories:
  - su-treatment
  - mh-treatment
  address:
    street: 203 California Street NE
    city: Albuquerque
    state: nm
    zip: '87108'
  place: '3502000'
  geo:
    lat: 35.07795
    lng: -106.57558
  phone: 505-546-1192
  website: https://www.stateoftheheartrecovery.com/
  sources:
  - samhsa/findtreatment
  verified:
    'on': '2026-07-19'
    method: api
- id: nm/albuquerque/streetwise-inc
  name: Streetwise Inc
  categories:
  - su-treatment
  - mh-treatment
  address:
    street: 3232 Candelaria Road NE
    city: Albuquerque
    state: nm
    zip: '87107'
  place: '3502000'
  geo:
    lat: 35.11623
    lng: -106.60902
  phone: 505-323-3785
  website: https://streetnm.org
  sources:
  - samhsa/findtreatment
  verified:
    'on': '2026-07-19'
    method: api
- id: nm/albuquerque/susans-legacy-weil
  name: Susans Legacy Weil
  categories:
  - su-treatment
  address:
    street: 11005 Spain Road NE
    city: Albuquerque
    state: nm
    zip: '87111'
  place: '3502000'
  geo:
    lat: 35.14251
    lng: -106.51693
  phone: 505-843-8450
  website: https://www.susanslegacy.org
  sources:
  - samhsa/findtreatment
  verified:
    'on': '2026-07-19'
    method: api
- id: nm/albuquerque/take-what-you-need-leave-what-you-can
  name: Take What You Need, Leave What You Can
  categories:
  - food-pantry
  place: '3502000'
  geo:
    lat: 35.10653
    lng: -106.64419
  external_ids:
    lfp: '2138'
  sources:
  - littlefreepantry/map
  verified:
    'on': '2026-07-19'
    method: scrape
- id: nm/albuquerque/tree-frog
  name: Tree Frog
  categories:
  - su-treatment
  - mh-treatment
  address:
    street: 148 Quincy Street NE
    city: Albuquerque
    state: nm
    zip: '87108'
  place: '3502000'
  geo:
    lat: 35.08003
    lng: -106.5901
  phone: 505-480-2090
  website: https://perfectlyimperfectnm.com
  sources:
  - samhsa/findtreatment
  verified:
    'on': '2026-07-19'
    method: api
- id: nm/albuquerque/trumbull-ehs
  name: Trumbull EHS
  categories:
  - child-care
  address:
    street: 419 Pennsylvania St SE
    city: Albuquerque
    state: nm
    zip: '87108'
  place: '3502000'
  geo:
    lat: 35.06958
    lng: -106.55972
  phone: 505-256-2045
  sources:
  - acf/head-start-locations
  verified:
    'on': '2026-07-19'
    method: api
- id: nm/albuquerque/turning-point-recovery-center-inc-detox-and-resi
  name: Turning Point Recovery Center Inc Detox and Residential Treatment
  categories:
  - su-treatment
  address:
    street: 9201 Montgomery Boulevard
    city: Albuquerque
    state: nm
    zip: '87111'
  place: '3502000'
  geo:
    lat: 35.13111
    lng: -106.54018
  phone: 505-217-1717
  website: https://www.turningpointrc.com
  sources:
  - samhsa/findtreatment
  verified:
    'on': '2026-07-19'
    method: api
- id: nm/albuquerque/u-turn-for-christ-new-mexico
  name: U Turn for Christ New Mexico
  categories:
  - su-treatment
  address:
    street: 205 Camino Cuatro SW
    city: Albuquerque
    state: nm
    zip: '87105'
  place: '3502000'
  geo:
    lat: 34.9972
    lng: -106.66519
  phone: 505-903-8194
  website: https://www.uturnforchristnewmexico.org
  sources:
  - samhsa/findtreatment
  verified:
    'on': '2026-07-19'
    method: api
- id: nm/albuquerque/university-of-new-mexico-hospital-addictions-and
  name: University of New Mexico Hospital Addictions and Substance Abuse Program
  categories:
  - su-treatment
  - mh-treatment
  address:
    street: 2600 Yale Avenue SE
    city: Albuquerque
    state: nm
    zip: '87106'
  place: '3502000'
  geo:
    lat: 35.05349
    lng: -106.62133
  phone: 505-994-7999
  website: https://
  sources:
  - samhsa/findtreatment
  verified:
    'on': '2026-07-19'
    method: api
- id: nm/albuquerque/university-of-new-mexico-hospital-childrens-psyc
  name: University of New Mexico Hospital Childrens Psychiatric Center
  categories:
  - su-treatment
  - mh-treatment
  address:
    street: 1001 Yale Boulevard NE
    city: Albuquerque
    state: nm
    zip: '87106'
  place: '3502000'
  geo:
    lat: 35.09261
    lng: -106.62146
  phone: 505-272-2890
  website: https://hsc.unm.edu/
  sources:
  - samhsa/findtreatment
  verified:
    'on': '2026-07-19'
    method: api
- id: nm/albuquerque/university-of-new-mexico-hospital-psychiatric-ce
  name: University of New Mexico Hospital Psychiatric Center
  categories:
  - su-treatment
  - mh-treatment
  address:
    street: 2600 Marble Avenue NE
    city: Albuquerque
    state: nm
    zip: '87106'
  place: '3502000'
  geo:
    lat: 35.09025
    lng: -106.61523
  phone: 505-272-2800
  website: https://hsc.unm.edu/health/about/
  sources:
  - samhsa/findtreatment
  verified:
    'on': '2026-07-19'
    method: api
- id: nm/albuquerque/waves-behavioral-health
  name: Waves Behavioral Health
  categories:
  - su-treatment
  - mh-treatment
  address:
    street: 12400 Menaul Boulevard
    city: Albuquerque
    state: nm
    zip: '87112'
  place: '3502000'
  geo:
    lat: 35.10899
    lng: -106.49904
  phone: 505-933-1978
  website: https://www.wavesbh.Com
  sources:
  - samhsa/findtreatment
  verified:
    'on': '2026-07-19'
    method: api
- id: nm/albuquerque/wilson-middle-school
  name: Wilson Middle School
  categories:
  - community-health-center
  address:
    street: 1138 Cardenas Dr SE
    city: Albuquerque
    state: nm
    zip: '87108'
  place: '3502000'
  geo:
    lat: 35.06217
    lng: -106.57975
  phone: 505-268-3961
  external_ids:
    bphc: BPS-H80-020876
  sources:
  - hrsa/health-center-sites
  verified:
    'on': '2026-07-19'
    method: api
