- id: nm/bernalillo/bernalillo
  name: Bernalillo
  categories:
  - child-care
  address:
    street: 100 Ricardo Ln
    city: Bernalillo
    state: nm
    zip: '87004'
  description: Head Start early childhood program — 34 funded slots; operated by Presbyterian Medical
    Services.
  place: '3506970'
  geo:
    lat: 35.3242
    lng: -106.53951
  phone: 505-771-0647
  sources:
  - acf/head-start-locations
  verified:
    'on': '2026-07-19'
    method: api
- id: nm/bernalillo/el-pueblo-health-services
  name: El Pueblo Health Services
  categories:
  - community-health-center
  cost: sliding-scale
  address:
    street: 121 Calle del Presidente
    city: Bernalillo
    state: nm
    zip: '87004'
  place: '3506970'
  geo:
    lat: 35.30509
    lng: -106.54761
  phone: 505-867-2324
  external_ids:
    bphc: BPS-LAL-009766
  sources:
  - hrsa/health-center-sites
  verified:
    'on': '2026-07-19'
    method: api
- id: nm/bernalillo/el-pueblo-health-services-behavioral-health
  name: El Pueblo Health Services Behavioral Health
  categories:
  - community-health-center
  cost: sliding-scale
  address:
    street: 681 S Camino del Pueblo
    city: Bernalillo
    state: nm
    zip: '87004'
  place: '3506970'
  geo:
    lat: 35.30674
    lng: -106.54822
  phone: 505-867-2324
  external_ids:
    bphc: BPS-LAL-035869
  sources:
  - hrsa/health-center-sites
  verified:
    'on': '2026-07-19'
    method: api
- id: nm/bernalillo/five-sandoval-indian-pueblos-nm
  name: Five Sandoval Indian Pueblos, NM
  categories:
  - food
  - food-bank
  description: Food Distribution Program on Indian Reservations (FDPIR) administering agency — distributes
    USDA foods to income-eligible households living on or near participating reservations.
  place: '3506970'
  geo:
    lat: 35.3246
    lng: -106.56251
  external_ids:
    fns: '3599005'
  sources:
  - usda/fdpir-csfp-agencies
  verified:
    'on': '2026-07-20'
    method: api
- id: nm/bernalillo/pms-sandoval-county-health-commons-dental-servic
  name: PMS - Sandoval County Health Commons Dental Services
  categories:
  - community-health-center
  cost: sliding-scale
  address:
    street: 1500 Idalia Road
    city: Bernalillo
    state: nm
    zip: '87004'
  place: '3506970'
  geo:
    lat: 35.30863
    lng: -106.58493
  phone: 505-994-1640
  website: https://www.pms-inc.org
  external_ids:
    bphc: BPS-H80-013121
  sources:
  - hrsa/health-center-sites
  verified:
    'on': '2026-07-19'
    method: api
- id: nm/bernalillo/school-based-health-center-at-bernalillo-high-sc
  name: School Based Health Center at Bernalillo High School
  categories:
  - community-health-center
  cost: sliding-scale
  address:
    street: 148 Spartan Aly BLDG
    city: Bernalillo
    state: nm
    zip: '87004'
  place: '3506970'
  geo:
    lat: 35.31877
    lng: -106.54065
  phone: 505-867-2388
  external_ids:
    bphc: BPS-LAL-028331
  sources:
  - hrsa/health-center-sites
  verified:
    'on': '2026-07-19'
    method: api
