- id: nm/hobbs/broadmoor-elementary
  name: Broadmoor Elementary
  categories:
  - meal-program
  address: {street: 1500 N Houston St., city: Hobbs, state: nm, zip: '88240'}
  description: Free summer meals for kids and teens (2026 season) — sponsored by Hobbs Municipal Schools.
  place: '3532520'
  geo: {lat: 32.71568, lng: -103.13043}
  phone: (575) 433-0220
  external_ids: {usda_master: Cycle 03_NM_SFSP_0062}
  sources:
  - usda/summer-meal-sites
  verified: {'on': '2026-07-19', method: api}
- id: nm/hobbs/city-park
  name: City Park
  categories:
  - meal-program
  address: {street: 1001 E Clinton, city: Hobbs, state: nm, zip: '88240'}
  description: Free summer meals for kids and teens (2026 season) — sponsored by Hobbs Head Start Child
    and Family Svc.
  place: '3532520'
  geo: {lat: 32.70707, lng: -103.12496}
  phone: (575) 399-0157
  external_ids: {usda_master: Cycle 03_NM_SFSP_0008}
  sources:
  - usda/summer-meal-sites
  verified: {'on': '2026-07-19', method: api}
- id: nm/hobbs/coffield-center
  name: COFFIELD CENTER
  categories:
  - child-care
  address:
    street: 1200 E Alston St
    city: Hobbs
    state: nm
    zip: '88240'
  place: '3532520'
  geo:
    lat: 32.70519
    lng: -103.12297
  phone: 575-391-8600
  sources:
  - acf/head-start-locations
  verified:
    'on': '2026-07-19'
    method: api
- id: nm/hobbs/college-lane-elementary
  name: College Lane Elementary
  categories:
  - meal-program
  address: {street: 2000 W College Lane, city: Hobbs, state: nm, zip: '88240'}
  description: Free summer meals for kids and teens (2026 season) — sponsored by Hobbs Municipal Schools.
  place: '3532520'
  geo: {lat: 32.7703, lng: -103.15921}
  phone: (575) 433-0220
  external_ids: {usda_master: Cycle 03_NM_SFSP_0063}
  sources:
  - usda/summer-meal-sites
  verified: {'on': '2026-07-19', method: api}
- id: nm/hobbs/four-seasons-apartments
  name: Four Seasons Apartments
  categories:
  - meal-program
  address: {street: 2405 N Jefferson St., city: Hobbs, state: nm, zip: '88240'}
  description: Free summer meals for kids and teens (2026 season) — sponsored by Hobbs Head Start Child
    and Family Svc.
  place: '3532520'
  geo: {lat: 32.7281, lng: -103.12328}
  phone: (575) 399-0157
  external_ids: {usda_master: Cycle 03_NM_SFSP_0009}
  sources:
  - usda/summer-meal-sites
  verified: {'on': '2026-07-19', method: api}
- id: nm/hobbs/guidance-center-of-lea-county-inc-lea-county-inc
  name: Guidance Center of Lea County Inc Lea County Inc
  categories:
  - su-treatment
  - mh-treatment
  address:
    street: 920 West Broadway
    city: Hobbs
    state: nm
    zip: '88240'
  place: '3532520'
  geo:
    lat: 32.70116
    lng: -103.14704
  phone: 575-393-3168
  website: https://gclcnm.squarespace.com
  sources:
  - samhsa/findtreatment
  verified:
    'on': '2026-07-19'
    method: api
- id: nm/hobbs/highland-middle-school
  name: Highland Middle School
  categories:
  - meal-program
  address: {street: 2500 N Jefferson St, city: Hobbs, state: nm, zip: '88240'}
  description: Free summer meals for kids and teens (2026 season) — sponsored by Hobbs Municipal Schools.
  place: '3532520'
  geo: {lat: 32.72842, lng: -103.12322}
  phone: (575) 433-0220
  external_ids: {usda_master: Cycle 03_NM_SFSP_0064}
  sources:
  - usda/summer-meal-sites
  verified: {'on': '2026-07-19', method: api}
- id: nm/hobbs/hobbs-apartments
  name: Hobbs Apartments
  categories:
  - meal-program
  address: {street: 2001 E Clinton St., city: Hobbs, state: nm, zip: '88240'}
  description: Free summer meals for kids and teens (2026 season) — sponsored by Hobbs Head Start Child
    and Family Svc.
  place: '3532520'
  geo: {lat: 32.70509, lng: -103.11384}
  phone: (575) 399-0157
  external_ids: {usda_master: Cycle 03_NM_SFSP_0010}
  sources:
  - usda/summer-meal-sites
  verified: {'on': '2026-07-19', method: api}
- id: nm/hobbs/hobbs-high-school
  name: Hobbs High School
  categories:
  - meal-program
  address: {street: 800 N Jefferson Street, city: Hobbs, state: nm, zip: '88240'}
  description: Free summer meals for kids and teens (2026 season) — sponsored by Hobbs Municipal Schools.
  place: '3532520'
  geo: {lat: 32.70969, lng: -103.12326}
  phone: (575) 433-0220
  external_ids: {usda_master: Cycle 03_NM_SFSP_0066}
  sources:
  - usda/summer-meal-sites
  verified: {'on': '2026-07-19', method: api}
- id: nm/hobbs/hobbs-public-library
  name: Hobbs Public Library
  categories:
  - meal-program
  address: {street: 509 N. Shipp St., city: Hobbs, state: nm, zip: '88240'}
  description: Free summer meals for kids and teens (2026 season) — sponsored by Hobbs Head Start Child
    and Family Svc.
  place: '3532520'
  geo: {lat: 32.70552, lng: -103.13748}
  phone: (575) 399-0157
  external_ids: {usda_master: Cycle 03_NM_SFSP_0019}
  sources:
  - usda/summer-meal-sites
  verified: {'on': '2026-07-19', method: api}
- id: nm/hobbs/jefferson-park
  name: Jefferson Park
  categories:
  - meal-program
  address: {street: 1200 W. Park St., city: Hobbs, state: nm, zip: '88240'}
  description: Free summer meals for kids and teens (2026 season) — sponsored by Hobbs Head Start Child
    and Family Svc.
  place: '3532520'
  geo: {lat: 32.70608, lng: -103.14966}
  phone: (575) 399-0157
  external_ids: {usda_master: Cycle 03_NM_SFSP_0011}
  sources:
  - usda/summer-meal-sites
  verified: {'on': '2026-07-19', method: api}
- id: nm/hobbs/mills-elementary-park
  name: Mills Elementary Park
  categories:
  - meal-program
  address: {street: 3000 N Acoma, city: Hobbs, state: nm, zip: '88240'}
  description: Free summer meals for kids and teens (2026 season) — sponsored by Hobbs Head Start Child
    and Family Svc.
  place: '3532520'
  geo: {lat: 32.73329, lng: -103.14054}
  phone: (575) 399-0157
  external_ids: {usda_master: Cycle 03_NM_SFSP_0012}
  sources:
  - usda/summer-meal-sites
  verified: {'on': '2026-07-19', method: api}
- id: nm/hobbs/new-leaf-apartment
  name: New Leaf Apartment
  categories:
  - meal-program
  address: {street: 1601 E. Marland, city: Hobbs, state: nm, zip: '88240'}
  description: Free summer meals for kids and teens (2026 season) — sponsored by Hobbs Head Start Child
    and Family Svc.
  place: '3532520'
  geo: {lat: 32.6966, lng: -103.11705}
  phone: (575) 399-0157
  external_ids: {usda_master: Cycle 03_NM_SFSP_0018}
  sources:
  - usda/summer-meal-sites
  verified: {'on': '2026-07-19', method: api}
- id: nm/hobbs/palmer-drug-abuse-prog-of-lea-county
  name: Palmer Drug Abuse Prog of Lea County
  categories:
  - su-treatment
  address:
    street: 500 North Dalmont Street
    city: Hobbs
    state: nm
    zip: '88240'
  place: '3532520'
  geo:
    lat: 32.70531
    lng: -103.13477
  phone: 575-397-6333
  website: https://www.pdaphobbs.com
  sources:
  - samhsa/findtreatment
  verified:
    'on': '2026-07-19'
    method: api
- id: nm/hobbs/park-place-apartments
  name: Park Place Apartments
  categories:
  - meal-program
  address: {street: 920 E. Michigan Dr., city: Hobbs, state: nm, zip: '88240'}
  description: Free summer meals for kids and teens (2026 season) — sponsored by Hobbs Head Start Child
    and Family Svc.
  place: '3532520'
  geo: {lat: 32.72212, lng: -103.12462}
  phone: (575) 399-0157
  external_ids: {usda_master: Cycle 03_NM_SFSP_0013}
  sources:
  - usda/summer-meal-sites
  verified: {'on': '2026-07-19', method: api}
- id: nm/hobbs/permian-basin-counseling-and-guidance
  name: Permian Basin Counseling and Guidance
  categories:
  - mh-treatment
  address:
    street: 502 West Alto
    city: Hobbs
    state: nm
    zip: '88240'
  place: '3532520'
  geo:
    lat: 32.71711
    lng: -103.14131
  phone: 575-249-2561
  website: https://www.permianbasincounseling.org
  sources:
  - samhsa/findtreatment
  verified:
    'on': '2026-07-19'
    method: api
- id: nm/hobbs/pms-hobbs-family-health-center
  name: PMS - HOBBS FAMILY HEALTH CENTER
  categories:
  - community-health-center
  address:
    street: 200 W Lea St
    city: Hobbs
    state: nm
    zip: '88240'
  place: '3532520'
  geo:
    lat: 32.70941
    lng: -103.13775
  phone: 505-391-0270
  website: https://www.pms-inc.org
  external_ids:
    bphc: BPS-H80-007657
  sources:
  - hrsa/health-center-sites
  verified:
    'on': '2026-07-19'
    method: api
- id: nm/hobbs/rojas-tutoring-services-llc
  name: Rojas Tutoring Services, Llc
  categories:
  - meal-program
  address: {street: 414 W Taylor St., city: Hobbs, state: nm, zip: '88240'}
  description: Free summer meals for kids and teens (2026 season) — sponsored by Hobbs Head Start Child
    and Family Svc.
  place: '3532520'
  geo: {lat: 32.70192, lng: -103.14068}
  phone: (575) 399-0157
  external_ids: {usda_master: Cycle 03_NM_SFSP_0021}
  sources:
  - usda/summer-meal-sites
  verified: {'on': '2026-07-19', method: api}
- id: nm/hobbs/skyview-apartments
  name: Skyview Apartments
  categories:
  - meal-program
  address: {street: 3600 N Skyview St., city: Hobbs, state: nm, zip: '88240'}
  description: Free summer meals for kids and teens (2026 season) — sponsored by Hobbs Head Start Child
    and Family Svc.
  place: '3532520'
  geo: {lat: 32.73865, lng: -103.12964}
  phone: (575) 399-0157
  external_ids: {usda_master: Cycle 03_NM_SFSP_0022}
  sources:
  - usda/summer-meal-sites
  verified: {'on': '2026-07-19', method: api}
- id: nm/hobbs/southern-heights-elementary-school
  name: Southern Heights Elementary School
  categories:
  - meal-program
  address: {street: 101 E Texas Street, city: Hobbs, state: nm, zip: '88240'}
  description: Free summer meals for kids and teens (2026 season) — sponsored by Hobbs Municipal Schools.
  place: '3532520'
  geo: {lat: 32.68901, lng: -103.13556}
  phone: (575) 433-0220
  external_ids: {usda_master: Cycle 03_NM_SFSP_0067}
  sources:
  - usda/summer-meal-sites
  verified: {'on': '2026-07-19', method: api}
- id: nm/hobbs/taylor-elementary-park
  name: Taylor Elementary Park
  categories:
  - meal-program
  address: {street: 1520 N Breckon Dr., city: Hobbs, state: nm, zip: '88240'}
  description: Free summer meals for kids and teens (2026 season) — sponsored by Hobbs Head Start Child
    and Family Svc.
  place: '3532520'
  geo: {lat: 32.7162, lng: -103.11633}
  phone: (575) 399-0157
  external_ids: {usda_master: Cycle 03_NM_SFSP_0015}
  sources:
  - usda/summer-meal-sites
  verified: {'on': '2026-07-19', method: api}
- id: nm/hobbs/tieuel-center
  name: TIEUEL CENTER
  categories:
  - child-care
  address:
    street: 950 E Snyder St
    city: Hobbs
    state: nm
    zip: '88240'
  place: '3532520'
  geo:
    lat: 32.70402
    lng: -103.12454
  phone: 575-397-7336
  sources:
  - acf/head-start-locations
  verified:
    'on': '2026-07-19'
    method: api
- id: nm/hobbs/washington-heights-center
  name: WASHINGTON HEIGHTS CENTER
  categories:
  - child-care
  address:
    street: 203 E Texas St
    city: Hobbs
    state: nm
    zip: '88240'
  place: '3532520'
  geo:
    lat: 32.68934
    lng: -103.13499
  phone: 575-397-1363
  sources:
  - acf/head-start-locations
  verified:
    'on': '2026-07-19'
    method: api
- id: nm/hobbs/washington-park
  name: Washington Park
  categories:
  - meal-program
  address: {street: 600 S 4Th St., city: Hobbs, state: nm, zip: '88240'}
  description: Free summer meals for kids and teens (2026 season) — sponsored by Hobbs Head Start Child
    and Family Svc.
  place: '3532520'
  geo: {lat: 32.69515, lng: -103.12249}
  phone: (575) 399-0157
  external_ids: {usda_master: Cycle 03_NM_SFSP_0016}
  sources:
  - usda/summer-meal-sites
  verified: {'on': '2026-07-19', method: api}
