- id: nm/hobbs/coffield-center
  name: COFFIELD CENTER
  categories:
  - child-care
  address:
    street: 1200 E Alston St
    city: Hobbs
    state: nm
    zip: '88240'
  place: '3532520'
  geo:
    lat: 32.70519
    lng: -103.12297
  phone: 575-391-8600
  sources:
  - acf/head-start-locations
  verified:
    'on': '2026-07-19'
    method: api
- id: nm/hobbs/guidance-center-of-lea-county-inc-lea-county-inc
  name: Guidance Center of Lea County Inc Lea County Inc
  categories:
  - su-treatment
  - mh-treatment
  address:
    street: 920 West Broadway
    city: Hobbs
    state: nm
    zip: '88240'
  place: '3532520'
  geo:
    lat: 32.70116
    lng: -103.14704
  phone: 575-393-3168
  website: https://gclcnm.squarespace.com
  sources:
  - samhsa/findtreatment
  verified:
    'on': '2026-07-19'
    method: api
- id: nm/hobbs/palmer-drug-abuse-prog-of-lea-county
  name: Palmer Drug Abuse Prog of Lea County
  categories:
  - su-treatment
  address:
    street: 500 North Dalmont Street
    city: Hobbs
    state: nm
    zip: '88240'
  place: '3532520'
  geo:
    lat: 32.70531
    lng: -103.13477
  phone: 575-397-6333
  website: https://www.pdaphobbs.com
  sources:
  - samhsa/findtreatment
  verified:
    'on': '2026-07-19'
    method: api
- id: nm/hobbs/permian-basin-counseling-and-guidance
  name: Permian Basin Counseling and Guidance
  categories:
  - mh-treatment
  address:
    street: 502 West Alto
    city: Hobbs
    state: nm
    zip: '88240'
  place: '3532520'
  geo:
    lat: 32.71711
    lng: -103.14131
  phone: 575-249-2561
  website: https://www.permianbasincounseling.org
  sources:
  - samhsa/findtreatment
  verified:
    'on': '2026-07-19'
    method: api
- id: nm/hobbs/pms-hobbs-family-health-center
  name: PMS - HOBBS FAMILY HEALTH CENTER
  categories:
  - community-health-center
  address:
    street: 200 W Lea St
    city: Hobbs
    state: nm
    zip: '88240'
  place: '3532520'
  geo:
    lat: 32.70941
    lng: -103.13775
  phone: 505-391-0270
  website: https://www.pms-inc.org
  external_ids:
    bphc: BPS-H80-007657
  sources:
  - hrsa/health-center-sites
  verified:
    'on': '2026-07-19'
    method: api
- id: nm/hobbs/tieuel-center
  name: TIEUEL CENTER
  categories:
  - child-care
  address:
    street: 950 E Snyder St
    city: Hobbs
    state: nm
    zip: '88240'
  place: '3532520'
  geo:
    lat: 32.70402
    lng: -103.12454
  phone: 575-397-7336
  sources:
  - acf/head-start-locations
  verified:
    'on': '2026-07-19'
    method: api
- id: nm/hobbs/washington-heights-center
  name: WASHINGTON HEIGHTS CENTER
  categories:
  - child-care
  address:
    street: 203 E Texas St
    city: Hobbs
    state: nm
    zip: '88240'
  place: '3532520'
  geo:
    lat: 32.68934
    lng: -103.13499
  phone: 575-397-1363
  sources:
  - acf/head-start-locations
  verified:
    'on': '2026-07-19'
    method: api
