- id: nm/las-cruces/adult-behavioral-health
  name: Adult Behavioral Health
  categories:
  - community-health-center
  address:
    street: 535 S Miranda St
    city: Las Cruces
    state: nm
    zip: '88005'
  place: '3539380'
  geo:
    lat: 32.30454
    lng: -106.78149
  phone: 575-528-1105
  website: https://www.lcdfnm.org
  external_ids:
    bphc: BPS-H80-031402
  sources:
  - hrsa/health-center-sites
  verified:
    'on': '2026-07-19'
    method: api
- id: nm/las-cruces/alegra-site
  name: Alegra Site
  categories:
  - child-care
  address:
    street: 4500 Bataan Memorial E
    street2: Ste E
    city: Las Cruces
    state: nm
    zip: '88011'
  place: '3539380'
  geo:
    lat: 32.37413
    lng: -106.73759
  phone: 575-222-4570
  sources:
  - acf/head-start-locations
  verified:
    'on': '2026-07-19'
    method: api
- id: nm/las-cruces/amador-health-center
  name: Amador Health Center
  categories:
  - community-health-center
  address:
    street: 999 W Amador Ave
    city: Las Cruces
    state: nm
    zip: '88005'
  place: '3539380'
  geo:
    lat: 32.30254
    lng: -106.78822
  phone: 575-527-5482
  website: https://www.amadorhealth.org
  external_ids:
    bphc: BPS-H80-029958
  sources:
  - hrsa/health-center-sites
  verified:
    'on': '2026-07-19'
    method: api
- id: nm/las-cruces/amador-recovery-project
  name: Amador Recovery Project
  categories:
  - community-health-center
  address:
    street: '999 W Amador Ave, #D'
    city: Las Cruces
    state: nm
    zip: '88005'
  place: '3539380'
  geo:
    lat: 32.30303
    lng: -106.78871
  phone: 575-527-5482
  external_ids:
    bphc: BPS-H80-029821
  sources:
  - hrsa/health-center-sites
  verified:
    'on': '2026-07-19'
    method: api
- id: nm/las-cruces/arrowhead-park-early-college
  name: Arrowhead Park Early College
  categories:
  - community-health-center
  address:
    street: 3600 Arrowhead Dr
    city: Las Cruces
    state: nm
    zip: '88011'
  place: '3539380'
  geo:
    lat: 32.2744
    lng: -106.73915
  phone: 575-556-8200
  external_ids:
    bphc: BPS-H80-040565
  sources:
  - hrsa/health-center-sites
  verified:
    'on': '2026-07-19'
    method: api
- id: nm/las-cruces/ben-archer-health-center-dona-ana
  name: Ben Archer Health Center - Dona Ana
  categories:
  - community-health-center
  address:
    street: 1600 Thorpe Rd
    city: Las Cruces
    state: nm
    zip: '88012'
  place: '3539380'
  geo:
    lat: 32.39131
    lng: -106.80578
  phone: 575-382-9292
  website: https://www.bahcnm.org
  external_ids:
    bphc: BPS-H80-004485
  sources:
  - hrsa/health-center-sites
  verified:
    'on': '2026-07-19'
    method: api
- id: nm/las-cruces/ben-archer-health-center-east-las-cruces
  name: Ben Archer Health Center - East Las Cruces
  categories:
  - community-health-center
  address:
    street: 3331 Del Rey Blvd
    city: Las Cruces
    state: nm
    zip: '88012'
  place: '3539380'
  geo:
    lat: 32.35344
    lng: -106.76829
  phone: 575-267-3280
  website: https://BAHCNM.ORG
  external_ids:
    bphc: BPS-H80-015725
  sources:
  - hrsa/health-center-sites
  verified:
    'on': '2026-07-19'
    method: api
- id: nm/las-cruces/ben-archer-health-center-mayfield-school-base
  name: Ben Archer Health Center Mayfield School Base
  categories:
  - community-health-center
  address:
    street: 1990 Bruins Ln
    city: Las Cruces
    state: nm
    zip: '88007'
  place: '3539380'
  geo:
    lat: 32.32474
    lng: -106.80981
  phone: 575-267-3280
  website: https://bahcnm.org
  external_ids:
    bphc: BPS-H80-013098
  sources:
  - hrsa/health-center-sites
  verified:
    'on': '2026-07-19'
    method: api
- id: nm/las-cruces/ben-archer-health-center-of-las-cruces
  name: Ben Archer Health Center of Las Cruces
  categories:
  - community-health-center
  address:
    street: 1998 N Motel Blvd
    city: Las Cruces
    state: nm
    zip: '88007'
  place: '3539380'
  geo:
    lat: 32.32502
    lng: -106.81116
  phone: 575-267-3280
  website: https://www.bahcnm.org
  external_ids:
    bphc: BPS-H80-010780
  sources:
  - hrsa/health-center-sites
  verified:
    'on': '2026-07-19'
    method: api
- id: nm/las-cruces/ben-archer-health-center-radium-springs
  name: Ben Archer Health Center - Radium Springs
  categories:
  - community-health-center
  address:
    street: 12080 L B Lindbeck Rd
    city: Las Cruces
    state: nm
    zip: '88007'
  place: '3539380'
  geo:
    lat: 32.49204
    lng: -106.90511
  phone: 575-526-6200
  website: https://www.bahcnm.org
  external_ids:
    bphc: BPS-H80-007752
  sources:
  - hrsa/health-center-sites
  verified:
    'on': '2026-07-19'
    method: api
- id: nm/las-cruces/bhc-mesilla-valley-hospital
  name: BHC Mesilla Valley Hospital
  categories:
  - su-treatment
  - mh-treatment
  address:
    street: 3751 Del Rey Boulevard
    city: Las Cruces
    state: nm
    zip: '88012'
  place: '3539380'
  geo:
    lat: 32.35669
    lng: -106.77388
  phone: 575-382-3500
  website: https://www.mesillavalleyhospital.com
  sources:
  - samhsa/findtreatment
  verified:
    'on': '2026-07-19'
    method: api
- id: nm/las-cruces/booker-t-washington-elementary-school-head-start
  name: Booker T Washington Elementary School-Head Start
  categories:
  - child-care
  address:
    street: 755 E Chestnut Ave
    city: Las Cruces
    state: nm
    zip: '88001'
  place: '3539380'
  geo:
    lat: 32.3213
    lng: -106.77406
  phone: 575-527-9595
  sources:
  - acf/head-start-locations
  verified:
    'on': '2026-07-19'
    method: api
- id: nm/las-cruces/butterfield-community-center
  name: Butterfield Community Center
  categories:
  - meal-program
  address:
    street: 9350 Berry Patch Lane
    city: Las Cruces
    state: nm
    zip: '88011'
  description: Free summer meals for kids and teens (2026 season) — sponsored by County of Dona Ana.
  place: '3539380'
  geo:
    lat: 32.40235
    lng: -106.64734
  phone: (575) 528-8755
  external_ids:
    usda_master: Cycle 03_NM_SFSP_0025
  sources:
  - usda/summer-meal-sites
  verified:
    'on': '2026-07-19'
    method: api
- id: nm/las-cruces/centennial-school-based-health-center
  name: Centennial School-Based Health Center
  categories:
  - community-health-center
  address:
    street: 1950 S Sonoma Ranch Blvd
    city: Las Cruces
    state: nm
    zip: '88011'
  place: '3539380'
  geo:
    lat: 32.30422
    lng: -106.71087
  phone: 575-526-1105
  external_ids:
    bphc: BPS-H80-013424
  sources:
  - hrsa/health-center-sites
  verified:
    'on': '2026-07-19'
    method: api
- id: nm/las-cruces/central-medical-complex
  name: Central Medical Complex
  categories:
  - community-health-center
  address:
    street: 575 S Alameda Blvd
    city: Las Cruces
    state: nm
    zip: '88005'
  place: '3539380'
  geo:
    lat: 32.30523
    lng: -106.77938
  phone: 575-526-1105
  external_ids:
    bphc: BPS-H80-019517
  sources:
  - hrsa/health-center-sites
  verified:
    'on': '2026-07-19'
    method: api
- id: nm/las-cruces/columbia-elementary-school-head-start
  name: Columbia Elementary School-Head Start
  categories:
  - child-care
  address:
    street: 1950 S Sonoma Ranch Blvd
    city: Las Cruces
    state: nm
    zip: '88011'
  place: '3539380'
  geo:
    lat: 32.26369
    lng: -106.69859
  phone: 575-527-1561
  sources:
  - acf/head-start-locations
  verified:
    'on': '2026-07-19'
    method: api
- id: nm/las-cruces/conlee-elementary-school-head-start
  name: Conlee Elementary School-Head Start
  categories:
  - child-care
  address:
    street: 1701 Boston Dr
    city: Las Cruces
    state: nm
    zip: '88001'
  place: '3539380'
  geo:
    lat: 32.29809
    lng: -106.75079
  phone: 575-527-9656
  sources:
  - acf/head-start-locations
  verified:
    'on': '2026-07-19'
    method: api
- id: nm/las-cruces/csar-chvez-elementary-school-head-start
  name: Csar Chvez Elementary School-Head Start
  categories:
  - child-care
  address:
    street: 5250 Holman Rd
    city: Las Cruces
    state: nm
    zip: '88012'
  place: '3539380'
  geo:
    lat: 32.40019
    lng: -106.6821
  phone: 575-527-6022
  sources:
  - acf/head-start-locations
  verified:
    'on': '2026-07-19'
    method: api
- id: nm/las-cruces/dona-ana-elementary-school-head-start
  name: Dona Ana Elementary School-Head Start
  categories:
  - child-care
  address:
    street: 5551 Camino De Flores
    city: Las Cruces
    state: nm
    zip: '88007'
  place: '3539380'
  geo:
    lat: 32.38385
    lng: -106.81008
  phone: 575-527-9506
  sources:
  - acf/head-start-locations
  verified:
    'on': '2026-07-19'
    method: api
- id: nm/las-cruces/dona-ana-government-community-resources
  name: Dona Ana Government & Community Resources
  categories:
  - utility-assistance
  description: LIHEAP intake office serving Dona Ana County
  address: {street: 2121 Summit Court, city: Las Cruces, state: nm, zip: 88001-8238}
  place: '3539380'
  phone: 800-283-4465
  sources:
  - acf/liheap-clearinghouse
  verified: {'on': '2026-07-19', method: scrape}
- id: nm/las-cruces/east-mesa-medical-and-dental-clinic
  name: East Mesa Medical and Dental Clinic
  categories:
  - community-health-center
  address:
    street: 8600 Bataan Memorial E
    city: Las Cruces
    state: nm
    zip: '88011'
  place: '3539380'
  geo:
    lat: 32.4061
    lng: -106.65188
  phone: 575-373-9202
  website: https://www.lcdfnm.org
  external_ids:
    bphc: BPS-H80-005627
  sources:
  - hrsa/health-center-sites
  verified:
    'on': '2026-07-19'
    method: api
- id: nm/las-cruces/elite-primary-care-dba-elite-methadone-clinic
  name: Elite Primary Care DBA Elite Methadone Clinic
  categories:
  - su-treatment
  address:
    street: 530 North Telshor Boulevard
    city: Las Cruces
    state: nm
    zip: '88011'
  place: '3539380'
  geo:
    lat: 32.32421
    lng: -106.75171
  phone: 575-215-3389
  website: https://www.eliteprimarynm.com/moudtreatment
  sources:
  - samhsa/findtreatment
  verified:
    'on': '2026-07-19'
    method: api
- id: nm/las-cruces/fairacres-elementary-school-head-start
  name: Fairacres Elementary School-Head Start
  categories:
  - child-care
  address:
    street: 4501 W Picacho Ave
    city: Las Cruces
    state: nm
    zip: '88007'
  place: '3539380'
  geo:
    lat: 32.30438
    lng: -106.84279
  phone: 575-527-9606
  sources:
  - acf/head-start-locations
  verified:
    'on': '2026-07-19'
    method: api
- id: nm/las-cruces/families-and-youth-innovations
  name: Families and Youth Innovations
  categories:
  - su-treatment
  - mh-treatment
  address:
    street: 1320 South Solano Street
    city: Las Cruces
    state: nm
    zip: '88001'
  place: '3539380'
  geo:
    lat: 32.29857
    lng: -106.76263
  phone: 575-522-4004
  website: https://www.fyiplusnm.org
  sources:
  - samhsa/findtreatment
  verified:
    'on': '2026-07-19'
    method: api
- id: nm/las-cruces/hermosa-heights-elementary-school-head-start
  name: Hermosa Heights Elementary School-Head Start
  categories:
  - child-care
  address:
    street: 1655 E Amador Ave
    city: Las Cruces
    state: nm
    zip: '88001'
  place: '3539380'
  geo:
    lat: 32.31164
    lng: -106.76152
  phone: 575-527-9530
  sources:
  - acf/head-start-locations
  verified:
    'on': '2026-07-19'
    method: api
- id: nm/las-cruces/inetmed-rx2-inc
  name: Inetmed Rx2 Inc
  categories:
  - su-treatment
  - mh-treatment
  address:
    street: 1635 South Don Roser Drive
    city: Las Cruces
    state: nm
    zip: '88011'
  place: '3539380'
  geo:
    lat: 32.30033
    lng: -106.74178
  phone: 575-636-2506
  website: https://www.inetmedrx2.com/
  sources:
  - samhsa/findtreatment
  verified:
    'on': '2026-07-19'
    method: api
- id: nm/las-cruces/la-clinca-de-familia-early-head-start
  name: La Clinca de Familia Early Head Start
  categories:
  - child-care
  address:
    street: 4121 Sam Steele Way
    street2: C13 and C15
    city: Las Cruces
    state: nm
    zip: '88005'
  place: '3539380'
  geo:
    lat: 32.27172
    lng: -106.74988
  phone: 575-532-0515
  sources:
  - acf/head-start-locations
  verified:
    'on': '2026-07-19'
    method: api
- id: nm/las-cruces/la-clinica-de-familia-inc
  name: La Clinica De Familia Inc
  categories:
  - su-treatment
  - mh-treatment
  address:
    street: 535 South Miranda Street
    city: Las Cruces
    state: nm
    zip: '88005'
  place: '3539380'
  geo:
    lat: 32.30445
    lng: -106.78154
  phone: 575-526-1105
  website: https://www.laclinicadefamilia.org
  sources:
  - samhsa/findtreatment
  verified:
    'on': '2026-07-19'
    method: api
- id: nm/las-cruces/la-clinica-de-familia-inc-childrens-outpatient
  name: La Clinica De Familia Inc Childrens Outpatient
  categories:
  - su-treatment
  - mh-treatment
  address:
    street: 760 North Motel Boulevard
    city: Las Cruces
    state: nm
    zip: '88007'
  place: '3539380'
  geo:
    lat: 32.3058
    lng: -106.81355
  phone: 575-526-1105
  website: https://www.laclinicadefamilia.org
  sources:
  - samhsa/findtreatment
  verified:
    'on': '2026-07-19'
    method: api
- id: nm/las-cruces/la-clinica-de-familia-s-community-mental-health
  name: La Clinica de Familia's  Community Mental Health Clinic
  categories:
  - community-health-center
  address:
    street: 760 N Motel Blvd, Ste A
    city: Las Cruces
    state: nm
    zip: '88007'
  place: '3539380'
  geo:
    lat: 32.30561
    lng: -106.81408
  phone: 575-528-5513
  external_ids:
    bphc: BPS-H80-032332
  sources:
  - hrsa/health-center-sites
  verified:
    'on': '2026-07-19'
    method: api
- id: nm/las-cruces/las-cruces-high-school-school-based-health-cente
  name: Las Cruces High School  - School based Health Center
  categories:
  - community-health-center
  address:
    street: 1750 El Paseo Rd
    city: Las Cruces
    state: nm
    zip: '88001'
  place: '3539380'
  geo:
    lat: 32.29209
    lng: -106.76746
  phone: 575-556-8200
  external_ids:
    bphc: BPS-H80-040564
  sources:
  - hrsa/health-center-sites
  verified:
    'on': '2026-07-19'
    method: api
- id: nm/las-cruces/las-cruces-mobile-vet-center
  name: Las Cruces Mobile Vet Center
  categories: &id001
  - vet-center
  address:
    street: 1120 Commerce Drive, Suite B
    city: Las Cruces
    state: nm
    zip: '88001'
  place: '3539380'
  geo:
    lat: 32.34704
    lng: -106.76422
  phone: 575-523-9826
  website: https://www.va.gov/las-cruces-vet-center/locations/#las-cruces-mobile-vet-center
  external_ids:
    va: vc_0838MVC
  sources:
  - va/facilities-api
  verified:
    'on': '2026-07-19'
    method: api
- id: nm/las-cruces/las-cruces-va-clinic
  name: Las Cruces VA Clinic
  categories:
  - va-facility
  - health
  description: Multi-Specialty CBOC
  address:
    street: 3401 Del Rey Boulevard
    city: Las Cruces
    state: nm
    zip: '88012'
  place: '3539380'
  geo:
    lat: 32.35492
    lng: -106.76862
  phone: 575-522-1241
  website: https://www.va.gov/el-paso-health-care/locations/las-cruces-va-clinic/
  hours:
  - days:
    - mon
    - wed
    - thu
    - fri
    open: 08:00
    close: '16:30'
  - days:
    - tue
    open: 09:00
    close: '16:30'
  services:
  - Audiology and speech
  - Dermatology
  - Mental health care
  - Primary care
  - Rehabilitation and extended care
  - Toxic exposure screening
  external_ids:
    va: vha_756GA
  sources:
  - va/facilities-api
  verified:
    'on': '2026-07-19'
    method: api
- id: nm/las-cruces/las-cruces-vet-center
  name: Las Cruces Vet Center
  categories: *id001
  address:
    street: 1120 Commerce Drive, Suite B
    city: Las Cruces
    state: nm
    zip: '88011'
  place: '3539380'
  geo:
    lat: 32.34704
    lng: -106.76422
  phone: 575-523-9826
  website: https://www.va.gov/las-cruces-vet-center/
  hours:
  - days:
    - mon
    - tue
    - wed
    - thu
    - fri
    open: 08:00
    close: '16:30'
  services:
  - Addiction and substance use care
  - Community engagement
  - Couples and family counseling
  - Grief and bereavement counseling
  - Homeless Veteran care
  - Intimate partner violence support
  - LGBTQ+ Veteran care
  - Military sexual trauma care
  - Minority Veteran care
  - PTSD care
  - Returning service member care
  - Suicide prevention
  - Telehealth
  - Veteran connections
  - Whole health
  - Women Veteran care
  external_ids:
    va: vc_0530V
  sources:
  - va/facilities-api
  verified:
    'on': '2026-07-19'
    method: api
- id: nm/las-cruces/las-cruces-women-s-health-2
  name: Las Cruces Women's Health 2
  categories:
  - community-health-center
  address:
    street: 385 Calle de Alegra, Building C
    city: Las Cruces
    state: nm
    zip: '88005'
  place: '3539380'
  geo:
    lat: 32.29113
    lng: -106.77127
  phone: 575-521-7181
  website: https://www.lcdfnm.org
  external_ids:
    bphc: BPS-H80-010100
  sources:
  - hrsa/health-center-sites
  verified:
    'on': '2026-07-19'
    method: api
- id: nm/las-cruces/lcdf-administration-office
  name: LCDF Administration Office
  categories:
  - community-health-center
  address:
    street: 385 Calle de Alegra, Building A
    city: Las Cruces
    state: nm
    zip: '88005'
  place: '3539380'
  geo:
    lat: 32.29095
    lng: -106.77198
  phone: 575-526-1105
  external_ids:
    bphc: BPS-H80-009517
  sources:
  - hrsa/health-center-sites
  verified:
    'on': '2026-07-19'
    method: api
- id: nm/las-cruces/lcdf-early-head-start
  name: LCDF Early Head Start
  categories:
  - child-care
  address:
    street: 526 S Alameda Blvd
    city: Las Cruces
    state: nm
    zip: '88005'
  place: '3539380'
  geo:
    lat: 32.30497
    lng: -106.78055
  phone: 575-532-0515
  sources:
  - acf/head-start-locations
  verified:
    'on': '2026-07-19'
    method: api
- id: nm/las-cruces/lcdf-early-head-start-2
  name: LCDF Early Head Start
  categories:
  - child-care
  address:
    street: 4101 Sam Steel Way
    city: Las Cruces
    state: nm
    zip: '88003'
  place: '3539380'
  geo:
    lat: 32.27224
    lng: -106.74967
  phone: 575-532-0515
  sources:
  - acf/head-start-locations
  verified:
    'on': '2026-07-19'
    method: api
- id: nm/las-cruces/little-pantry-on-north-melendres-st
  name: Little Pantry on North Melendres St.
  categories:
  - food-pantry
  place: '3539380'
  geo:
    lat: 32.31356
    lng: -106.78744
  external_ids:
    lfp: '2967'
  sources:
  - littlefreepantry/map
  verified:
    'on': '2026-07-19'
    method: scrape
- id: nm/las-cruces/loma-heights-elementary-school-head-start
  name: Loma Heights Elementary School-Head Start
  categories:
  - child-care
  address:
    street: 1600 E Madrid Ave
    city: Las Cruces
    state: nm
    zip: '88001'
  place: '3539380'
  geo:
    lat: 32.3311
    lng: -106.76952
  phone: 575-527-9546
  sources:
  - acf/head-start-locations
  verified:
    'on': '2026-07-19'
    method: api
- id: nm/las-cruces/lynn-middle-school-school-based-health-center
  name: Lynn Middle School School-Based Health Center
  categories:
  - community-health-center
  address:
    street: 950 S Walnut St
    city: Las Cruces
    state: nm
    zip: '88001'
  place: '3539380'
  geo:
    lat: 32.30624
    lng: -106.75222
  phone: 575-556-8200
  external_ids:
    bphc: BPS-H80-036677
  sources:
  - hrsa/health-center-sites
  verified:
    'on': '2026-07-19'
    method: api
- id: nm/las-cruces/macarthur-elementary-school-head-start
  name: MacArthur Elementary School-Head Start
  categories:
  - child-care
  address:
    street: 655 4th St
    city: Las Cruces
    state: nm
    zip: '88005'
  place: '3539380'
  geo:
    lat: 32.31131
    lng: -106.79369
  phone: 575-527-9556
  sources:
  - acf/head-start-locations
  verified:
    'on': '2026-07-19'
    method: api
- id: nm/las-cruces/mayfield-high-school-school-based-health-center
  name: Mayfield High School - School-based Health Center
  categories:
  - community-health-center
  address:
    street: 1955 N Valley Dr
    city: Las Cruces
    state: nm
    zip: '88007'
  place: '3539380'
  geo:
    lat: 32.32475
    lng: -106.8053
  phone: 575-556-8200
  external_ids:
    bphc: BPS-H80-040546
  sources:
  - hrsa/health-center-sites
  verified:
    'on': '2026-07-19'
    method: api
- id: nm/las-cruces/memorial-medical-center
  name: Memorial Medical Center
  categories:
  - mh-treatment
  address:
    street: 2450 South Telshor Boulevard
    city: Las Cruces
    state: nm
    zip: '88011'
  place: '3539380'
  geo:
    lat: 32.29204
    lng: -106.73609
  phone: 575-521-2215
  website: https://mmclc.org
  sources:
  - samhsa/findtreatment
  verified:
    'on': '2026-07-19'
    method: api
- id: nm/las-cruces/mesilla-park-elementary-school-head-start
  name: Mesilla Park Elementary School-Head Start
  categories:
  - child-care
  address:
    street: 955 W Union Ave
    city: Las Cruces
    state: nm
    zip: '88005'
  place: '3539380'
  geo:
    lat: 32.26974
    lng: -106.77479
  phone: 575-527-9615
  sources:
  - acf/head-start-locations
  verified:
    'on': '2026-07-19'
    method: api
- id: nm/las-cruces/mesilla-valley-public-housing-authority
  name: Mesilla Valley Public Housing Authority
  categories:
  - housing-assistance
  address:
    street: 926 S San Pedro St
    city: Las Cruces
    state: nm
    zip: '88001'
  description: Public housing and Housing Choice Voucher agency
  place: '3539380'
  geo:
    lat: 32.30224
    lng: -106.77308
  phone: 575-528-2000
  sources:
  - hud/resource-locator
  verified:
    'on': '2026-07-19'
    method: api
- id: nm/las-cruces/nmsu-companeros-head-start
  name: NMSU/Companeros Head Start
  categories:
  - child-care
  address:
    street: Sam Steele & Williams A 8000
    street2: New Mexico State University
    city: Las Cruces
    state: nm
    zip: '88003'
  place: '3539380'
  geo:
    lat: 32.27194
    lng: -106.74987
  phone: 575-646-2889
  sources:
  - acf/head-start-locations
  verified:
    'on': '2026-07-19'
    method: api
- id: nm/las-cruces/organ-mountain-high-school-school-based-health-c
  name: Organ Mountain High School - School based Health Center
  categories:
  - community-health-center
  address:
    street: 5700 Mesa Grande Dr
    city: Las Cruces
    state: nm
    zip: '88011'
  place: '3539380'
  geo:
    lat: 32.38257
    lng: -106.7153
  phone: 575-526-1105
  external_ids:
    bphc: BPS-H80-040566
  sources:
  - hrsa/health-center-sites
  verified:
    'on': '2026-07-19'
    method: api
- id: nm/las-cruces/pediatrics
  name: Pediatrics
  categories:
  - community-health-center
  address:
    street: 385 Calle de Alegra, Building B
    city: Las Cruces
    state: nm
    zip: '88005'
  place: '3539380'
  geo:
    lat: 32.29115
    lng: -106.77166
  phone: 575-532-2044
  website: https://www.lcdfnm.org
  external_ids:
    bphc: BPS-H80-009180
  sources:
  - hrsa/health-center-sites
  verified:
    'on': '2026-07-19'
    method: api
- id: nm/las-cruces/picacho-middle-school-based-health-center
  name: Picacho Middle School-Based Health Center
  categories:
  - community-health-center
  address:
    street: 1040 N Motel Blvd
    city: Las Cruces
    state: nm
    zip: '88007'
  place: '3539380'
  geo:
    lat: 32.31399
    lng: -106.81452
  phone: 575-528-6400
  external_ids:
    bphc: BPS-H80-036678
  sources:
  - hrsa/health-center-sites
  verified:
    'on': '2026-07-19'
    method: api
- id: nm/las-cruces/rio-grande-prepratory-institute
  name: Rio Grande Prepratory Institute
  categories:
  - community-health-center
  address:
    street: 2355 Avenida de Mesilla
    city: Las Cruces
    state: nm
    zip: '88005'
  place: '3539380'
  geo:
    lat: 32.27562
    lng: -106.79383
  phone: 575-525-4813
  external_ids:
    bphc: BPS-H80-017549
  sources:
  - hrsa/health-center-sites
  verified:
    'on': '2026-07-19'
    method: api
- id: nm/las-cruces/tombaugh-elementary-school-head-start
  name: Tombaugh Elementary School-Head Start
  categories:
  - child-care
  address:
    street: 226 Carver Rd
    city: Las Cruces
    state: nm
    zip: '88005'
  place: '3539380'
  geo:
    lat: 32.26138
    lng: -106.76217
  phone: 575-541-7320
  sources:
  - acf/head-start-locations
  verified:
    'on': '2026-07-19'
    method: api
- id: nm/las-cruces/university-hills-elementary-school-head-start
  name: University Hills Elementary School-Head Start
  categories:
  - child-care
  address:
    street: 2005 S Locust St
    city: Las Cruces
    state: nm
    zip: '88001'
  place: '3539380'
  geo:
    lat: 32.29156
    lng: -106.74973
  phone: 575-527-9649
  sources:
  - acf/head-start-locations
  verified:
    'on': '2026-07-19'
    method: api
- id: nm/las-cruces/valley-view-elementary-school-head-start
  name: Valley View Elementary School-Head Start
  categories:
  - child-care
  address:
    street: 915 California Ave
    city: Las Cruces
    state: nm
    zip: '88001'
  place: '3539380'
  geo:
    lat: 32.29983
    lng: -106.76807
  phone: 575-527-9586
  sources:
  - acf/head-start-locations
  verified:
    'on': '2026-07-19'
    method: api
- id: nm/las-cruces/zia-recovery-center
  name: Zia Recovery Center
  categories:
  - su-treatment
  address:
    street: 303 North Alameda Boulevard
    city: Las Cruces
    state: nm
    zip: '88005'
  place: '3539380'
  geo:
    lat: 32.31093
    lng: -106.7821
  phone: 575-523-0111
  website: https://www.ziarecoverycenter.com
  sources:
  - samhsa/findtreatment
  verified:
    'on': '2026-07-19'
    method: api
