- id: nm/rio-rancho/colinas-del-norte-elementary-school-pantry
  name: Colinas Del Norte Elementary School Pantry
  categories:
  - food-pantry
  place: '3563460'
  geo:
    lat: 35.29813
    lng: -106.7156
  external_ids:
    lfp: '3118'
  sources:
  - littlefreepantry/map
  verified:
    'on': '2026-07-19'
    method: scrape
- id: nm/rio-rancho/desert-mountain-healing-iopop-llc
  name: Desert Mountain Healing IOPOP LLC
  categories:
  - su-treatment
  address:
    street: 3301 Southern Boulevard
    city: Rio Rancho
    state: nm
    zip: '87124'
  place: '3563460'
  geo:
    lat: 35.24328
    lng: -106.66943
  phone: 505-270-0840
  website: https://DMHIOP.com
  sources:
  - samhsa/findtreatment
  verified:
    'on': '2026-07-19'
    method: api
- id: nm/rio-rancho/ellie-mental-health-southwest-healthworks-llc
  name: Ellie Mental Health Southwest Healthworks LLC
  categories:
  - su-treatment
  - mh-treatment
  address:
    street: 500 Unser Boulevard SE
    city: Rio Rancho
    state: nm
    zip: '87124'
  place: '3563460'
  geo:
    lat: 35.25004
    lng: -106.69628
  phone: 505-548-9023
  website: https://www.elliementalhealth.com/locations/rio-rancho-nm/
  sources:
  - samhsa/findtreatment
  verified:
    'on': '2026-07-19'
    method: api
- id: nm/rio-rancho/mcdermott-athletic-center-the-mac-pantry
  name: McDermott Athletic Center (The MAC) Pantry
  categories:
  - food-pantry
  place: '3563460'
  geo:
    lat: 35.27182
    lng: -106.66017
  external_ids:
    lfp: '3119'
  sources:
  - littlefreepantry/map
  verified:
    'on': '2026-07-19'
    method: scrape
- id: nm/rio-rancho/northwest-metro-va-clinic
  name: Northwest Metro VA Clinic
  categories:
  - va-facility
  - health
  description: Multi-Specialty CBOC
  address: {street: '1760 Grande Boulevard, Southeast', city: Rio Rancho, state: nm, zip: '87124'}
  place: '3563460'
  geo: {lat: 35.22739, lng: -106.6613}
  phone: 505-896-7200
  website: https://www.va.gov/new-mexico-health-care/locations/northwest-metro-va-clinic/
  hours:
  - {days: [mon, tue, wed, thu, fri], open: '08:00', close: '16:30'}
  services:
  - Dermatology
  - Gynecology
  - Mental health care
  - Optometry
  - Primary care
  - Telehealth
  - Women Veteran care
  external_ids: {va: vha_501GM}
  sources:
  - va/facilities-api
  verified: {'on': '2026-07-19', method: api}
- id: nm/rio-rancho/pms-rio-rancho-family-health-center-psr
  name: PMS - Rio Rancho Family Health Center PSR
  categories:
  - community-health-center
  address:
    street: 224 Unser Blvd NE
    city: Rio Rancho
    state: nm
    zip: '87124'
  place: '3563460'
  geo:
    lat: 35.26196
    lng: -106.69686
  phone: 505-896-0928
  external_ids:
    bphc: BPS-H80-011180
  sources:
  - hrsa/health-center-sites
  verified:
    'on': '2026-07-19'
    method: api
- id: nm/rio-rancho/pms-rio-rancho-family-hlth-ctr
  name: PMS - RIO RANCHO FAMILY HLTH CTR
  categories:
  - community-health-center
  address:
    street: 184 Unser Blvd NE
    city: Rio Rancho
    state: nm
    zip: '87124'
  place: '3563460'
  geo:
    lat: 35.2614
    lng: -106.69731
  phone: 505-896-0928
  website: https://www.pms-inc.org
  external_ids:
    bphc: BPS-H80-000235
  sources:
  - hrsa/health-center-sites
  verified:
    'on': '2026-07-19'
    method: api
- id: nm/rio-rancho/presbyterian-medical-services-family-health-cent
  name: Presbyterian Medical Services Family Health Center
  categories:
  - community-health-center
  address:
    street: 2300 Grande Blvd SE
    city: Rio Rancho
    state: nm
    zip: '87124'
  place: '3563460'
  geo:
    lat: 35.21951
    lng: -106.66345
  phone: 505-994-1640
  website: https://www.pms-inc.org
  external_ids:
    bphc: BPS-H80-013223
  sources:
  - hrsa/health-center-sites
  verified:
    'on': '2026-07-19'
    method: api
- id: nm/rio-rancho/presbyterian-medical-services-rio-rancho-family
  name: Presbyterian Medical Services Rio Rancho Family Health Center
  categories:
  - su-treatment
  - mh-treatment
  address:
    street: 184 Unser Boulevard NE
    city: Rio Rancho
    state: nm
    zip: '87124'
  place: '3563460'
  geo:
    lat: 35.26131
    lng: -106.69755
  phone: 505-896-0928
  website: https://www.pmsnm.org
  sources:
  - samhsa/findtreatment
  verified:
    'on': '2026-07-19'
    method: api
- id: nm/rio-rancho/rio-rancho
  name: Rio Rancho
  categories:
  - child-care
  address:
    street: 32 Unser Blvd NE
    city: Rio Rancho
    state: nm
    zip: '87124'
  place: '3563460'
  geo:
    lat: 35.25804
    lng: -106.6968
  phone: 505-891-5162
  sources:
  - acf/head-start-locations
  verified:
    'on': '2026-07-19'
    method: api
- id: nm/rio-rancho/rio-rancho-ehs-home-visiting
  name: Rio Rancho EHS Home Visiting
  categories:
  - child-care
  address:
    street: 224 Unser Blvd B
    city: Rio Rancho
    state: nm
    zip: '87144'
  place: '3563460'
  geo:
    lat: 35.26194
    lng: -106.69755
  phone: 505-896-9431
  sources:
  - acf/head-start-locations
  verified:
    'on': '2026-07-19'
    method: api
- id: nm/rio-rancho/rio-rancho-health-services
  name: Rio Rancho Health Services
  categories:
  - su-treatment
  address:
    street: 1558 Stephanie Road SE
    city: Rio Rancho
    state: nm
    zip: '87124'
  place: '3563460'
  geo:
    lat: 35.23245
    lng: -106.65188
  phone: 505-896-5517
  website: https://www.abqhealthservices.com/
  sources:
  - samhsa/findtreatment
  verified:
    'on': '2026-07-19'
    method: api
