- id: nm/sunland-park/housing-authority-of-the-city-of-sunland-park
  name: Housing Authority Of The City Of Sunland Park
  categories:
  - housing-assistance
  address:
    street: 100 Concepcion Ln
    city: Sunland Park
    state: nm
    zip: '88063'
  description: Public housing (Low-Rent) agency
  place: '3575640'
  geo:
    lat: 31.82124
    lng: -106.6009
  phone: 575-589-9414
  sources:
  - hud/resource-locator
  verified:
    'on': '2026-07-19'
    method: api
- id: nm/sunland-park/la-clinica-de-familia-inc
  name: La Clinica De Familia Inc
  categories:
  - su-treatment
  - mh-treatment
  address:
    street: 2625 McNutt Road
    city: Sunland Park
    state: nm
    zip: '88063'
  place: '3575640'
  geo:
    lat: 31.80132
    lng: -106.5829
  phone: 575-526-1105
  website: https://www.laclinicadefamilia.org
  services:
  - Outpatient
  cost: sliding-scale
  sources:
  - samhsa/findtreatment
  verified:
    'on': '2026-07-19'
    method: api
- id: nm/sunland-park/new-mexico-children-first-learning-center-ehs
  name: New Mexico Children First Learning Center EHS
  categories:
  - child-care
  address:
    street: 4926 McNutt Rd
    city: Sunland Park
    state: nm
    zip: '88008'
  place: '3575640'
  geo:
    lat: 31.83901
    lng: -106.61915
  phone: 915-342-7411
  sources:
  - acf/head-start-locations
  verified:
    'on': '2026-07-19'
    method: api
- id: nm/sunland-park/sunland-park-building-b
  name: Sunland Park Building B
  categories:
  - community-health-center
  cost: sliding-scale
  address:
    street: 2625 Mcnutt Rd STE B
    city: Sunland Park
    state: nm
    zip: '88063'
  place: '3575640'
  geo:
    lat: 31.80181
    lng: -106.58245
  phone: 575-528-1105
  website: https://www.lcdfnm.org
  external_ids:
    bphc: BPS-H80-029959
  sources:
  - hrsa/health-center-sites
  verified:
    'on': '2026-07-19'
    method: api
- id: nm/sunland-park/sunland-park-center
  name: Sunland Park Center
  categories:
  - child-care
  address:
    street: 1000 McNutt Rd
    street2: Ste H
    city: Sunland Park
    state: nm
    zip: '88063'
  place: '3575640'
  geo:
    lat: 31.79584
    lng: -106.55557
  phone: 575-323-0097
  sources:
  - acf/head-start-locations
  verified:
    'on': '2026-07-19'
    method: api
- id: nm/sunland-park/sunland-park-ehs-center
  name: Sunland Park EHS Center
  categories:
  - child-care
  address:
    street: 1000 McNutt Rd
    street2: Ste H
    city: Sunland Park
    state: nm
    zip: '88063'
  place: '3575640'
  geo:
    lat: 31.79693
    lng: -106.55623
  phone: 575-528-9933
  sources:
  - acf/head-start-locations
  verified:
    'on': '2026-07-19'
    method: api
- id: nm/sunland-park/sunland-park-medical-and-dental-clinic
  name: Sunland Park Medical and Dental Clinic
  categories:
  - community-health-center
  cost: sliding-scale
  address:
    street: 2625 McNutt Rd
    city: Sunland Park
    state: nm
    zip: '88063'
  place: '3575640'
  geo:
    lat: 31.80128
    lng: -106.58274
  phone: 575-589-0887
  website: https://www.lcdfnm.org
  external_ids:
    bphc: BPS-H80-003443
  sources:
  - hrsa/health-center-sites
  verified:
    'on': '2026-07-19'
    method: api
