- id: nm/tucumcari/isd-field-office
  name: ISD Field Office
  categories:
  - utility-assistance
  description: LIHEAP intake office serving Quay County
  address: {street: 421 W. Tucumcari Blvd., city: Tucumcari, state: nm, zip: '88401'}
  place: '3579910'
  phone: 800-283-4465
  sources:
  - acf/liheap-clearinghouse
  verified: {'on': '2026-07-19', method: scrape}
  geo: {lat: 35.1719, lng: -103.72197}
- id: nm/tucumcari/mental-health-resources-inc
  name: Mental Health Resources Inc
  categories:
  - su-treatment
  - mh-treatment
  address: {street: 1005 South Monroe Street, city: Tucumcari, state: nm, zip: '88401'}
  place: '3579910'
  geo: {lat: 35.16946, lng: -103.72275}
  phone: 575-769-2345
  website: https://www.mhrnewmexico.com
  services:
  - Outpatient
  - Intensive outpatient treatment
  - Outpatient methadone/buprenorphine or naltrexone treatment
  - Regular outpatient treatment
  - Clients with co-occurring mental and substance use disorders
  eligibility: Serves children/adolescents, young adults, adults, seniors.
  cost: sliding-scale
  sources:
  - samhsa/findtreatment
  verified: {'on': '2026-07-19', method: api}
- id: nm/tucumcari/pms-quay-county-family-dental
  name: PMS - Quay County Family Dental
  categories:
  - community-health-center
  cost: sliding-scale
  address: {street: 305 E Washington Ave, city: Tucumcari, state: nm, zip: '88401'}
  place: '3579910'
  geo: {lat: 35.15734, lng: -103.72314}
  phone: 575-461-2200
  external_ids: {bphc: BPS-H80-040147}
  sources:
  - hrsa/health-center-sites
  verified: {'on': '2026-07-19', method: api}
- id: nm/tucumcari/pms-quay-cty-family-hlth-ctr
  name: PMS - QUAY CTY FAMILY HLTH CTR
  categories:
  - community-health-center
  cost: sliding-scale
  address: {street: 1302 E Main St, city: Tucumcari, state: nm, zip: '88401'}
  place: '3579910'
  geo: {lat: 35.17875, lng: -103.71079}
  phone: 505-461-2200
  website: https://www.pms-inc.org
  external_ids: {bphc: BPS-H80-003952}
  sources:
  - hrsa/health-center-sites
  verified: {'on': '2026-07-19', method: api}
- id: nm/tucumcari/sunrise-clinics-tucumcari
  name: Sunrise Clinics - Tucumcari
  categories:
  - community-health-center
  cost: sliding-scale
  address: {street: 220 S 3rd St, city: Tucumcari, state: nm, zip: '88401'}
  place: '3579910'
  geo: {lat: 35.17729, lng: -103.72718}
  phone: 575-461-8631
  website: https://www.SunriseClinicsNM.org
  external_ids: {bphc: BPS-LAL-032100}
  sources:
  - hrsa/health-center-sites
  verified: {'on': '2026-07-19', method: api}
- id: nm/tucumcari/tucumcari-early-head-start
  name: Tucumcari Early Head Start
  categories:
  - child-care
  address: {street: 1608 S Rock Island St, city: Tucumcari, state: nm, zip: '88401'}
  description: Head Start early childhood program — 34 funded slots; operated by Eastern Plains Community
    Action Agency, Inc..
  place: '3579910'
  geo: {lat: 35.16381, lng: -103.71916}
  phone: 575-461-9807
  sources:
  - acf/head-start-locations
  verified: {'on': '2026-07-19', method: api}
- id: nm/tucumcari/tucumcari-head-start
  name: Tucumcari Head Start
  categories:
  - child-care
  address: {street: 210 W Center St, city: Tucumcari, state: nm, zip: '88401'}
  description: Head Start early childhood program — 51 funded slots; operated by Eastern Plains Community
    Action Agency, Inc..
  place: '3579910'
  geo: {lat: 35.17771, lng: -103.72755}
  phone: 575-461-1914
  sources:
  - acf/head-start-locations
  verified: {'on': '2026-07-19', method: api}
- id: nm/tucumcari/tucumcari-high-school-school-based-clinic
  name: Tucumcari High School School Based Clinic
  categories:
  - community-health-center
  cost: sliding-scale
  address: {street: 1001 S 7th St, city: Tucumcari, state: nm, zip: '88401'}
  place: '3579910'
  geo: {lat: 35.16941, lng: -103.73287}
  phone: 575-472-4311
  website: https://www.sunrisenm.com
  external_ids: {bphc: BPS-LAL-032094}
  sources:
  - hrsa/health-center-sites
  verified: {'on': '2026-07-19', method: api}
