- id: sd/rosebud/boys-girls-club-of-the-rosebud-rosebud
  name: Boys & Girls Club Of The Rosebud-Rosebud
  categories:
  - meal-program
  address: {street: 100 Akicita St, city: Rosebud, state: sd, zip: '57570'}
  description: Free summer meals for kids and teens (2026 season) — sponsored by BOYS AND GIRLS CLUB OF
    ROSEBUD.
  place: '4655940'
  geo: {lat: 43.25059, lng: -100.84306}
  phone: (605) 747-2097
  external_ids: {usda_master: Cycle 06_SD_SFSP_0050}
  sources:
  - usda/summer-meal-sites
  verified: {'on': '2026-07-19', method: api}
- id: sd/rosebud/feeding-sd-at-rosebud-community-building
  name: Feeding SD at Rosebud Community Building
  org: sd/feeding-south-dakota
  categories:
  - food-pantry
  address: {street: 501 W Frontage Rd., city: Rosebud, state: sd, zip: '57570'}
  place: '4655940'
  geo: {lat: 43.24937, lng: -100.8409}
  external_ids: {sd-feeding-south-dakota: '8519'}
  sources:
  - foodbank/sd-feeding-south-dakota
  verified: {'on': '2026-07-21', method: api}
- id: sd/rosebud/rosebud-early-head-start-center
  name: Rosebud Early Head Start center
  categories:
  - child-care
  address: {street: 28626 Bia 1, city: Rosebud, state: sd, zip: '57570'}
  description: Head Start early childhood program — 24 funded slots; operated by Rosebud Sioux Tribe.
  place: '4655940'
  geo: {lat: 43.25614, lng: -100.84909}
  phone: 605-747-2005
  sources:
  - acf/head-start-locations
  verified: {'on': '2026-07-19', method: api}
- id: sd/rosebud/rosebud-elementary
  name: Rosebud Elementary
  categories:
  - meal-program
  address: {street: 100 E Bia 1, city: Rosebud, state: sd, zip: '57572'}
  description: Free summer meals for kids and teens (2026 season) — sponsored by TODD COUNTY SCHOOL DISTRICT
    66-1.
  place: '4655940'
  geo: {lat: 43.1183, lng: -101.02191}
  phone: (605) 856-3514
  external_ids: {usda_master: Cycle 00_SD_SFSP_0009}
  sources:
  - usda/summer-meal-sites
  verified: {'on': '2026-07-19', method: api}
- id: sd/rosebud/rosebud-head-start-center
  name: Rosebud Head Start Center
  categories:
  - child-care
  address: {street: 28622 Bia 1, city: Rosebud, state: sd, zip: '57570'}
  description: Head Start early childhood program — 32 funded slots; operated by Rosebud Sioux Tribe Head
    Start/Early Head Start.
  place: '4655940'
  geo: {lat: 43.24792, lng: -100.84115}
  phone: 605-747-2364
  sources:
  - acf/head-start-locations
  verified: {'on': '2026-07-19', method: api}
- id: sd/rosebud/rosebud-sioux-sd
  name: Rosebud Sioux,sd
  categories:
  - food
  - food-bank
  description: Food Distribution Program on Indian Reservations (FDPIR) administering agency — distributes
    USDA foods to income-eligible households living on or near participating reservations.
  place: '4655940'
  geo: {lat: 43.2313, lng: -100.85448}
  external_ids: {fns: '4699002'}
  sources:
  - usda/fdpir-csfp-agencies
  verified: {'on': '2026-07-20', method: api}
- id: sd/rosebud/rosebud-sioux-tribe-elderly-nutrition
  name: Rosebud Sioux Tribe Elderly Nutrition
  org: sd/feeding-south-dakota
  categories:
  - food-pantry
  address: {street: 1018 Her Many Horses Loop, city: Rosebud, state: sd, zip: '57570'}
  place: '4655940'
  geo: {lat: 43.23779, lng: -100.85521}
  phone: 605-747-4741
  external_ids: {sd-feeding-south-dakota: '8525'}
  sources:
  - foodbank/sd-feeding-south-dakota
  verified: {'on': '2026-07-21', method: api}
