- id: sd/watertown/codington-ehs-home-based
  name: Codington EHS Home Based
  categories:
  - child-care
  address:
    street: 7 8th Ave SE
    city: Watertown
    state: sd
    zip: '57201'
  place: '4669300'
  geo:
    lat: 44.89134
    lng: -97.11581
  phone: 605-886-7674
  sources:
  - acf/head-start-locations
  verified:
    'on': '2026-07-19'
    method: api
- id: sd/watertown/little-free-produce-stand
  name: Little Free Produce Stand
  categories:
  - food-pantry
  place: '4669300'
  geo:
    lat: 44.89861
    lng: -97.0968
  external_ids:
    lfp: '3609'
  sources:
  - littlefreepantry/map
  verified:
    'on': '2026-07-19'
    method: scrape
- id: sd/watertown/lutheran-social-services-of-sd-watertown-area-co
  name: Lutheran Social Services of SD Watertown Area Counseling Center
  categories:
  - su-treatment
  - mh-treatment
  address:
    street: 1424 9th Avenue SE
    city: Watertown
    state: sd
    zip: '57201'
  place: '4669300'
  geo:
    lat: 44.88963
    lng: -97.0917
  phone: 605-882-2740
  website: https://www.lsssd.org
  sources:
  - samhsa/findtreatment
  verified:
    'on': '2026-07-19'
    method: api
- id: sd/watertown/mark-bontreger-inc
  name: Mark Bontreger Inc
  categories:
  - su-treatment
  - mh-treatment
  address:
    street: 525 5th Street SE
    city: Watertown
    state: sd
    zip: '57201'
  place: '4669300'
  geo:
    lat: 44.89243
    lng: -97.10958
  phone: 605-882-0800
  website: https://www.markbontreger.com
  sources:
  - samhsa/findtreatment
  verified:
    'on': '2026-07-19'
    method: api
- id: sd/watertown/watertown-center
  name: Watertown Center
  categories:
  - child-care
  address:
    street: 710 10th St SW
    city: Watertown
    state: sd
    zip: '57201'
  place: '4669300'
  geo:
    lat: 44.89268
    lng: -97.13141
  phone: 605-882-5965
  sources:
  - acf/head-start-locations
  verified:
    'on': '2026-07-19'
    method: api
- id: sd/watertown/watertown-housing-and-redevelopment-commission
  name: Watertown Housing And Redevelopment Commission
  categories:
  - housing-assistance
  address:
    street: 24 W Kemp Ave
    city: Watertown
    state: sd
    zip: '57201'
  description: Public housing and Housing Choice Voucher agency
  place: '4669300'
  geo:
    lat: 44.90039
    lng: -97.11492
  phone: 605-886-7731
  sources:
  - hud/resource-locator
  verified:
    'on': '2026-07-19'
    method: api
- id: sd/watertown/watertown-va-clinic
  name: Watertown VA Clinic
  categories:
  - va-facility
  - health
  description: Multi-Specialty CBOC
  address: {street: 4 19th Street Northeast, city: Watertown, state: sd, zip: '57201'}
  place: '4669300'
  geo: {lat: 44.89484, lng: -97.08619}
  phone: 605-884-2420
  website: https://www.va.gov/sioux-falls-health-care/locations/watertown-va-clinic/
  hours:
  - {days: [mon, tue, wed, thu, fri], open: '08:00', close: '16:30'}
  external_ids: {va: vha_438GF}
  sources:
  - va/facilities-api
  verified: {'on': '2026-07-19', method: api}
