- id: ma/attleboro/attleboro-housing-authority
  name: Attleboro Housing Authority
  categories:
  - housing-assistance
  address: {street: 80 South Ave, city: Attleboro, state: ma, zip: '02703'}
  description: Housing Choice Voucher (Section 8) agency
  place: '2502690'
  geo: {lat: 41.93381, lng: -71.31142}
  phone: 508-222-0151
  sources:
  - hud/resource-locator
  verified: {'on': '2026-07-19', method: api}
- id: ma/attleboro/children-s-express-child-care-inc
  name: Children's Express Child Care, Inc
  categories:
  - child-care
  address:
    street: 114 S Main St
    city: Attleboro
    state: ma
    zip: '02703'
  place: '2502690'
  geo:
    lat: 41.94068
    lng: -71.28401
  sources:
  - acf/head-start-locations
  verified:
    'on': '2026-07-19'
    method: api
- id: ma/attleboro/community-healthcare-inc-healthcare-resource-cen
  name: Community Healthcare Inc Healthcare Resource Centers
  categories:
  - su-treatment
  address:
    street: 23 North Main Street
    city: Attleboro
    state: ma
    zip: '02703'
  place: '2502690'
  geo:
    lat: 41.94518
    lng: -71.28478
  phone: 508-342-8041
  website: https://www.hcrcenters.com/health-care-resource-centers-attleboro/
  sources:
  - samhsa/findtreatment
  verified:
    'on': '2026-07-19'
    method: api
- id: ma/attleboro/manet-attleboro
  name: Manet Attleboro
  categories:
  - community-health-center
  address:
    street: 8 N Main St
    city: Attleboro
    state: ma
    zip: '02703'
  place: '2502690'
  geo:
    lat: 41.94454
    lng: -71.28448
  phone: 508-205-4600
  website: https://www.manetchc.org
  external_ids:
    bphc: BPS-H80-032066
  sources:
  - hrsa/health-center-sites
  verified:
    'on': '2026-07-19'
    method: api
- id: ma/attleboro/mentor-south-bay
  name: Mentor South Bay
  categories:
  - su-treatment
  - mh-treatment
  address:
    street: 607 Pleasant Street
    city: Attleboro
    state: ma
    zip: '02703'
  place: '2502690'
  geo:
    lat: 41.95308
    lng: -71.26619
  phone: 508-223-4691
  website: https://www.mentorsouthbay.com
  sources:
  - samhsa/findtreatment
  verified:
    'on': '2026-07-19'
    method: api
- id: ma/attleboro/vk-new-england-management-llc-lawrence-medical-c
  name: VK New England Management LLC Lawrence Medical Center/Attleboro
  categories:
  - su-treatment
  - mh-treatment
  address:
    street: 7 North Main Street
    city: Attleboro
    state: ma
    zip: '02703'
  place: '2502690'
  geo:
    lat: 41.94476
    lng: -71.28413
  phone: 774-331-3941
  website: https://lawrencemedicalcenter.net/
  sources:
  - samhsa/findtreatment
  verified:
    'on': '2026-07-19'
    method: api
