- id: ma/brockton/bnhc-administrative-site-2
  name: BNHC Administrative Site 2
  categories:
  - community-health-center
  address:
    street: 60 School Street
    city: Brockton
    state: ma
    zip: '02301'
  place: '2509000'
  geo:
    lat: 42.0825
    lng: -71.01765
  phone: 508-559-6699
  external_ids:
    bphc: BPS-H80-031606
  sources:
  - hrsa/health-center-sites
  verified:
    'on': '2026-07-19'
    method: api
- id: ma/brockton/bnhc-at-vicente-s
  name: BNHC at Vicente's
  categories:
  - community-health-center
  address:
    street: 158 Pleasant St
    city: Brockton
    state: ma
    zip: '02301'
  place: '2509000'
  geo:
    lat: 42.08494
    lng: -71.02455
  phone: 508-559-6699
  website: https://www.bnhc.org
  external_ids:
    bphc: BPS-H80-015716
  sources:
  - hrsa/health-center-sites
  verified:
    'on': '2026-07-19'
    method: api
- id: ma/brockton/bnhc-commercial-street-site
  name: BNHC Commercial Street site
  categories:
  - community-health-center
  address:
    street: 103 Commercial St
    city: Brockton
    state: ma
    zip: '02302'
  place: '2509000'
  geo:
    lat: 42.08282
    lng: -71.01579
  phone: 508-559-6699
  website: https://www.bnhc.org
  external_ids:
    bphc: BPS-H80-033564
  sources:
  - hrsa/health-center-sites
  verified:
    'on': '2026-07-19'
    method: api
- id: ma/brockton/bnhc-community-care-in-reach
  name: BNHC Community Care In Reach
  categories:
  - community-health-center
  address:
    street: 63 Main St
    city: Brockton
    state: ma
    zip: '02301'
  place: '2509000'
  geo:
    lat: 42.08454
    lng: -71.02015
  phone: 508-559-6699
  website: https://www.bnhc.org
  external_ids:
    bphc: BPS-H80-032335
  sources:
  - hrsa/health-center-sites
  verified:
    'on': '2026-07-19'
    method: api
- id: ma/brockton/bnhc-manley-street-site
  name: BNHC Manley Street site
  categories:
  - community-health-center
  address:
    street: 124 Manley Street
    city: Brockton
    state: ma
    zip: '02301'
  place: '2509000'
  geo:
    lat: 42.06035
    lng: -71.05805
  phone: 508-559-6699
  external_ids:
    bphc: BPS-H80-040047
  sources:
  - hrsa/health-center-sites
  verified:
    'on': '2026-07-19'
    method: api
- id: ma/brockton/bnhc-pharmacy
  name: BNHC Pharmacy
  categories:
  - community-health-center
  address:
    street: 63 Main St
    city: Brockton
    state: ma
    zip: '02301'
  place: '2509000'
  geo:
    lat: 42.08454
    lng: -71.02015
  phone: 508-559-6699
  external_ids:
    bphc: BPS-H80-035734
  sources:
  - hrsa/health-center-sites
  verified:
    'on': '2026-07-19'
    method: api
- id: ma/brockton/brockton-comprehensive-treatment-center
  name: Brockton Comprehensive Treatment Center
  categories:
  - su-treatment
  address:
    street: 180 Centre Street
    city: Brockton
    state: ma
    zip: '02302'
  place: '2509000'
  geo:
    lat: 42.08436
    lng: -71.01385
  phone: 508-502-7584
  website: https://www.ctcprograms.com/location/brattleboro-comprehensive-treatment-center/
  sources:
  - samhsa/findtreatment
  verified:
    'on': '2026-07-19'
    method: api
- id: ma/brockton/brockton-day-nursery-ehs
  name: Brockton Day Nursery EHS
  categories:
  - child-care
  address:
    street: 243 Crescent St
    city: Brockton
    state: ma
    zip: '02302'
  place: '2509000'
  geo:
    lat: 42.07958
    lng: -71.01196
  phone: 508-880-0202
  sources:
  - acf/head-start-locations
  verified:
    'on': '2026-07-19'
    method: api
- id: ma/brockton/brockton-housing-authority
  name: Brockton Housing Authority
  categories:
  - housing-assistance
  address: {street: 45 Goddard Rd, city: Brockton, state: ma, zip: '02301'}
  description: Public housing and Housing Choice Voucher agency
  place: '2509000'
  geo: {lat: 42.08275, lng: -71.02393}
  phone: 508-588-6880
  sources:
  - hud/resource-locator
  verified: {'on': '2026-07-19', method: api}
- id: ma/brockton/brockton-neighborhood-health-center
  name: BROCKTON NEIGHBORHOOD HEALTH CENTER
  categories:
  - community-health-center
  address:
    street: 63 Main St
    city: Brockton
    state: ma
    zip: '02301'
  place: '2509000'
  geo:
    lat: 42.08454
    lng: -71.02015
  phone: 508-559-6699
  website: https://www.bnhc.org
  external_ids:
    bphc: BPS-H80-001930
  sources:
  - hrsa/health-center-sites
  verified:
    'on': '2026-07-19'
    method: api
- id: ma/brockton/department-of-mental-health-brockton-multi-servi
  name: Department of Mental Health Brockton Multi Service Center
  categories:
  - su-treatment
  - mh-treatment
  address:
    street: 165 Quincy Street
    city: Brockton
    state: ma
    zip: '02302'
  place: '2509000'
  geo:
    lat: 42.08983
    lng: -70.99117
  phone: 508-897-2000
  website: https://www.mass.gov/
  sources:
  - samhsa/findtreatment
  verified:
    'on': '2026-07-19'
    method: api
- id: ma/brockton/elder-service-plan-brockton
  name: Elder Service Plan, Brockton
  categories:
  - community-health-center
  address:
    street: 479 Torrey St
    city: Brockton
    state: ma
    zip: '02301'
  place: '2509000'
  geo:
    lat: 42.07135
    lng: -71.06408
  phone: 617-533-2400
  website: https://www.hhsi.us
  external_ids:
    bphc: BPS-H80-019444
  sources:
  - hrsa/health-center-sites
  verified:
    'on': '2026-07-19'
    method: api
- id: ma/brockton/emh-recovery-inc-edwina-martin-recovery-house
  name: EMH Recovery Inc Edwina Martin Recovery House
  categories:
  - su-treatment
  address:
    street: 678 North Main Street
    city: Brockton
    state: ma
    zip: '02301'
  place: '2509000'
  geo:
    lat: 42.1006
    lng: -71.0215
  phone: 508-583-0493
  website: https://www.emhouse.org
  sources:
  - samhsa/findtreatment
  verified:
    'on': '2026-07-19'
    method: api
- id: ma/brockton/gandara-mental-health-center-brockton-outpatient
  name: Gandara Mental Health Center Brockton Outpatient Clinic
  categories:
  - su-treatment
  - mh-treatment
  address:
    street: 142 Crescent Street
    city: Brockton
    state: ma
    zip: '02302'
  place: '2509000'
  geo:
    lat: 42.08141
    lng: -71.01588
  phone: 508-232-6670 x6701
  website: https://www.gandaracenter.org
  sources:
  - samhsa/findtreatment
  verified:
    'on': '2026-07-19'
    method: api
- id: ma/brockton/harvestwood-pantry
  name: Harvestwood Pantry
  categories:
  - food-pantry
  place: '2509000'
  geo:
    lat: 42.02566
    lng: -71.01679
  external_ids:
    lfp: '2749'
  sources:
  - littlefreepantry/map
  verified:
    'on': '2026-07-19'
    method: scrape
- id: ma/brockton/massachusetts-tc-clinical-group
  name: Massachusetts TC Clinical Group
  categories:
  - su-treatment
  address:
    street: 1311 Main Street
    city: Brockton
    state: ma
    zip: '02301'
  place: '2509000'
  geo:
    lat: 42.05939
    lng: -71.01445
  phone: 774-517-5076
  website: https://www.tcclinicalgroup.org
  sources:
  - samhsa/findtreatment
  verified:
    'on': '2026-07-19'
    method: api
- id: ma/brockton/mentor-south-bay
  name: Mentor South Bay
  categories:
  - su-treatment
  - mh-treatment
  address:
    street: 103 Commercial Street
    city: Brockton
    state: ma
    zip: '02302'
  place: '2509000'
  geo:
    lat: 42.08283
    lng: -71.01574
  phone: 508-580-4691
  website: https://www.mentorsouthbay.com
  sources:
  - samhsa/findtreatment
  verified:
    'on': '2026-07-19'
    method: api
- id: ma/brockton/old-colony-comprehensive-counseling
  name: Old Colony Comprehensive Counseling
  categories:
  - su-treatment
  address:
    street: 104 Torrey Street
    city: Brockton
    state: ma
    zip: '02301'
  place: '2509000'
  geo:
    lat: 42.07314
    lng: -71.04616
  phone: 508-427-4383
  website: https://www.oldcolonyymca.org/community-social-services/counseling
  sources:
  - samhsa/findtreatment
  verified:
    'on': '2026-07-19'
    method: api
- id: ma/brockton/old-colony-y-comprehensive-counseling
  name: Old Colony Y Comprehensive Counseling
  categories:
  - su-treatment
  - mh-treatment
  address:
    street: 104 Torrey Street
    city: Brockton
    state: ma
    zip: '02301'
  place: '2509000'
  geo:
    lat: 42.07314
    lng: -71.04616
  phone: 508-427-4383
  website: https://www.oldcolonyymca.org/community-social-services/counseling
  sources:
  - samhsa/findtreatment
  verified:
    'on': '2026-07-19'
    method: api
- id: ma/brockton/ulysses-g-shelton-center
  name: Ulysses G Shelton Center
  categories:
  - child-care
  address:
    street: 370 Howard St
    city: Brockton
    state: ma
    zip: '02302'
  place: '2509000'
  geo:
    lat: 42.1172
    lng: -71.02001
  phone: 508-587-1716
  sources:
  - acf/head-start-locations
  verified:
    'on': '2026-07-19'
    method: api
- id: ma/brockton/ulysses-g-shelton-center-2
  name: Ulysses G. Shelton Center
  categories:
  - child-care
  address:
    street: 370 Howard St
    city: Brockton
    state: ma
    zip: '02302'
  place: '2509000'
  geo:
    lat: 42.11681
    lng: -71.02043
  phone: 508-587-1716
  sources:
  - acf/head-start-locations
  verified:
    'on': '2026-07-19'
    method: api
- id: ma/brockton/uplift-behavioral-health-services
  name: Uplift Behavioral Health Services
  categories:
  - su-treatment
  - mh-treatment
  address:
    street: 1717 Main Street
    city: Brockton
    state: ma
    zip: '02301'
  place: '2509000'
  geo:
    lat: 42.0514
    lng: -71.01174
  phone: 508-301-3444
  website: https://www.upliftbhs.org
  sources:
  - samhsa/findtreatment
  verified:
    'on': '2026-07-19'
    method: api
- id: ma/brockton/uplift-behavioral-health-services-2
  name: Uplift Behavioral Health Services
  categories:
  - su-treatment
  - mh-treatment
  address:
    street: 201 Quincy Street
    city: Brockton
    state: ma
    zip: '02302'
  place: '2509000'
  geo:
    lat: 42.08818
    lng: -70.98835
  phone: 508-313-9994
  website: https://www.upliftbhs.org
  sources:
  - samhsa/findtreatment
  verified:
    'on': '2026-07-19'
    method: api
- id: ma/brockton/westfield-child-center-ehs
  name: Westfield Child Center EHS
  categories:
  - child-care
  address:
    street: 470 Torrey St
    city: Brockton
    state: ma
    zip: '02301'
  place: '2509000'
  geo:
    lat: 42.07039
    lng: -71.06312
  phone: 508-880-0202
  sources:
  - acf/head-start-locations
  verified:
    'on': '2026-07-19'
    method: api
