- id: ma/cambridge/cambridge-eating-disorder-center-cedc
  name: Cambridge Eating Disorder Center (CEDC)
  categories:
  - su-treatment
  - mh-treatment
  address:
    street: 3 Bow Street
    city: Cambridge
    state: ma
    zip: 02138
  place: '2511000'
  geo:
    lat: 42.372
    lng: -71.11596
  phone: 617-547-2255
  website: https://www.eatingdisordercenter.org
  sources:
  - samhsa/findtreatment
  verified:
    'on': '2026-07-19'
    method: api
- id: ma/cambridge/cambridge-housing-authority
  name: Cambridge Housing Authority
  categories:
  - housing-assistance
  address:
    street: 362 Green St
    city: Cambridge
    state: ma
    zip: 02139
  description: Public housing and Housing Choice Voucher agency
  place: '2511000'
  geo:
    lat: 42.36541
    lng: -71.10564
  phone: 617-864-3020
  sources:
  - hud/resource-locator
  verified:
    'on': '2026-07-19'
    method: api
- id: ma/cambridge/frisoli-center
  name: Frisoli Center
  categories:
  - child-care
  address:
    street: 61 Willow St
    city: Cambridge
    state: ma
    zip: '02141'
  place: '2511000'
  geo:
    lat: 42.37108
    lng: -71.09224
  phone: 617-864-1138
  sources:
  - acf/head-start-locations
  verified:
    'on': '2026-07-19'
    method: api
- id: ma/cambridge/jefferson-park
  name: Jefferson Park
  categories:
  - child-care
  address:
    street: 280 Rindge Ave
    city: Cambridge
    state: ma
    zip: '02140'
  place: '2511000'
  geo:
    lat: 42.39362
    lng: -71.13546
  phone: 617-661-1679
  sources:
  - acf/head-start-locations
  verified:
    'on': '2026-07-19'
    method: api
- id: ma/cambridge/north-charles-institute-for-the-addict-counselin
  name: North Charles Institute for the Addict Counseling and Administrative Offices
  categories:
  - su-treatment
  address:
    street: 2500 Massachusetts Avenue
    city: Cambridge
    state: ma
    zip: '02140'
  place: '2511000'
  geo:
    lat: 42.39896
    lng: -71.13257
  phone: 617-661-5700
  website: https://www.northcharles.org
  sources:
  - samhsa/findtreatment
  verified:
    'on': '2026-07-19'
    method: api
- id: ma/cambridge/north-charles-institute-for-the-addict-medicatio
  name: North Charles Institute for the Addict Medication Unit at the Camb
  categories:
  - su-treatment
  address:
    city: Cambridge
    state: ma
    zip: '02140'
  place: '2511000'
  phone: 617-876-0823
  website: https://www.northcharles.org
  sources:
  - samhsa/findtreatment
  verified:
    'on': '2026-07-19'
    method: api
- id: ma/cambridge/womanplace
  name: WomanPlace
  categories:
  - su-treatment
  address:
    street: 11 Russell Street
    city: Cambridge
    state: ma
    zip: '02140'
  place: '2511000'
  geo:
    lat: 42.39248
    lng: -71.12322
  phone: 617-661-6020
  website: https://www.baycove.org
  sources:
  - samhsa/findtreatment
  verified:
    'on': '2026-07-19'
    method: api
- id: ma/cambridge/y2y-harvard-square
  name: Y2Y Harvard Square
  categories:
  - community-health-center
  address:
    street: 1 Church St
    city: Cambridge
    state: ma
    zip: 02138
  place: '2511000'
  geo:
    lat: 42.37449
    lng: -71.11896
  phone: 857-654-1600
  external_ids:
    bphc: BPS-H80-030223
  sources:
  - hrsa/health-center-sites
  verified:
    'on': '2026-07-19'
    method: api
