- id: ma/chelsea/chelsea-boys-girls-club-micro-pantry
  name: Chelsea Boys & Girls Club Micro Pantry
  categories:
  - food-pantry
  place: '2513205'
  geo:
    lat: 42.38722
    lng: -71.02639
  external_ids:
    lfp: '3027'
  sources:
  - littlefreepantry/map
  verified:
    'on': '2026-07-19'
    method: scrape
- id: ma/chelsea/chelsea-community-garden-micro-pantry
  name: Chelsea Community Garden Micro Pantry
  categories:
  - food-pantry
  place: '2513205'
  geo:
    lat: 42.38845
    lng: -71.03742
  external_ids:
    lfp: '3028'
  sources:
  - littlefreepantry/map
  verified:
    'on': '2026-07-19'
    method: scrape
- id: ma/chelsea/chelsea-housing-authority
  name: Chelsea Housing Authority
  categories:
  - housing-assistance
  address:
    street: 54 Locke St
    city: Chelsea
    state: ma
    zip: '02150'
  description: Public housing and Housing Choice Voucher agency
  place: '2513205'
  geo:
    lat: 42.40391
    lng: -71.02708
  phone: 617-409-5321
  sources:
  - hud/resource-locator
  verified:
    'on': '2026-07-19'
    method: api
- id: ma/chelsea/chelsea-micro-food-pantry
  name: Chelsea Micro-Food Pantry
  categories:
  - food-pantry
  place: '2513205'
  geo:
    lat: 42.39788
    lng: -71.03028
  external_ids:
    lfp: '2606'
  sources:
  - littlefreepantry/map
  verified:
    'on': '2026-07-19'
    method: scrape
- id: ma/chelsea/crescent-ave
  name: Crescent Ave.
  categories:
  - child-care
  address:
    street: 67 Crescent Ave
    city: Chelsea
    state: ma
    zip: '02150'
  place: '2513205'
  geo:
    lat: 42.395
    lng: -71.02807
  phone: 617-889-5690
  sources:
  - acf/head-start-locations
  verified:
    'on': '2026-07-19'
    method: api
- id: ma/chelsea/early-learning-center-micro-pantry
  name: Early Learning Center Micro Pantry
  categories:
  - food-pantry
  place: '2513205'
  geo:
    lat: 42.38994
    lng: -71.03553
  external_ids:
    lfp: '3025'
  sources:
  - littlefreepantry/map
  verified:
    'on': '2026-07-19'
    method: scrape
- id: ma/chelsea/greg-s-little-free-pantry-library
  name: Greg's Little Free Pantry & Library
  categories:
  - food-pantry
  place: '2513205'
  geo:
    lat: 42.38082
    lng: -71.02639
  external_ids:
    lfp: '2492'
  sources:
  - littlefreepantry/map
  verified:
    'on': '2026-07-19'
    method: scrape
- id: ma/chelsea/hanton-house-co-occurring-enhanced-coe
  name: Hanton House Co Occurring Enhanced (COE)
  categories:
  - su-treatment
  - mh-treatment
  address:
    street: 69 Clinton Street
    city: Chelsea
    state: ma
    zip: '02150'
  place: '2513205'
  geo:
    lat: 42.40171
    lng: -71.0161
  phone: 866-781-6727
  website: https://northsuffolk.org/addiction-services
  sources:
  - samhsa/findtreatment
  verified:
    'on': '2026-07-19'
    method: api
- id: ma/chelsea/healthcare-resource-centers
  name: Healthcare Resource Centers
  categories:
  - su-treatment
  address:
    street: 175 Crescent Avenue
    city: Chelsea
    state: ma
    zip: '02150'
  place: '2513205'
  geo:
    lat: 42.39624
    lng: -71.02327
  phone: 617-889-8779
  website: https://www.hcrcenters.com/health-care-resource-centers-chelsea/
  sources:
  - samhsa/findtreatment
  verified:
    'on': '2026-07-19'
    method: api
- id: ma/chelsea/north-suffolk-community-services-chelsea-counsel
  name: North Suffolk Community Services Chelsea Counseling Center
  categories:
  - su-treatment
  - mh-treatment
  address:
    street: 301 Broadway
    city: Chelsea
    state: ma
    zip: '02150'
  place: '2513205'
  geo:
    lat: 42.39104
    lng: -71.03664
  phone: 866-781-6727
  website: https://www.northsuffolk.org
  sources:
  - samhsa/findtreatment
  verified:
    'on': '2026-07-19'
    method: api
- id: ma/chelsea/selah-resource-center-micro-pantry
  name: SELAH Resource Center Micro Pantry
  categories:
  - food-pantry
  place: '2513205'
  geo:
    lat: 42.39677
    lng: -71.02773
  external_ids:
    lfp: '3026'
  sources:
  - littlefreepantry/map
  verified:
    'on': '2026-07-19'
    method: scrape
