- id: ma/danvers/chapters-recovery-center-inc
  name: Chapters Recovery Center Inc
  categories:
  - su-treatment
  - mh-treatment
  address:
    street: 85 Constitution Lane
    city: Danvers
    state: ma
    zip: 01923
  place: '2516285'
  geo:
    lat: 42.55535
    lng: -70.93754
  phone: 978-719-1864
  website: https://Chaptersrecoverycenter.com
  sources:
  - samhsa/findtreatment
  verified:
    'on': '2026-07-19'
    method: api
- id: ma/danvers/danvers-housing-authority
  name: Danvers Housing Authority
  categories:
  - housing-assistance
  address:
    street: 14 Stone St
    city: Danvers
    state: ma
    zip: 01923
  description: Public housing and Housing Choice Voucher agency
  place: '2516285'
  geo:
    lat: 42.56315
    lng: -70.9572
  phone: 978-777-0909
  sources:
  - hud/resource-locator
  verified:
    'on': '2026-07-19'
    method: api
- id: ma/danvers/highlands-elementary-school-sf-263-002
  name: Highlands Elementary School (Sf-263-002)
  categories:
  - meal-program
  address: {street: 190 Hobart Street, city: Danvers, state: ma, zip: 01923}
  description: Free summer meals for kids and teens (2026 season) — sponsored by Danvers Public Schools
    (05-071-SF-263).
  place: '2516285'
  geo: {lat: 42.56532, lng: -70.95938}
  phone: (978) 777-8925
  external_ids: {usda_master: Cycle 09_MA_SFSP_0119}
  sources:
  - usda/summer-meal-sites
  verified: {'on': '2026-07-19', method: api}
- id: ma/danvers/lahey-health-behavioral-services-methadone-progr
  name: Lahey Health Behavioral Services Methadone Program
  categories:
  - su-treatment
  address:
    street: 111 Middleton Road
    city: Danvers
    state: ma
    zip: 01923
  place: '2516285'
  geo:
    lat: 42.58676
    lng: -70.97674
  phone: 978-777-2121 x7677
  website: https://www.bilhbehavioral.org
  sources:
  - samhsa/findtreatment
  verified:
    'on': '2026-07-19'
    method: api
- id: ma/danvers/recovery-centers-of-america-danvers
  name: Recovery Centers of America Danvers
  categories:
  - su-treatment
  - mh-treatment
  address:
    street: 75 Lindall Street
    city: Danvers
    state: ma
    zip: 01923
  place: '2516285'
  geo:
    lat: 42.57477
    lng: -70.94391
  phone: 978-223-9300
  website: https://www.recoverycentersofamerica.com
  sources:
  - samhsa/findtreatment
  verified:
    'on': '2026-07-19'
    method: api
