- id: ma/dorchester/1100-washington-street
  name: 1100 Washington Street
  categories:
  - community-health-center
  address:
    street: 1100 Washington St STE 306
    city: Dorchester
    state: ma
    zip: '02124'
  geo:
    lat: 42.2739
    lng: -71.06975
  phone: 617-825-9660
  website: https://www.codman.org
  external_ids:
    bphc: BPS-H80-022057
  sources:
  - hrsa/health-center-sites
  verified:
    'on': '2026-07-19'
    method: api
- id: ma/dorchester/450-washington-street
  name: 450 Washington Street
  categories:
  - community-health-center
  address:
    street: 450 Washington St
    city: Dorchester
    state: ma
    zip: '02124'
  geo:
    lat: 42.29589
    lng: -71.07186
  phone: 617-825-9660
  website: https://www.codman.org
  external_ids:
    bphc: BPS-H80-022056
  sources:
  - hrsa/health-center-sites
  verified:
    'on': '2026-07-19'
    method: api
- id: ma/dorchester/6-norfolk-street
  name: 6 Norfolk Street
  categories:
  - community-health-center
  address:
    street: 6 Norfolk St
    city: Dorchester
    state: ma
    zip: '02124'
  geo:
    lat: 42.28999
    lng: -71.07191
  phone: 617-825-9660
  website: https://www.codman.org
  external_ids:
    bphc: BPS-H80-022052
  sources:
  - hrsa/health-center-sites
  verified:
    'on': '2026-07-19'
    method: api
- id: ma/dorchester/bradshaw-head-start-children-s-services
  name: Bradshaw Head Start & Children's Services
  categories:
  - child-care
  address:
    street: 64 Bradshaw St
    city: Dorchester
    state: ma
    zip: '02121'
  geo:
    lat: 42.29805
    lng: -71.08364
  phone: 617-282-2327
  sources:
  - acf/head-start-locations
  verified:
    'on': '2026-07-19'
    method: api
- id: ma/dorchester/daniel-driscoll-neponset-health-center
  name: Daniel Driscoll  -  Neponset Health Center
  categories:
  - community-health-center
  address:
    street: 398 Neponset Ave
    city: Dorchester
    state: ma
    zip: '02122'
  geo:
    lat: 42.28671
    lng: -71.04409
  phone: 617-282-3200
  website: https://www.hhsi.us
  external_ids:
    bphc: BPS-H80-004970
  sources:
  - hrsa/health-center-sites
  verified:
    'on': '2026-07-19'
    method: api
- id: ma/dorchester/dorchester-head-start-children-s-services
  name: Dorchester Head Start & Children's Services
  categories:
  - child-care
  address:
    street: 198 Geneva Ave
    city: Dorchester
    state: ma
    zip: '02121'
  geo:
    lat: 42.30555
    lng: -71.07569
  phone: 617-929-6200
  sources:
  - acf/head-start-locations
  verified:
    'on': '2026-07-19'
    method: api
- id: ma/dorchester/dorchester-house-multi-svs-wic
  name: DORCHESTER HOUSE MULTI SVS/WIC
  categories:
  - community-health-center
  address:
    street: 1353 Dorchester Ave
    city: Dorchester
    state: ma
    zip: '02122'
  geo:
    lat: 42.30443
    lng: -71.05945
  phone: 617-288-3230
  website: https://www.hhsi.us
  external_ids:
    bphc: BPS-H80-004936
  sources:
  - hrsa/health-center-sites
  verified:
    'on': '2026-07-19'
    method: api
- id: ma/dorchester/dothouse-health
  name: DotHouse Health
  categories:
  - community-health-center
  address:
    street: 1353 Dorchester Ave
    city: Dorchester
    state: ma
    zip: '02122'
  geo:
    lat: 42.30443
    lng: -71.05945
  phone: 617-288-3230
  website: https://www.dorchesterhouse.org
  external_ids:
    bphc: BPS-H80-008167
  sources:
  - hrsa/health-center-sites
  verified:
    'on': '2026-07-19'
    method: api
- id: ma/dorchester/geiger-gibson-community-hlth-ctr
  name: GEIGER-GIBSON COMMUNITY HLTH CTR
  categories:
  - community-health-center
  address:
    street: 250 Mount Vernon St
    city: Dorchester
    state: ma
    zip: '02125'
  geo:
    lat: 42.31944
    lng: -71.04611
  phone: 617-288-1140
  website: https://www.hhsi.us
  external_ids:
    bphc: BPS-H80-000651
  sources:
  - hrsa/health-center-sites
  verified:
    'on': '2026-07-19'
    method: api
- id: ma/dorchester/harvard-street-neighborhood-health-center
  name: Harvard Street Neighborhood Health Center
  categories:
  - community-health-center
  address:
    street: 646 Blue Hill Ave UNIT 2
    city: Dorchester
    state: ma
    zip: '02121'
  geo:
    lat: 42.30214
    lng: -71.08529
  phone: 617-825-3400
  website: https://www.harvardstreet.org
  external_ids:
    bphc: BPS-H80-017624
  sources:
  - hrsa/health-center-sites
  verified:
    'on': '2026-07-19'
    method: api
- id: ma/dorchester/harvard-street-neighborhood-health-center-2
  name: Harvard Street Neighborhood Health Center
  categories:
  - community-health-center
  address:
    street: 632 Blue Hill Ave
    city: Dorchester
    state: ma
    zip: '02121'
  geo:
    lat: 42.3026
    lng: -71.08507
  phone: 617-825-3400
  website: https://www.harvardstreet.org
  external_ids:
    bphc: BPS-H80-015686
  sources:
  - hrsa/health-center-sites
  verified:
    'on': '2026-07-19'
    method: api
- id: ma/dorchester/mobile-van-1
  name: 'Mobile Van #1'
  categories:
  - community-health-center
  address:
    street: 415 Columbia Rd
    city: Dorchester
    state: ma
    zip: '02125'
  geo:
    lat: 42.31197
    lng: -71.06858
  phone: 617-287-8000
  website: https://www.uphams.org
  external_ids:
    bphc: BPS-H80-039656
  sources:
  - hrsa/health-center-sites
  verified:
    'on': '2026-07-19'
    method: api
- id: ma/dorchester/neponset-wic-administrative-office
  name: Neponset WIC/Administrative Office
  categories:
  - community-health-center
  address:
    street: 10 Minot Street
    city: Dorchester
    state: ma
    zip: '02122'
  geo:
    lat: 42.2863
    lng: -71.04434
  phone: 617-282-3200
  website: https://www.hhsi.us
  external_ids:
    bphc: BPS-H80-002026
  sources:
  - hrsa/health-center-sites
  verified:
    'on': '2026-07-19'
    method: api
- id: ma/dorchester/savin-hill
  name: Savin Hill
  categories:
  - community-health-center
  address:
    street: 1140 Dorchester Avenue
    city: Dorchester
    state: ma
    zip: '02125'
  geo:
    lat: 42.31205
    lng: -71.05739
  phone: 617-287-8000
  external_ids:
    bphc: BPS-H80-032267
  sources:
  - hrsa/health-center-sites
  verified:
    'on': '2026-07-19'
    method: api
- id: ma/dorchester/st-mary-s-center-for-women-children-bridge-home
  name: St. Mary's Center for Women & Children (Bridge Home, Margaret's House, Mary's Home)
  categories:
  - community-health-center
  address:
    street: 90 Cushing Ave
    city: Dorchester
    state: ma
    zip: '02125'
  geo:
    lat: 42.3139
    lng: -71.0634
  phone: 617-436-8600
  external_ids:
    bphc: BPS-H80-006350
  sources:
  - hrsa/health-center-sites
  verified:
    'on': '2026-07-19'
    method: api
- id: ma/dorchester/upham-s-corner-health-center-business-human-reso
  name: Upham's Corner Health Center - Business & Human Resources Office
  categories:
  - community-health-center
  address:
    street: 500 Columbia Rd
    city: Dorchester
    state: ma
    zip: '02125'
  geo:
    lat: 42.31477
    lng: -71.06758
  phone: 617-825-9205
  website: https://www.uphams.org
  external_ids:
    bphc: BPS-H80-015605
  sources:
  - hrsa/health-center-sites
  verified:
    'on': '2026-07-19'
    method: api
- id: ma/dorchester/upham-s-corner-helath-center
  name: Upham's Corner Helath Center
  categories:
  - community-health-center
  address:
    street: 415 Columbia Rd
    city: Dorchester
    state: ma
    zip: '02125'
  geo:
    lat: 42.31197
    lng: -71.06858
  phone: 617-287-8000
  website: https://www.uphams.org
  external_ids:
    bphc: BPS-H80-015594
  sources:
  - hrsa/health-center-sites
  verified:
    'on': '2026-07-19'
    method: api
- id: ma/dorchester/upham-s-eye-and-dental-clinic
  name: Upham's Eye and Dental Clinic
  categories:
  - community-health-center
  address:
    street: 636 Columbia Rd
    city: Dorchester
    state: ma
    zip: '02125'
  geo:
    lat: 42.31846
    lng: -71.06409
  phone: 617-825-9839
  website: https://www.uphams.org
  external_ids:
    bphc: BPS-H80-015600
  sources:
  - hrsa/health-center-sites
  verified:
    'on': '2026-07-19'
    method: api
- id: ma/dorchester/victory-programs-inc-shepherd-house
  name: Victory Programs Inc Shepherd House
  categories:
  - su-treatment
  address:
    city: Dorchester
    state: ma
    zip: '02125'
  phone: 617-288-3906
  website: https://www.vpi.org
  sources:
  - samhsa/findtreatment
  verified:
    'on': '2026-07-19'
    method: api
- id: ma/dorchester/walnut-grove-head-start-children-s-services
  name: Walnut Grove Head Start & Children's Services
  categories:
  - child-care
  address:
    street: 22 Elm Hill Ave
    city: Dorchester
    state: ma
    zip: '02121'
  geo:
    lat: 42.31225
    lng: -71.08423
  phone: 617-445-8202
  sources:
  - acf/head-start-locations
  verified:
    'on': '2026-07-19'
    method: api
