- id: ma/haverhill/community-action-drop-in-center
  name: Community Action Drop-In Center
  categories:
  - community-health-center
  address:
    street: 16 Ashland St
    city: Haverhill
    state: ma
    zip: 01830
  place: '2529405'
  geo:
    lat: 42.78138
    lng: -71.07612
  phone: 978-725-7400
  external_ids:
    bphc: BPS-H80-017428
  sources:
  - hrsa/health-center-sites
  verified:
    'on': '2026-07-19'
    method: api
- id: ma/haverhill/emmaus-house
  name: EMMAUS HOUSE
  categories:
  - community-health-center
  address:
    street: 150 How St
    city: Haverhill
    state: ma
    zip: 01830
  place: '2529405'
  geo:
    lat: 42.77727
    lng: -71.08166
  phone: 978-725-7400
  website: https://www.glfhc.org
  external_ids:
    bphc: BPS-H80-005662
  sources:
  - hrsa/health-center-sites
  verified:
    'on': '2026-07-19'
    method: api
- id: ma/haverhill/fox-center
  name: Fox Center
  categories:
  - child-care
  address:
    street: 75 Elm St
    city: Haverhill
    state: ma
    zip: 01830
  place: '2529405'
  geo:
    lat: 42.78661
    lng: -71.07618
  phone: 978-372-5052
  sources:
  - acf/head-start-locations
  verified:
    'on': '2026-07-19'
    method: api
- id: ma/haverhill/haverhill-family-health-center
  name: Haverhill Family Health Center
  categories:
  - community-health-center
  address:
    street: 755 Main St
    city: Haverhill
    state: ma
    zip: 01830
  place: '2529405'
  geo:
    lat: 42.79782
    lng: -71.08753
  phone: 978-686-0900
  external_ids:
    bphc: BPS-H80-030884
  sources:
  - hrsa/health-center-sites
  verified:
    'on': '2026-07-19'
    method: api
- id: ma/haverhill/haverhill-housing-authority
  name: Haverhill Housing Authority
  categories:
  - housing-assistance
  address: {street: 25 Washington Sq Ste C, city: Haverhill, state: ma, zip: 01830}
  description: Housing Choice Voucher (Section 8) agency
  place: '2529405'
  geo: {lat: 42.7739, lng: -71.08254}
  phone: 978-372-6761
  sources:
  - hud/resource-locator
  verified: {'on': '2026-07-19', method: api}
- id: ma/haverhill/haverhill-pavilion-behavioral-health-adult-geria
  name: Haverhill Pavilion Behavioral Health Adult/Geriatric Inpatient
  categories:
  - su-treatment
  - mh-treatment
  address:
    street: 76 Summer Street
    city: Haverhill
    state: ma
    zip: 01830
  place: '2529405'
  geo:
    lat: 42.77868
    lng: -71.07288
  phone: 978-373-8222
  website: https://www.haverhillpavilion.com
  sources:
  - samhsa/findtreatment
  verified:
    'on': '2026-07-19'
    method: api
- id: ma/haverhill/holy-family-hospital-haverhill-center-for-behavi
  name: Holy Family Hospital Haverhill Center for Behavioral Medicine
  categories:
  - su-treatment
  - mh-treatment
  address:
    city: Haverhill
    state: ma
    zip: 01830
  place: '2529405'
  phone: 978-687-0156 x2947
  website: https://www.holyfamilyhospital.org
  sources:
  - samhsa/findtreatment
  verified:
    'on': '2026-07-19'
    method: api
- id: ma/haverhill/international-child-care-center
  name: International Child Care Center
  categories:
  - child-care
  address:
    street: 17 Cedar St
    city: Haverhill
    state: ma
    zip: 01830
  place: '2529405'
  geo:
    lat: 42.78075
    lng: -71.08002
  phone: 978-372-1221
  sources:
  - acf/head-start-locations
  verified:
    'on': '2026-07-19'
    method: api
- id: ma/haverhill/meta-addiction-treatment
  name: Meta Addiction Treatment
  categories:
  - su-treatment
  - mh-treatment
  address:
    street: 25 Railroad Square
    city: Haverhill
    state: ma
    zip: 01832
  place: '2529405'
  geo:
    lat: 42.77366
    lng: -71.08557
  phone: 844-909-2560
  website: https://www.metaaddictiontreatment.com
  sources:
  - samhsa/findtreatment
  verified:
    'on': '2026-07-19'
    method: api
- id: ma/haverhill/mitch-s-place
  name: MITCH'S PLACE
  categories:
  - community-health-center
  address:
    street: 127 How St
    city: Haverhill
    state: ma
    zip: 01830
  place: '2529405'
  geo:
    lat: 42.77703
    lng: -71.08093
  phone: 978-725-7400
  website: https://www.glfhc.org
  external_ids:
    bphc: BPS-H80-007492
  sources:
  - hrsa/health-center-sites
  verified:
    'on': '2026-07-19'
    method: api
- id: ma/haverhill/new-horizons-medical
  name: New Horizons Medical
  categories:
  - su-treatment
  - mh-treatment
  address:
    street: 62 Brown Street
    city: Haverhill
    state: ma
    zip: 01830
  place: '2529405'
  geo:
    lat: 42.76505
    lng: -71.04495
  phone: 978-361-9993
  website: https://www.newhorizonsmedical.org
  sources:
  - samhsa/findtreatment
  verified:
    'on': '2026-07-19'
    method: api
- id: ma/haverhill/serenity-at-summit
  name: Serenity at Summit
  categories:
  - su-treatment
  - mh-treatment
  address:
    street: 61 Brown Street
    city: Haverhill
    state: ma
    zip: 01830
  place: '2529405'
  geo:
    lat: 42.76419
    lng: -71.04634
  phone: 978-641-3001
  website: https://www.serenityatsummit.com
  sources:
  - samhsa/findtreatment
  verified:
    'on': '2026-07-19'
    method: api
- id: ma/haverhill/spectrum-health-systems-inc
  name: Spectrum Health Systems Inc
  categories:
  - su-treatment
  address:
    street: 100 Plaistow Road
    city: Haverhill
    state: ma
    zip: 01830
  place: '2529405'
  geo:
    lat: 42.81476
    lng: -71.10447
  phone: 978-373-4985
  website: https://www.spectrumhealthsystems.org/
  sources:
  - samhsa/findtreatment
  verified:
    'on': '2026-07-19'
    method: api
