- id: ma/lowell/arbour-counseling-services
  name: Arbour Counseling Services
  categories:
  - su-treatment
  - mh-treatment
  address:
    street: 21 George Street
    city: Lowell
    state: ma
    zip: 01852
  place: '2537000'
  geo:
    lat: 42.64202
    lng: -71.30677
  phone: 978-453-5736
  website: https://arbourhealth.com
  sources:
  - samhsa/findtreatment
  verified:
    'on': '2026-07-19'
    method: api
- id: ma/lowell/bridgewell-counseling-services-lowell
  name: Bridgewell Counseling Services Lowell
  categories:
  - su-treatment
  - mh-treatment
  address:
    street: 35 Market Street
    city: Lowell
    state: ma
    zip: 01852
  place: '2537000'
  geo:
    lat: 42.64452
    lng: -71.30918
  phone: 978-459-0389
  website: https://www.bridgewell.org
  sources:
  - samhsa/findtreatment
  verified:
    'on': '2026-07-19'
    method: api
- id: ma/lowell/children-s-village
  name: Children's Village
  categories:
  - child-care
  address:
    street: 246 Market St
    city: Lowell
    state: ma
    zip: 01852
  place: '2537000'
  geo:
    lat: 42.64468
    lng: -71.31312
  phone: 978-453-1490
  sources:
  - acf/head-start-locations
  verified:
    'on': '2026-07-19'
    method: api
- id: ma/lowell/community-teamwork-inc
  name: Community Teamwork, Inc.
  categories:
  - housing-assistance
  address: {street: 155 Merrimack St, city: Lowell, state: ma, zip: 01852}
  description: Housing Choice Voucher (Section 8) agency
  place: '2537000'
  geo: {lat: 42.64587, lng: -71.31034}
  phone: 978-654-5715
  sources:
  - hud/resource-locator
  verified: {'on': '2026-07-19', method: api}
- id: ma/lowell/elm-tree-clinic
  name: Elm Tree Clinic
  categories:
  - su-treatment
  - mh-treatment
  address:
    street: 12 Wood Street
    city: Lowell
    state: ma
    zip: 01851
  place: '2537000'
  geo:
    lat: 42.63448
    lng: -71.35528
  phone: 833-356-8733
  website: https://www.elmtreeclinic.com
  sources:
  - samhsa/findtreatment
  verified:
    'on': '2026-07-19'
    method: api
- id: ma/lowell/health-on-wheels
  name: Health on Wheels
  categories:
  - community-health-center
  address:
    street: 161 Jackson St
    city: Lowell
    state: ma
    zip: 01852
  place: '2537000'
  geo:
    lat: 42.64224
    lng: -71.31038
  phone: 978-937-9700
  external_ids:
    bphc: BPS-H80-040106
  sources:
  - hrsa/health-center-sites
  verified:
    'on': '2026-07-19'
    method: api
- id: ma/lowell/james-houlares-center
  name: James Houlares Center
  categories:
  - child-care
  address:
    street: 126 Phoenix Ave
    city: Lowell
    state: ma
    zip: 01852
  place: '2537000'
  geo:
    lat: 42.62866
    lng: -71.27855
  phone: 978-454-5100
  sources:
  - acf/head-start-locations
  verified:
    'on': '2026-07-19'
    method: api
- id: ma/lowell/kathyrn-p-stoklosa-middle-school
  name: Kathyrn P. Stoklosa Middle School
  categories:
  - community-health-center
  address:
    street: 560 Broadway St
    city: Lowell
    state: ma
    zip: 01854
  place: '2537000'
  geo:
    lat: 42.64308
    lng: -71.32472
  phone: 978-970-3346
  website: https://www.lchealth.org
  external_ids:
    bphc: BPS-H80-005959
  sources:
  - hrsa/health-center-sites
  verified:
    'on': '2026-07-19'
    method: api
- id: ma/lowell/kraft-care-in-reach-mobile-van
  name: Kraft Care in Reach Mobile Van
  categories:
  - community-health-center
  address:
    street: 161 Jackson St
    city: Lowell
    state: ma
    zip: 01852
  place: '2537000'
  geo:
    lat: 42.64224
    lng: -71.31038
  phone: 978-937-9700
  external_ids:
    bphc: BPS-H80-040107
  sources:
  - hrsa/health-center-sites
  verified:
    'on': '2026-07-19'
    method: api
- id: ma/lowell/lchc-consolidated-site
  name: LCHC Consolidated Site
  categories:
  - community-health-center
  address:
    street: 161 Jackson St
    city: Lowell
    state: ma
    zip: 01852
  place: '2537000'
  geo:
    lat: 42.64224
    lng: -71.31038
  phone: 978-937-9700
  website: https://www.lchealth.org
  external_ids:
    bphc: BPS-H80-009242
  sources:
  - hrsa/health-center-sites
  verified:
    'on': '2026-07-19'
    method: api
- id: ma/lowell/lowell-chc-101-jackson-street
  name: Lowell CHC - 101 Jackson Street
  categories:
  - community-health-center
  address:
    street: 101 Jackson St
    city: Lowell
    state: ma
    zip: 01852
  place: '2537000'
  geo:
    lat: 42.6423
    lng: -71.3113
  phone: 978-937-9700
  website: https://www.lchealth.org
  external_ids:
    bphc: BPS-H80-017910
  sources:
  - hrsa/health-center-sites
  verified:
    'on': '2026-07-19'
    method: api
- id: ma/lowell/lowell-collaborative-preschool-academy
  name: Lowell Collaborative Preschool Academy
  categories:
  - child-care
  address:
    street: 554 Pawtucket St
    city: Lowell
    state: ma
    zip: 01854
  place: '2537000'
  geo:
    lat: 42.64527
    lng: -71.33396
  phone: 978-454-3350
  sources:
  - acf/head-start-locations
  verified:
    'on': '2026-07-19'
    method: api
- id: ma/lowell/lowell-community-health-center-inc-behavioral-he
  name: Lowell Community Health Center Inc Behavioral Health Services Outpatient
  categories:
  - su-treatment
  - mh-treatment
  address:
    street: 161 Jackson Street
    city: Lowell
    state: ma
    zip: 01852
  place: '2537000'
  geo:
    lat: 42.64181
    lng: -71.31152
  phone: 978-937-9700 x6730
  website: https://www.lchealth.org
  sources:
  - samhsa/findtreatment
  verified:
    'on': '2026-07-19'
    method: api
- id: ma/lowell/lowell-comprehensive-treatment-center
  name: Lowell Comprehensive Treatment Center
  categories:
  - su-treatment
  address:
    street: 22 Olde Canal Drive
    city: Lowell
    state: ma
    zip: 01851
  place: '2537000'
  geo:
    lat: 42.62322
    lng: -71.35096
  phone: 978-452-5155 x205
  website: https://www.ctcprograms.com/location/lowell-comprehensive-
  sources:
  - samhsa/findtreatment
  verified:
    'on': '2026-07-19'
    method: api
- id: ma/lowell/lowell-high-school-health-ctr
  name: LOWELL HIGH SCHOOL HEALTH CTR
  categories:
  - community-health-center
  address:
    street: 50 Father Morissette Blvd
    city: Lowell
    state: ma
    zip: 01852
  place: '2537000'
  geo:
    lat: 42.64762
    lng: -71.31151
  phone: 978-458-6642
  website: https://www.lchealth.org
  external_ids:
    bphc: BPS-H80-003896
  sources:
  - hrsa/health-center-sites
  verified:
    'on': '2026-07-19'
    method: api
- id: ma/lowell/lowell-housing-authority
  name: Lowell Housing Authority
  categories:
  - housing-assistance
  address: {street: 350 Moody St, city: Lowell, state: ma, zip: 01854}
  description: Public housing and Housing Choice Voucher agency
  place: '2537000'
  geo: {lat: 42.64853, lng: -71.31832}
  phone: 978-937-3500
  sources:
  - hud/resource-locator
  verified: {'on': '2026-07-19', method: api}
- id: ma/lowell/lowell-transitional-living-center
  name: Lowell Transitional Living Center
  categories:
  - community-health-center
  address:
    street: 205 Middlesex St
    city: Lowell
    state: ma
    zip: 01852
  place: '2537000'
  geo:
    lat: 42.64096
    lng: -71.31238
  phone: 978-458-9888
  website: http://www.ltlc.org/
  external_ids:
    bphc: BPS-H80-015157
  sources:
  - hrsa/health-center-sites
  verified:
    'on': '2026-07-19'
    method: api
- id: ma/lowell/megans-house
  name: Megans House
  categories:
  - su-treatment
  address:
    street: 32 Berry Road
    city: Lowell
    state: ma
    zip: 01854
  place: '2537000'
  geo:
    lat: 42.65259
    lng: -71.34492
  phone: 978-455-6973
  website: https://www.themeganhouse.org
  sources:
  - samhsa/findtreatment
  verified:
    'on': '2026-07-19'
    method: api
- id: ma/lowell/mentor-south-bay
  name: Mentor South Bay
  categories:
  - su-treatment
  - mh-treatment
  address:
    street: 22 Old Canal Drive
    city: Lowell
    state: ma
    zip: 01851
  place: '2537000'
  geo:
    lat: 42.62322
    lng: -71.35096
  phone: 978-453-6800
  website: https://mentorsouthbay.com
  sources:
  - samhsa/findtreatment
  verified:
    'on': '2026-07-19'
    method: api
- id: ma/lowell/riverbend-ambulatory-services
  name: Riverbend Ambulatory Services
  categories:
  - su-treatment
  - mh-treatment
  address:
    street: 101 Jackson Street
    city: Lowell
    state: ma
    zip: 01852
  place: '2537000'
  geo:
    lat: 42.64216
    lng: -71.3106
  phone: 978-459-8656 x138
  website: https://www.riverbendmv.org
  sources:
  - samhsa/findtreatment
  verified:
    'on': '2026-07-19'
    method: api
- id: ma/lowell/toddler-corner
  name: Toddler Corner
  categories:
  - child-care
  address:
    street: 524 Pawtucket St
    city: Lowell
    state: ma
    zip: 01854
  place: '2537000'
  geo:
    lat: 42.64543
    lng: -71.33329
  phone: 978-454-7171
  sources:
  - acf/head-start-locations
  verified:
    'on': '2026-07-19'
    method: api
- id: ma/lowell/toddler-corner-hb
  name: Toddler Corner- HB
  categories:
  - child-care
  address:
    street: 21 Walker St
    street2: '(Also Registered As: 524 Pawtucket St)'
    city: Lowell
    state: ma
    zip: 01854
  place: '2537000'
  geo:
    lat: 42.64576
    lng: -71.33327
  phone: 978-454-3793
  sources:
  - acf/head-start-locations
  verified:
    'on': '2026-07-19'
    method: api
- id: ma/lowell/vinfen-behavioral-health
  name: Vinfen Behavioral Health
  categories:
  - su-treatment
  - mh-treatment
  address:
    street: 391 Varnum Avenue
    city: Lowell
    state: ma
    zip: 01852
  place: '2537000'
  geo:
    lat: 42.64607
    lng: -71.34493
  phone: 978-674-6744
  website: https://vinfen.org
  sources:
  - samhsa/findtreatment
  verified:
    'on': '2026-07-19'
    method: api
- id: ma/lowell/vinfen-behavioral-health-2
  name: Vinfen Behavioral Health
  categories:
  - su-treatment
  - mh-treatment
  address:
    street: 40 Church Street
    city: Lowell
    state: ma
    zip: 01852
  place: '2537000'
  geo:
    lat: 42.64167
    lng: -71.30731
  phone: 978-674-6744
  website: https://vinfen.org
  sources:
  - samhsa/findtreatment
  verified:
    'on': '2026-07-19'
    method: api
