- id: ma/lynn/blossom-street-head-start-center
  name: Blossom Street Head Start Center
  categories:
  - child-care
  address:
    street: 110 Blossom St
    city: Lynn
    state: ma
    zip: 01902
  place: '2537490'
  geo:
    lat: 42.46087
    lng: -70.95413
  phone: 781-309-5570
  sources:
  - acf/head-start-locations
  verified:
    'on': '2026-07-19'
    method: api
- id: ma/lynn/breed-middle-school
  name: BREED MIDDLE SCHOOL
  categories:
  - community-health-center
  address:
    street: 90 Ocallaghan Way
    city: Lynn
    state: ma
    zip: 01905
  place: '2537490'
  geo:
    lat: 42.47055
    lng: -70.98471
  phone: 781-598-0287
  website: https://lchcnet.org/aboutus/
  external_ids:
    bphc: BPS-H80-007491
  sources:
  - hrsa/health-center-sites
  verified:
    'on': '2026-07-19'
    method: api
- id: ma/lynn/brickett-elementary-school-school-based-health-c
  name: Brickett Elementary School, School Based Health Center
  categories:
  - community-health-center
  address:
    street: 123 Lewis St
    city: Lynn
    state: ma
    zip: 01902
  place: '2537490'
  geo:
    lat: 42.46611
    lng: -70.93097
  phone: 781-477-7333
  external_ids:
    bphc: BPS-H80-014023
  sources:
  - hrsa/health-center-sites
  verified:
    'on': '2026-07-19'
    method: api
- id: ma/lynn/classical-high-school
  name: CLASSICAL HIGH SCHOOL
  categories:
  - community-health-center
  address:
    street: 235 Ocallaghan Way
    city: Lynn
    state: ma
    zip: 01905
  place: '2537490'
  geo:
    lat: 42.46525
    lng: -70.98528
  phone: 781-592-8634
  website: https://lchcnet.org/aboutus
  external_ids:
    bphc: BPS-H80-006156
  sources:
  - hrsa/health-center-sites
  verified:
    'on': '2026-07-19'
    method: api
- id: ma/lynn/cleanslate-centers
  name: CleanSlate Centers
  categories:
  - su-treatment
  address:
    street: 280 Union Street
    city: Lynn
    state: ma
    zip: 01901
  place: '2537490'
  geo:
    lat: 42.46496
    lng: -70.94325
  phone: 781-731-6804
  website: https://cleanslatecenters.com
  sources:
  - samhsa/findtreatment
  verified:
    'on': '2026-07-19'
    method: api
- id: ma/lynn/cobbet-elementary-school-school-based-health-cen
  name: Cobbet Elementary School School Based Health Center
  categories:
  - community-health-center
  address:
    street: 40 Franklin St
    city: Lynn
    state: ma
    zip: 01902
  place: '2537490'
  geo:
    lat: 42.46472
    lng: -70.95503
  phone: 781-477-7341
  external_ids:
    bphc: BPS-H80-012570
  sources:
  - hrsa/health-center-sites
  verified:
    'on': '2026-07-19'
    method: api
- id: ma/lynn/connery-elementary-school-school-based-health-ce
  name: Connery Elementary School - School Based Health Center
  categories:
  - community-health-center
  address:
    street: 50 Elm St
    city: Lynn
    state: ma
    zip: 01905
  place: '2537490'
  geo:
    lat: 42.46109
    lng: -70.96266
  phone: 781-691-7159
  external_ids:
    bphc: BPS-H80-010997
  sources:
  - hrsa/health-center-sites
  verified:
    'on': '2026-07-19'
    method: api
- id: ma/lynn/demakes-family-ymca
  name: Demakes Family YMCA
  categories:
  - community-health-center
  address:
    street: 40 Neptune Boulevard
    city: Lynn
    state: ma
    zip: 01902
  place: '2537490'
  geo:
    lat: 42.46105
    lng: -70.95322
  phone: 781-842-8811
  external_ids:
    bphc: BPS-H80-033956
  sources:
  - hrsa/health-center-sites
  verified:
    'on': '2026-07-19'
    method: api
- id: ma/lynn/drewicz-elementary-school-school-based-health-ce
  name: Drewicz Elementary School - School Based Health Center
  categories:
  - community-health-center
  address:
    street: 34 Hood St
    city: Lynn
    state: ma
    zip: 01905
  place: '2537490'
  geo:
    lat: 42.46063
    lng: -70.96932
  phone: 781-596-2502
  external_ids:
    bphc: BPS-H80-020804
  sources:
  - hrsa/health-center-sites
  verified:
    'on': '2026-07-19'
    method: api
- id: ma/lynn/ehs-home-base-program
  name: EHS Home Base Program
  categories:
  - child-care
  address:
    street: 35 Waitt Ave
    city: Lynn
    state: ma
    zip: 01902
  place: '2537490'
  geo:
    lat: 42.48338
    lng: -70.94042
  phone: 781-309-5700
  sources:
  - acf/head-start-locations
  verified:
    'on': '2026-07-19'
    method: api
- id: ma/lynn/fecteau-leary-junior-senior-high-school
  name: Fecteau - Leary Junior / Senior High School
  categories:
  - community-health-center
  address:
    street: 33 N Common St
    city: Lynn
    state: ma
    zip: 01902
  place: '2537490'
  geo:
    lat: 42.46472
    lng: -70.95503
  phone: 781-268-3007
  external_ids:
    bphc: BPS-H80-029660
  sources:
  - hrsa/health-center-sites
  verified:
    'on': '2026-07-19'
    method: api
- id: ma/lynn/harrington-elementary-school-school-based-health
  name: Harrington Elementary School  -  School Based Health Center
  categories:
  - community-health-center
  address:
    street: 21 Dexter St
    city: Lynn
    state: ma
    zip: 01902
  place: '2537490'
  geo:
    lat: 42.46468
    lng: -70.93903
  phone: 781-477-1902
  external_ids:
    bphc: BPS-H80-010866
  sources:
  - hrsa/health-center-sites
  verified:
    'on': '2026-07-19'
    method: api
- id: ma/lynn/ingalls-elementary-school
  name: INGALLS ELEMENTARY SCHOOL
  categories:
  - community-health-center
  address:
    street: 1 Collins Street Ter
    city: Lynn
    state: ma
    zip: 01902
  place: '2537490'
  geo:
    lat: 42.4716
    lng: -70.93662
  phone: 781-593-0734
  website: http://lchcnet.org/aboutus/
  external_ids:
    bphc: BPS-H80-006805
  sources:
  - hrsa/health-center-sites
  verified:
    'on': '2026-07-19'
    method: api
- id: ma/lynn/jack-robinson-child-care-center
  name: Jack Robinson Child Care Center
  categories:
  - child-care
  address:
    street: 38 Commercial St
    city: Lynn
    state: ma
    zip: 01905
  place: '2537490'
  geo:
    lat: 42.46155
    lng: -70.96111
  phone: 781-309-5540
  sources:
  - acf/head-start-locations
  verified:
    'on': '2026-07-19'
    method: api
- id: ma/lynn/julia-f-callahan-elementary-school-school-based
  name: Julia F. Callahan Elementary School, School Based Health Center
  categories:
  - community-health-center
  address:
    street: 200 Ocallaghan Way
    city: Lynn
    state: ma
    zip: 01905
  place: '2537490'
  geo:
    lat: 42.46748
    lng: -70.98473
  phone: 781-477-7340
  external_ids:
    bphc: BPS-H80-017967
  sources:
  - hrsa/health-center-sites
  verified:
    'on': '2026-07-19'
    method: api
- id: ma/lynn/lchc-medical-outreach-program
  name: LCHC Medical Outreach Program
  categories:
  - community-health-center
  address:
    street: 269 Union St
    city: Lynn
    state: ma
    zip: 01901
  place: '2537490'
  geo:
    lat: 42.46526
    lng: -70.94363
  phone: 781-581-3900
  external_ids:
    bphc: BPS-H80-039171
  sources:
  - hrsa/health-center-sites
  verified:
    'on': '2026-07-19'
    method: api
- id: ma/lynn/leo-early-head-start-stepping-stones-family-cent
  name: LEO Early Head Start Stepping Stones Family Center
  categories:
  - child-care
  address:
    street: 35 Waitt Ave
    city: Lynn
    state: ma
    zip: 01902
  place: '2537490'
  geo:
    lat: 42.4835
    lng: -70.94032
  phone: 781-309-5530
  sources:
  - acf/head-start-locations
  verified:
    'on': '2026-07-19'
    method: api
- id: ma/lynn/lynn-community-health-center
  name: LYNN COMMUNITY HEALTH CENTER
  categories:
  - community-health-center
  address:
    street: 269 Union St
    city: Lynn
    state: ma
    zip: 01901
  place: '2537490'
  geo:
    lat: 42.46526
    lng: -70.94363
  phone: 781-581-3900
  website: http://lchcnet.org/aboutus/
  external_ids:
    bphc: BPS-H80-001516
  sources:
  - hrsa/health-center-sites
  verified:
    'on': '2026-07-19'
    method: api
- id: ma/lynn/lynn-community-health-center-primary-care-and-be
  name: Lynn Community Health Center - Primary Care and Behavioral Health Services
  categories:
  - community-health-center
  address:
    street: 280 Union St
    city: Lynn
    state: ma
    zip: 01901
  place: '2537490'
  geo:
    lat: 42.46495
    lng: -70.94312
  phone: 781-581-3900
  website: https://www.lchcnet.org
  external_ids:
    bphc: BPS-H80-009470
  sources:
  - hrsa/health-center-sites
  verified:
    'on': '2026-07-19'
    method: api
- id: ma/lynn/lynn-community-health-center-satellite
  name: Lynn Community Health Center Satellite
  categories:
  - community-health-center
  address:
    street: 20 Central Ave
    city: Lynn
    state: ma
    zip: 01901
  place: '2537490'
  geo:
    lat: 42.46397
    lng: -70.94602
  phone: 781-581-3900
  external_ids:
    bphc: BPS-H80-011468
  sources:
  - hrsa/health-center-sites
  verified:
    'on': '2026-07-19'
    method: api
- id: ma/lynn/lynn-comprehensive-treatment-center-habit-opco-l
  name: Lynn Comprehensive Treatment Center Habit Opco LLC
  categories:
  - su-treatment
  address:
    street: 11 Circle Avenue
    city: Lynn
    state: ma
    zip: 01905
  place: '2537490'
  geo:
    lat: 42.4533
    lng: -70.95881
  phone: 781-595-2413
  website: https://www.ctcprograms.com/location/lynn-comprehensive-tr
  sources:
  - samhsa/findtreatment
  verified:
    'on': '2026-07-19'
    method: api
- id: ma/lynn/lynn-english-high-school
  name: LYNN ENGLISH HIGH SCHOOL
  categories:
  - community-health-center
  address:
    street: 50 Goodridge St
    city: Lynn
    state: ma
    zip: 01902
  place: '2537490'
  geo:
    lat: 42.47758
    lng: -70.94445
  phone: 781-598-8128
  website: https://lchcnet.org/aboutus
  external_ids:
    bphc: BPS-H80-005961
  sources:
  - hrsa/health-center-sites
  verified:
    'on': '2026-07-19'
    method: api
- id: ma/lynn/lynn-housing-authority
  name: Lynn Housing Authority
  categories:
  - housing-assistance
  address: {street: 10 Church St, city: Lynn, state: ma, zip: 01902}
  description: Public housing and Housing Choice Voucher agency
  place: '2537490'
  geo: {lat: 42.46184, lng: -70.95313}
  phone: 781-581-8600
  sources:
  - hud/resource-locator
  verified: {'on': '2026-07-19', method: api}
- id: ma/lynn/lynn-multiservice-center
  name: Lynn Multiservice Center
  categories:
  - community-health-center
  address:
    street: 100 Willow St
    city: Lynn
    state: ma
    zip: 01901
  place: '2537490'
  geo:
    lat: 42.46494
    lng: -70.94753
  phone: 781-581-0739
  website: http://lchcnet.org/aboutus/
  external_ids:
    bphc: BPS-H80-006546
  sources:
  - hrsa/health-center-sites
  verified:
    'on': '2026-07-19'
    method: api
- id: ma/lynn/lynn-vocational-tech-high-school
  name: LYNN VOCATIONAL TECH HIGH SCHOOL
  categories:
  - community-health-center
  address:
    street: 80 Neptune Blvd
    city: Lynn
    state: ma
    zip: 01902
  place: '2537490'
  geo:
    lat: 42.46037
    lng: -70.95514
  phone: 781-581-7740
  website: http://lchcnet.org/aboutus/
  external_ids:
    bphc: BPS-H80-005707
  sources:
  - hrsa/health-center-sites
  verified:
    'on': '2026-07-19'
    method: api
- id: ma/lynn/lynn-vocational-technical-high-school-school-bas
  name: Lynn Vocational Technical High School, School Based Health Center, Annex
  categories:
  - community-health-center
  address:
    street: 90 Commercial St
    city: Lynn
    state: ma
    zip: 01905
  place: '2537490'
  geo:
    lat: 42.45972
    lng: -70.95918
  phone: 781-477-7431
  website: https://www.lchcnet.org/aboutus/
  external_ids:
    bphc: BPS-H80-028182
  sources:
  - hrsa/health-center-sites
  verified:
    'on': '2026-07-19'
    method: api
- id: ma/lynn/market-square-family-hlth-svcs
  name: MARKET SQUARE FAMILY HLTH SVCS
  categories:
  - community-health-center
  address:
    street: 29 Market Square
    city: Lynn
    state: ma
    zip: 01905
  place: '2537490'
  geo:
    lat: 42.46282
    lng: -70.96411
  phone: 781-596-3500
  website: http://lchcnet.org/aboutus/
  external_ids:
    bphc: BPS-H80-001100
  sources:
  - hrsa/health-center-sites
  verified:
    'on': '2026-07-19'
    method: api
- id: ma/lynn/medical-outreach-clinic
  name: Medical Outreach Clinic
  categories:
  - community-health-center
  address:
    street: 73 Buffum St
    city: Lynn
    state: ma
    zip: 01902
  place: '2537490'
  geo:
    lat: 42.46568
    lng: -70.94515
  phone: 781-581-3900
  external_ids:
    bphc: BPS-H80-021421
  sources:
  - hrsa/health-center-sites
  verified:
    'on': '2026-07-19'
    method: api
- id: ma/lynn/msfhs-at-western-avenue
  name: MSFHS AT WESTERN AVENUE
  categories:
  - community-health-center
  address:
    street: 694 Western Ave
    city: Lynn
    state: ma
    zip: 01905
  place: '2537490'
  geo:
    lat: 42.46348
    lng: -70.96409
  phone: 781-595-7348
  website: http://lchcnet.org/aboutus/
  external_ids:
    bphc: BPS-H80-002601
  sources:
  - hrsa/health-center-sites
  verified:
    'on': '2026-07-19'
    method: api
- id: ma/lynn/new-horizons-medical
  name: New Horizons Medical
  categories:
  - su-treatment
  - mh-treatment
  address:
    street: 222 Blossom Street Extension
    city: Lynn
    state: ma
    zip: 01901
  place: '2537490'
  geo:
    lat: 42.45677
    lng: -70.95064
  phone: 781-584-4645
  website: https://www.newhorizonsmedical.org/
  sources:
  - samhsa/findtreatment
  verified:
    'on': '2026-07-19'
    method: api
- id: ma/lynn/pickering-middle-school-sbhc
  name: Pickering Middle School SBHC
  categories:
  - community-health-center
  address:
    street: 70 Conomo Avenue
    city: Lynn
    state: ma
    zip: 01904
  place: '2537490'
  geo:
    lat: 42.4869
    lng: -70.95803
  phone: 781-477-7440
  external_ids:
    bphc: BPS-H80-039485
  sources:
  - hrsa/health-center-sites
  verified:
    'on': '2026-07-19'
    method: api
- id: ma/lynn/program-for-all-inclusive-care-for-the-elderly-p
  name: Program for All-Inclusive Care for the Elderly (PACE) Site
  categories:
  - community-health-center
  address:
    street: 20 School St
    city: Lynn
    state: ma
    zip: 01902
  place: '2537490'
  geo:
    lat: 42.46612
    lng: -70.94128
  phone: 781-581-7565
  website: http://www.lchcnet.org/AboutUs/
  external_ids:
    bphc: BPS-H80-004331
  sources:
  - hrsa/health-center-sites
  verified:
    'on': '2026-07-19'
    method: api
- id: ma/lynn/program-for-all-inclusive-care-for-the-elderly-p-2
  name: Program for All-Inclusive Care for the Elderly (PACE) Site
  categories:
  - community-health-center
  address:
    street: 9 Buffum St
    city: Lynn
    state: ma
    zip: 01902
  place: '2537490'
  geo:
    lat: 42.46573
    lng: -70.94399
  phone: 781-722-0040
  website: http://www.lchcnet.org/AboutUs/
  external_ids:
    bphc: BPS-H80-000724
  sources:
  - hrsa/health-center-sites
  verified:
    'on': '2026-07-19'
    method: api
- id: ma/lynn/program-for-all-inclusive-care-for-the-elderly-p-3
  name: Program for All-Inclusive Care for the Elderly (PACE) Site
  categories:
  - community-health-center
  address:
    street: 62 Market St
    city: Lynn
    state: ma
    zip: 01901
  place: '2537490'
  geo:
    lat: 42.46368
    lng: -70.94965
  phone: 781-595-4713
  website: http://www.lchcnet.org/AboutUs/
  external_ids:
    bphc: BPS-H80-003639
  sources:
  - hrsa/health-center-sites
  verified:
    'on': '2026-07-19'
    method: api
- id: ma/lynn/program-for-all-inclusive-care-for-the-elderly-p-4
  name: Program for All-Inclusive Care for the Elderly (PACE) Site
  categories:
  - community-health-center
  address:
    street: 37 Friend St
    city: Lynn
    state: ma
    zip: 01902
  place: '2537490'
  geo:
    lat: 42.46526
    lng: -70.94002
  phone: 781-715-6608
  external_ids:
    bphc: BPS-H80-012148
  sources:
  - hrsa/health-center-sites
  verified:
    'on': '2026-07-19'
    method: api
- id: ma/lynn/raw-art-works
  name: RAW Art Works
  categories:
  - community-health-center
  address:
    street: 37 Central Square
    city: Lynn
    state: ma
    zip: 01901
  place: '2537490'
  geo:
    lat: 42.46396
    lng: -70.9446
  phone: 781-593-5515
  external_ids:
    bphc: BPS-H80-034046
  sources:
  - hrsa/health-center-sites
  verified:
    'on': '2026-07-19'
    method: api
- id: ma/lynn/robert-l-ford-school-school-based-health-center
  name: Robert L. Ford School, School Based Health Center
  categories:
  - community-health-center
  address:
    street: 49 Hollingsworth St
    city: Lynn
    state: ma
    zip: 01902
  place: '2537490'
  geo:
    lat: 42.47135
    lng: -70.94703
  phone: 781-477-7375
  external_ids:
    bphc: BPS-H80-014029
  sources:
  - hrsa/health-center-sites
  verified:
    'on': '2026-07-19'
    method: api
- id: ma/lynn/thurgood-marshall-middle-school
  name: THURGOOD MARSHALL MIDDLE SCHOOL
  categories:
  - community-health-center
  address:
    street: 114 Brookline Street
    city: Lynn
    state: ma
    zip: 01902
  place: '2537490'
  geo:
    lat: 42.47093
    lng: -70.92959
  phone: 781-599-3925
  external_ids:
    bphc: BPS-H80-017966
  sources:
  - hrsa/health-center-sites
  verified:
    'on': '2026-07-19'
    method: api
- id: ma/lynn/tracy-elementary-school-school-based-health-cent
  name: Tracy Elementary School, School Based Health Center
  categories:
  - community-health-center
  address:
    street: 35 Walnut St
    city: Lynn
    state: ma
    zip: 01905
  place: '2537490'
  geo:
    lat: 42.4692
    lng: -70.96658
  phone: 781-477-7466
  external_ids:
    bphc: BPS-H80-014049
  sources:
  - hrsa/health-center-sites
  verified:
    'on': '2026-07-19'
    method: api
- id: ma/lynn/washington-elementary-school-school-based-health
  name: Washington Elementary School, School Based Health Center
  categories:
  - community-health-center
  address:
    street: 58 Blossom Street
    city: Lynn
    state: ma
    zip: 01902
  place: '2537490'
  geo:
    lat: 42.46135
    lng: -70.95451
  phone: 339-883-1414
  external_ids:
    bphc: BPS-H80-024622
  sources:
  - hrsa/health-center-sites
  verified:
    'on': '2026-07-19'
    method: api
- id: ma/lynn/william-r-fallon-elementary-school-school-based
  name: William R Fallon Elementary School, School Based Health Center
  categories:
  - community-health-center
  address:
    street: 100 Robinson St
    city: Lynn
    state: ma
    zip: 01905
  place: '2537490'
  geo:
    lat: 42.46878
    lng: -70.97059
  phone: 781-477-7470
  external_ids:
    bphc: BPS-H80-028040
  sources:
  - hrsa/health-center-sites
  verified:
    'on': '2026-07-19'
    method: api
