- id: ma/plymouth/anchor-house-inc
  name: Anchor House Inc
  categories:
  - su-treatment
  - mh-treatment
  address:
    street: 60 1/2 Cherry Street
    city: Plymouth
    state: ma
    zip: '02360'
  place: '2554275'
  geo:
    lat: 41.97153
    lng: -70.69037
  phone: 508-746-6654 x12
  website: https://
  sources:
  - samhsa/findtreatment
  verified:
    'on': '2026-07-19'
    method: api
- id: ma/plymouth/children-making-strides
  name: Children Making Strides
  categories:
  - mh-treatment
  address:
    street: 6 Resnik Road
    city: Plymouth
    state: ma
    zip: '02360'
  place: '2554275'
  geo:
    lat: 41.94961
    lng: -70.71226
  phone: 508-563-5767
  website: https://www.cmsaba.com
  sources:
  - samhsa/findtreatment
  verified:
    'on': '2026-07-19'
    method: api
- id: ma/plymouth/cleanslate-centers-medicine-plymouth
  name: CleanSlate Centers Medicine/Plymouth
  categories:
  - su-treatment
  address:
    street: 61 Industrial Park Road
    city: Plymouth
    state: ma
    zip: '02360'
  place: '2554275'
  geo:
    lat: 41.95775
    lng: -70.70446
  phone: 508-503-5020
  website: https://www.cleanslatecenters.com
  sources:
  - samhsa/findtreatment
  verified:
    'on': '2026-07-19'
    method: api
- id: ma/plymouth/gosnold-behavioral-health-plymouth-outpatient
  name: Gosnold Behavioral Health Plymouth Outpatient
  categories:
  - su-treatment
  - mh-treatment
  address:
    street: 64 Industrial Park Road
    city: Plymouth
    state: ma
    zip: '02360'
  place: '2554275'
  geo:
    lat: 41.95784
    lng: -70.70349
  phone: 508-540-6550
  website: https://www.gosnold.org
  sources:
  - samhsa/findtreatment
  verified:
    'on': '2026-07-19'
    method: api
- id: ma/plymouth/harbor-community-health-center-plymouth
  name: Harbor Community Health Center-Plymouth
  categories:
  - community-health-center
  address:
    street: 10 Cordage Park Cir, Suite 115
    city: Plymouth
    state: ma
    zip: '02360'
  place: '2554275'
  geo:
    lat: 41.97938
    lng: -70.6882
  phone: 508-778-5470
  website: https://www.hhsi.us
  external_ids:
    bphc: BPS-H80-013085
  sources:
  - hrsa/health-center-sites
  verified:
    'on': '2026-07-19'
    method: api
- id: ma/plymouth/high-point-multi-service-center-plymouth
  name: High Point Multi Service Center Plymouth
  categories:
  - su-treatment
  address:
    street: 61 Industrial Park Road
    city: Plymouth
    state: ma
    zip: '02360'
  place: '2554275'
  geo:
    lat: 41.95812
    lng: -70.70467
  phone: 508-830-1234
  website: https://www.hptc.org
  sources:
  - samhsa/findtreatment
  verified:
    'on': '2026-07-19'
    method: api
- id: ma/plymouth/plymouth-housing-authority
  name: Plymouth Housing Authority
  categories:
  - housing-assistance
  address:
    street: 130 Court St
    city: Plymouth
    state: ma
    zip: '02360'
  description: Public housing and Housing Choice Voucher agency
  place: '2554275'
  geo:
    lat: 41.96137
    lng: -70.67258
  phone: 508-746-2105
  sources:
  - hud/resource-locator
  verified:
    'on': '2026-07-19'
    method: api
- id: ma/plymouth/south-shore-early-education-plymouth
  name: South Shore Early Education-Plymouth
  categories:
  - child-care
  address:
    street: 196 S Meadow Rd
    city: Plymouth
    state: ma
    zip: '02360'
  place: '2554275'
  geo:
    lat: 41.91654
    lng: -70.72724
  phone: 508-746-0333
  sources:
  - acf/head-start-locations
  verified:
    'on': '2026-07-19'
    method: api
- id: ma/plymouth/south-shore-recovery-center
  name: South Shore Recovery Center
  categories:
  - su-treatment
  - mh-treatment
  address:
    street: 182 Standish Avenue
    city: Plymouth
    state: ma
    zip: '02360'
  place: '2554275'
  geo:
    lat: 41.96924
    lng: -70.68489
  phone: 774-252-9364
  website: https://www.southshorerecovery.com
  sources:
  - samhsa/findtreatment
  verified:
    'on': '2026-07-19'
    method: api
