- id: ne/alliance/alliance
  name: Alliance
  categories:
  - child-care
  address:
    street: 1028 E 3rd St
    city: Alliance
    state: ne
    zip: '69301'
  place: '3100905'
  geo:
    lat: 42.09743
    lng: -102.85766
  phone: 308-762-2251
  sources:
  - acf/head-start-locations
  verified:
    'on': '2026-07-19'
    method: api
- id: ne/alliance/alliance-housing-authority
  name: Alliance Housing Authority
  categories:
  - housing-assistance
  address: {street: 300 S Potash Ave Apt 27, city: Alliance, state: ne, zip: '69301'}
  description: Public housing and Housing Choice Voucher agency
  place: '3100905'
  geo: {lat: 42.09122, lng: -102.86077}
  phone: 308-762-5130
  sources:
  - hud/resource-locator
  verified: {'on': '2026-07-19', method: api}
- id: ne/alliance/alliance-migrant-head-start
  name: Alliance Migrant Head Start
  categories:
  - child-care
  address:
    street: 901 Box Butte Ave
    city: Alliance
    state: ne
    zip: '69301'
  place: '3100905'
  geo:
    lat: 42.1032
    lng: -102.8709
  phone: 308-761-0401
  sources:
  - acf/head-start-locations
  verified:
    'on': '2026-07-19'
    method: api
- id: ne/alliance/human-services-inc
  name: Human Services Inc
  categories:
  - su-treatment
  address:
    street: 419 West 25th Street
    city: Alliance
    state: ne
    zip: '69301'
  place: '3100905'
  geo:
    lat: 42.11938
    lng: -102.87577
  phone: 308-762-7177
  website: https://www.hsinc.org
  sources:
  - samhsa/findtreatment
  verified:
    'on': '2026-07-19'
    method: api
- id: ne/alliance/little-free-pantry-alliance
  name: Little Free Pantry- Alliance
  categories:
  - food-pantry
  place: '3100905'
  geo:
    lat: 42.1026
    lng: -102.85802
  external_ids:
    lfp: '5869'
  sources:
  - littlefreepantry/map
  verified:
    'on': '2026-07-19'
    method: scrape
- id: ne/alliance/sandhills-center-for-hope
  name: Sandhills Center for Hope
  categories:
  - su-treatment
  - mh-treatment
  address:
    street: 212 Box Butte Avenue
    city: Alliance
    state: ne
    zip: '69301'
  place: '3100905'
  geo:
    lat: 42.09655
    lng: -102.87101
  phone: 308-761-4226
  website: https://
  sources:
  - samhsa/findtreatment
  verified:
    'on': '2026-07-19'
    method: api
