- id: ne/columbus/1-c-a-mission-church-of-the-lcms
  name: 1 C A Mission Church Of The Lcms
  categories:
  - meal-program
  address: {street: 2200 28Th Ave, city: Columbus, state: ne, zip: '68601'}
  description: Free summer meals for kids and teens (2026 season) — sponsored by 1C A Mission Church of
    the LCMS.
  place: '3110110'
  geo: {lat: 41.43768, lng: -97.36184}
  phone: (402) 314-2865
  external_ids: {usda_master: Cycle 04_NE_SFSP_0026}
  sources:
  - usda/summer-meal-sites
  verified: {'on': '2026-07-19', method: api}
- id: ne/columbus/behavioral-health-specialists-inc-seekers-for-se
  name: Behavioral Health Specialists Inc Seekers for Serenity
  categories:
  - su-treatment
  - mh-treatment
  address:
    street: 4432 Sunrise Place
    city: Columbus
    state: ne
    zip: '68601'
  place: '3110110'
  geo:
    lat: 41.42955
    lng: -97.38141
  phone: 402-564-9994
  website: https://
  sources:
  - samhsa/findtreatment
  verified:
    'on': '2026-07-19'
    method: api
- id: ne/columbus/behavioral-health-specialists-inc-seekers-of-ser
  name: Behavioral Health Specialists Inc Seekers of Serenity Place
  categories:
  - su-treatment
  address:
    street: 4432 Sunrise Place
    city: Columbus
    state: ne
    zip: '68601'
  place: '3110110'
  geo:
    lat: 41.42955
    lng: -97.38141
  phone: 402-564-9994
  website: https://www.4bhs.org
  sources:
  - samhsa/findtreatment
  verified:
    'on': '2026-07-19'
    method: api
- id: ne/columbus/blessing-box
  name: Blessing Box
  categories:
  - food-pantry
  place: '3110110'
  geo:
    lat: 41.4326
    lng: -97.37246
  external_ids:
    lfp: '65'
  sources:
  - littlefreepantry/map
  verified:
    'on': '2026-07-19'
    method: scrape
- id: ne/columbus/columbus-early-head-start
  name: Columbus Early Head Start
  categories:
  - child-care
  address:
    street: 3378 53rd Ave
    city: Columbus
    state: ne
    zip: '68601'
  place: '3110110'
  geo:
    lat: 41.44927
    lng: -97.39472
  phone: 402-564-1124
  sources:
  - acf/head-start-locations
  verified:
    'on': '2026-07-19'
    method: api
- id: ne/columbus/columbus-head-start
  name: Columbus Head Start
  categories:
  - child-care
  address:
    street: 3286 53rd Ave
    city: Columbus
    state: ne
    zip: '68601'
  place: '3110110'
  geo:
    lat: 41.4478
    lng: -97.39471
  phone: 402-564-1124
  sources:
  - acf/head-start-locations
  verified:
    'on': '2026-07-19'
    method: api
- id: ne/columbus/columbus-high-school
  name: Columbus High School
  categories:
  - meal-program
  address: {street: 3434 Discoverer Drive, city: Columbus, state: ne, zip: '68601'}
  description: Free summer meals for kids and teens (2026 season) — sponsored by Columbus Public School.
  place: '3110110'
  geo: {lat: 41.45531, lng: -97.37055}
  phone: (402) 563-7000
  external_ids: {usda_master: Cycle 04_NE_SFSP_0024}
  sources:
  - usda/summer-meal-sites
  verified: {'on': '2026-07-19', method: api}
- id: ne/columbus/columbus-infant-toddler-center
  name: Columbus Infant Toddler Center
  categories:
  - child-care
  address:
    street: 3362 53rd Ave
    city: Columbus
    state: ne
    zip: '68601'
  place: '3110110'
  geo:
    lat: 41.449
    lng: -97.39472
  phone: 402-564-1124
  sources:
  - acf/head-start-locations
  verified:
    'on': '2026-07-19'
    method: api
- id: ne/columbus/columbus-middle-school
  name: Columbus Middle School
  categories:
  - meal-program
  address: {street: 2200 26 Street, city: Columbus, state: ne, zip: '68601'}
  description: Free summer meals for kids and teens (2026 season) — sponsored by Columbus Public School.
  place: '3110110'
  geo: {lat: 41.44112, lng: -97.35528}
  phone: (402) 563-7000
  external_ids: {usda_master: Cycle 04_NE_SFSP_0023}
  sources:
  - usda/summer-meal-sites
  verified: {'on': '2026-07-19', method: api}
- id: ne/columbus/east-central-district-health-department-good-nei
  name: East Central District Health Department/Good Neighbor Community Health Center
  categories:
  - community-health-center
  address:
    street: 4321 41st Ave
    city: Columbus
    state: ne
    zip: '68601'
  place: '3110110'
  geo:
    lat: 41.45816
    lng: -97.37668
  phone: 402-562-7500
  website: https://www.ecdhd.com
  external_ids:
    bphc: BPS-H80-011391
  sources:
  - hrsa/health-center-sites
  verified:
    'on': '2026-07-19'
    method: api
- id: ne/columbus/glc
  name: GLC
  categories:
  - su-treatment
  - mh-treatment
  address:
    street: 2277 22nd Avenue
    city: Columbus
    state: ne
    zip: '68601'
  place: '3110110'
  geo:
    lat: 41.43836
    lng: -97.35401
  phone: 402-562-0400
  website: https://www.goodlifecounseling.com
  sources:
  - samhsa/findtreatment
  verified:
    'on': '2026-07-19'
    method: api
- id: ne/columbus/good-neighbor-community-health-center
  name: Good Neighbor Community Health Center
  categories:
  - su-treatment
  - mh-treatment
  address:
    street: 4321 41st Avenue
    city: Columbus
    state: ne
    zip: '68601'
  place: '3110110'
  geo:
    lat: 41.45808
    lng: -97.37677
  phone: 402-562-7500
  website: https://goodneighborcommunityhealthcenter.com
  sources:
  - samhsa/findtreatment
  verified:
    'on': '2026-07-19'
    method: api
- id: ne/columbus/goodwill-industries-of-greater-ne-columbus-offic
  name: Goodwill Industries of Greater NE Columbus Office
  categories:
  - su-treatment
  - mh-treatment
  address:
    street: 3100 23rd Street
    city: Columbus
    state: ne
    zip: '68601'
  place: '3110110'
  geo:
    lat: 41.43986
    lng: -97.36567
  phone: 402-942-9007
  website: https://goodwillne.org
  sources:
  - samhsa/findtreatment
  verified:
    'on': '2026-07-19'
    method: api
- id: ne/columbus/kramer-education-center
  name: Kramer Education Center
  categories:
  - meal-program
  address: {street: 2410 16Th Street Ste A, city: Columbus, state: ne, zip: '68601'}
  description: Free summer meals for kids and teens (2026 season) — sponsored by Columbus Public School.
  place: '3110110'
  geo: {lat: 41.43221, lng: -97.35724}
  phone: (402) 563-7000
  external_ids: {usda_master: Cycle 04_NE_SFSP_0025}
  sources:
  - usda/summer-meal-sites
  verified: {'on': '2026-07-19', method: api}
- id: ne/columbus/the-well-columbus
  name: The Well Columbus
  categories:
  - su-treatment
  - mh-treatment
  address:
    street: 2718 13th Street
    city: Columbus
    state: ne
    zip: '68601'
  place: '3110110'
  geo:
    lat: 41.42958
    lng: -97.36149
  phone: 402-371-0220
  website: https://thewellne.org/
  sources:
  - samhsa/findtreatment
  verified:
    'on': '2026-07-19'
    method: api
