- id: ne/yankee-hill/1632-w-garfield-street
  name: 1632 W Garfield Street
  org: ne/food-bank-of-lincoln
  categories:
  - food-pantry
  place: '3154020'
  geo: {lat: 40.79771, lng: -96.74522}
  sources:
  - foodbank/ne-food-bank-of-lincoln
  verified: {'on': '2026-07-20', method: api}
- id: ne/yankee-hill/2116-s-8th-st
  name: 2116 S 8th St
  org: ne/food-bank-of-lincoln
  categories:
  - food-pantry
  place: '3154020'
  geo: {lat: 40.79144, lng: -96.70988}
  sources:
  - foodbank/ne-food-bank-of-lincoln
  verified: {'on': '2026-07-20', method: api}
- id: ne/yankee-hill/3200-grainger-pkwy-horizon-community-church
  name: 3200 Grainger Pkwy Horizon Community Church
  org: ne/food-bank-of-lincoln
  categories:
  - food-pantry
  place: '3154020'
  geo: {lat: 40.73127, lng: -96.67492}
  sources:
  - foodbank/ne-food-bank-of-lincoln
  verified: {'on': '2026-07-20', method: api}
- id: ne/yankee-hill/3940-s-14th-st
  name: 3940 S 14th St
  org: ne/food-bank-of-lincoln
  categories:
  - food-pantry
  place: '3154020'
  geo: {lat: 40.77405, lng: -96.70139}
  sources:
  - foodbank/ne-food-bank-of-lincoln
  verified: {'on': '2026-07-20', method: api}
- id: ne/yankee-hill/giving-realty-1205-high-st
  name: Giving Realty-1205 High St
  org: ne/food-bank-of-lincoln
  categories:
  - food-pantry
  place: '3154020'
  geo: {lat: 40.78061, lng: -96.70414}
  sources:
  - foodbank/ne-food-bank-of-lincoln
  verified: {'on': '2026-07-20', method: api}
- id: ne/yankee-hill/new-visions-st-james-site
  name: New Visions St James Site
  categories:
  - food-pantry
  place: '3154020'
  geo: {lat: 40.7885, lng: -96.70513}
  website: https://mapping.littlefreepantry.org/pantry/2783
  external_ids: {lfp: '2783'}
  sources:
  - littlefreepantry/map
  verified: {'on': '2026-07-19', method: scrape}
- id: ne/yankee-hill/willard-community-center
  name: Willard Community Center
  org: ne/food-bank-of-lincoln
  categories:
  - food-pantry
  place: '3154020'
  geo: {lat: 40.80025, lng: -96.73063}
  sources:
  - foodbank/ne-food-bank-of-lincoln
  verified: {'on': '2026-07-20', method: api}
