- id: or/albany/12th-street-ehs
  name: 12th Street EHS
  categories:
  - child-care
  address:
    street: 325 Pacific Blvd SW
    city: Albany
    state: or
    zip: '97321'
  place: '4101000'
  geo:
    lat: 44.62832
    lng: -123.10613
  phone: 541-451-1581
  sources:
  - acf/head-start-locations
  verified:
    'on': '2026-07-19'
    method: api
- id: or/albany/albany-comprehensive-treatment-center-crc-health
  name: Albany Comprehensive Treatment Center CRC Health Oregon LLC
  categories:
  - su-treatment
  address:
    street: 213 Water Avenue NW
    city: Albany
    state: or
    zip: '97321'
  place: '4101000'
  geo:
    lat: 44.63809
    lng: -123.10739
  phone: 541-371-2080
  website: https://www.ctcprograms.com/location/albany-comprehensive-
  sources:
  - samhsa/findtreatment
  verified:
    'on': '2026-07-19'
    method: api
- id: or/albany/ehs-plaza-albany
  name: EHS Plaza- Albany
  categories:
  - child-care
  address:
    street: 1630 9th Ave SE
    city: Albany
    state: or
    zip: '97322'
  place: '4101000'
  geo:
    lat: 44.63259
    lng: -123.08473
  phone: 541-451-1581
  sources:
  - acf/head-start-locations
  verified:
    'on': '2026-07-19'
    method: api
- id: or/albany/emergence-addiction-and-behavioral-therapies
  name: Emergence Addiction and Behavioral Therapies
  categories:
  - su-treatment
  address:
    street: 1856 Grand Prairie Road SE
    city: Albany
    state: or
    zip: '97322'
  place: '4101000'
  geo:
    lat: 44.61672
    lng: -123.08152
  phone: 541-967-6597
  website: https://www.4emergence.com
  sources:
  - samhsa/findtreatment
  verified:
    'on': '2026-07-19'
    method: api
- id: or/albany/linn-benton-housing-authority
  name: Linn-Benton Housing Authority
  categories:
  - housing-assistance
  address: {street: 1250 Queen Ave SE, city: Albany, state: or, zip: '97322'}
  description: Housing Choice Voucher (Section 8) agency
  place: '4101000'
  geo: {lat: 44.62502, lng: -123.0865}
  phone: 541-926-4497
  sources:
  - hud/resource-locator
  verified: {'on': '2026-07-19', method: api}
- id: or/albany/riverside-center-albany
  name: Riverside Center - Albany
  categories:
  - child-care
  address:
    street: 35140 Meadow Rd SW
    city: Albany
    state: or
    zip: '97321'
  place: '4101000'
  geo:
    lat: 44.59935
    lng: -123.16094
  phone: 541-967-0144
  sources:
  - acf/head-start-locations
  verified:
    'on': '2026-07-19'
    method: api
- id: or/albany/serenity-lane-albany
  name: Serenity Lane Albany
  categories:
  - su-treatment
  - mh-treatment
  address:
    street: 1050 Price Road SE
    city: Albany
    state: or
    zip: '97322'
  place: '4101000'
  geo:
    lat: 44.63214
    lng: -123.05822
  phone: 541-928-9681
  website: https://serenitylane.org
  sources:
  - samhsa/findtreatment
  verified:
    'on': '2026-07-19'
    method: api
- id: or/albany/sunrise-neighbors
  name: Sunrise neighbors
  categories:
  - food-pantry
  place: '4101000'
  geo:
    lat: 44.62007
    lng: -123.09645
  external_ids:
    lfp: '3222'
  sources:
  - littlefreepantry/map
  verified:
    'on': '2026-07-19'
    method: scrape
