- id: or/bandon/bandon
  name: BANDON
  categories:
  - child-care
  address: {street: 590 Fillmore Ave SE, city: Bandon, state: or, zip: '97411'}
  description: Head Start early childhood program — 14 funded slots; operated by Oregon Coast Community
    Action.
  place: '4103800'
  geo: {lat: 43.11598, lng: -124.40905}
  phone: 541-347-3523
  sources:
  - acf/head-start-locations
  verified: {'on': '2026-07-19', method: api}
- id: or/bandon/bandon-community-health-center
  name: Bandon Community Health Center
  categories:
  - community-health-center
  cost: sliding-scale
  address: {street: '1010 1st St SE, Suite 110', city: Bandon, state: or, zip: '97411'}
  place: '4103800'
  geo: {lat: 43.11941, lng: -124.39981}
  phone: 541-347-2529
  external_ids: {bphc: BPS-H80-041122}
  sources:
  - hrsa/health-center-sites
  verified: {'on': '2026-07-19', method: api}
- id: or/bandon/bandon-good-neighbors
  name: Bandon Good Neighbors
  org: or/oregon-food-bank
  categories:
  - food-pantry
  address: {street: 1100 11th Street, city: Bandon, state: or, zip: '97411'}
  place: '4103800'
  geo: {lat: 43.1135, lng: -124.43185}
  phone: 541-347-3268
  hours:
  - {days: [tue], open: '09:00', close: '12:00'}
  external_ids: {or-oregon-food-bank: bandon-good-neighbors}
  sources:
  - foodbank/or-oregon-food-bank
  verified: {'on': '2026-07-21', method: scrape}
- id: or/bandon/bandon-sr-high
  name: Bandon Sr High
  categories:
  - meal-program
  address: {street: 455 9Th St. Sw, city: Bandon, state: or, zip: '97411'}
  description: Free summer meals for kids and teens (2026 season) — sponsored by Bandon SD 54.
  place: '4103800'
  geo: {lat: 43.11517, lng: -124.41849}
  phone: (541) 347-4102
  external_ids: {usda_master: Cycle 01_OR_SFSP_0009}
  sources:
  - usda/summer-meal-sites
  verified: {'on': '2026-07-19', method: api}
- id: or/bandon/coast-community-health-center-behavioral-health
  name: Coast Community Health Center - Behavioral Health
  categories:
  - community-health-center
  cost: sliding-scale
  address: {street: '1010 1st St SE, Suite 210', city: Bandon, state: or, zip: '97411'}
  place: '4103800'
  geo: {lat: 43.11939, lng: -124.39982}
  phone: 541-348-2293
  external_ids: {bphc: BPS-H80-041124}
  sources:
  - hrsa/health-center-sites
  verified: {'on': '2026-07-19', method: api}
- id: or/bandon/coos-health-and-wellness-wic-clinic
  name: Coos Health and Wellness WIC Clinic
  categories:
  - food
  - family-support
  description: 'WIC clinic — Special Supplemental Nutrition Program for Women, Infants, and Children:
    healthy food benefits, nutrition counseling, and breastfeeding support for pregnant and postpartum
    parents and children under 5.'
  address: {street: 590 Filmore Ave. SE, city: Bandon, state: or, zip: '97411'}
  geo: {lat: 43.11658, lng: -124.40908}
  place: '4103800'
  phone: 541-751-2401
  website: http://www.co.coos.or.us/ph/wic/
  external_ids: {wic: 'or-wic:28'}
  sources:
  - wic/or-wic
  verified: {'on': '2026-07-20', method: api}
- id: or/bandon/food-and-faith
  name: Food and Faith
  org: or/oregon-food-bank
  categories:
  - food-pantry
  place: '4103800'
  geo: {lat: 43.114, lng: -124.41218}
  phone: 714-768-4154
  hours:
  - {days: [fri], open: '13:00', close: '16:00'}
  external_ids: {or-oregon-food-bank: food-and-faith}
  sources:
  - foodbank/or-oregon-food-bank
  verified: {'on': '2026-07-21', method: scrape}
- id: or/bandon/restoration-worship-center
  name: Restoration Worship Center
  org: or/oregon-food-bank
  categories:
  - food-pantry
  address: {street: 89 North Avenue NE, city: Bandon, state: or, zip: '97411'}
  place: '4103800'
  geo: {lat: 43.11804, lng: -124.41671}
  phone: 541-347-4900
  hours:
  - {days: [thu], open: '16:00', close: '18:00'}
  external_ids: {or-oregon-food-bank: restoration-worship-center}
  sources:
  - foodbank/or-oregon-food-bank
  verified: {'on': '2026-07-21', method: scrape}
