- id: or/creswell/cobalt-activity-center
  name: Cobalt Activity Center
  categories:
  - meal-program
  address: {street: 364 Cobalt Ln., city: Creswell, state: or, zip: '97426'}
  description: Free summer meals for kids and teens (2026 season) — sponsored by Food For Lane County.
  place: '4116950'
  geo: {lat: 43.92952, lng: -123.02286}
  phone: (541) 517-5052
  external_ids: {usda_master: Cycle 02_OR_SFSP_0048}
  sources:
  - usda/summer-meal-sites
  verified: {'on': '2026-07-19', method: api}
- id: or/creswell/community-food-for-creswell-commercial-kitchen-p
  name: Community Food For Creswell Commercial Kitchen Program
  org: or/oregon-food-bank
  categories:
  - meal-program
  address: {street: 364 Cobalt Lane, city: Creswell, state: or, zip: '97426'}
  place: '4116950'
  geo: {lat: 43.92944, lng: -123.02491}
  phone: 541-870-2252
  hours:
  - {days: [thu], open: '17:00', close: '18:00'}
  external_ids: {or-oregon-food-bank: community-food-for-creswell-commercial-kitchen-program}
  sources:
  - foodbank/or-oregon-food-bank
  verified: {'on': '2026-07-20', method: scrape}
- id: or/creswell/community-food-for-creswell-pantry
  name: Community Food For Creswell Pantry
  org: or/oregon-food-bank
  categories:
  - food-pantry
  address: {street: 364 Cobalt Lane, city: Creswell, state: or, zip: '97426'}
  place: '4116950'
  geo: {lat: 43.91675, lng: -123.03027}
  phone: 541-870-2252
  hours:
  - {days: [thu], open: '09:00', close: '12:00'}
  external_ids: {or-oregon-food-bank: community-food-for-creswell}
  sources:
  - foodbank/or-oregon-food-bank
  verified: {'on': '2026-07-20', method: scrape}
- id: or/creswell/holt-park
  name: Holt Park
  categories:
  - meal-program
  address: {street: 127 N 4Th St, city: Creswell, state: or, zip: '97426'}
  description: Free summer meals for kids and teens (2026 season) — sponsored by Food For Lane County.
  place: '4116950'
  geo: {lat: 43.91941, lng: -123.02314}
  phone: (541) 816-2792
  external_ids: {usda_master: Cycle 02_OR_SFSP_0099}
  sources:
  - usda/summer-meal-sites
  verified: {'on': '2026-07-19', method: api}
- id: or/creswell/little-free-pantry
  name: Little Free Pantry
  categories:
  - food-pantry
  place: '4116950'
  geo: {lat: 43.91774, lng: -123.00739}
  website: https://mapping.littlefreepantry.org/pantry/2026
  external_ids: {lfp: '2026'}
  sources:
  - littlefreepantry/map
  verified: {'on': '2026-07-19', method: scrape}
