- id: or/drain/family-relief-nursery-nd
  name: Family Relief Nursery - ND
  categories:
  - food-pantry
  place: '4120500'
  geo: {lat: 43.66239, lng: -123.31132}
  website: https://mapping.littlefreepantry.org/pantry/5400
  external_ids: {lfp: '5400'}
  sources:
  - littlefreepantry/map
  verified: {'on': '2026-07-19', method: scrape}
- id: or/drain/fish-of-drain
  name: FISH of Drain
  org: or/oregon-food-bank
  categories:
  - food-pantry
  address: {street: 128 C Street, city: Drain, state: or, zip: '97435'}
  place: '4120500'
  geo: {lat: 43.66262, lng: -123.31195}
  phone: 541-836-2212
  hours:
  - {days: [tue], open: '09:00', close: '13:00'}
  external_ids: {or-oregon-food-bank: fish-of-drain}
  sources:
  - foodbank/or-oregon-food-bank
  verified: {'on': '2026-07-21', method: scrape}
- id: or/drain/living-hope-outreach-kitchen
  name: Living Hope Outreach Kitchen
  org: or/oregon-food-bank
  categories:
  - meal-program
  address: {street: 337 "C" Avenue, city: Drain, state: or, zip: '97435'}
  place: '4120500'
  geo: {lat: 43.66337, lng: -123.31777}
  phone: 541-391-3973
  hours:
  - {days: [wed], open: '12:00', close: '13:30'}
  external_ids: {or-oregon-food-bank: living-hope-outreach-kitchen}
  sources:
  - foodbank/or-oregon-food-bank
  verified: {'on': '2026-07-21', method: scrape}
- id: or/drain/living-hope-outreach-pantry
  name: Living Hope Outreach Pantry
  org: or/oregon-food-bank
  categories:
  - food-pantry
  address: {street: 337 'C' Avenue, city: Drain, state: or, zip: '97435'}
  place: '4120500'
  geo: {lat: 43.66337, lng: -123.31777}
  phone: 541-391-3973
  hours:
  - {days: [wed], open: '12:00', close: '14:30'}
  external_ids: {or-oregon-food-bank: living-hope-outreach}
  sources:
  - foodbank/or-oregon-food-bank
  verified: {'on': '2026-07-21', method: scrape}
- id: or/drain/north-douglas-memorial-swimming-pool
  name: North Douglas Memorial Swimming Pool
  categories:
  - meal-program
  address: {street: 100 Anna Drain Park Rd, city: Drain, state: or, zip: '97435'}
  description: Free summer meals for kids and teens (2026 season) — sponsored by North Douglas SD 22.
  place: '4120500'
  geo: {lat: 43.65958, lng: -123.31488}
  phone: (541) 836-2213
  external_ids: {usda_master: Cycle 03_OR_SFSP_0245}
  sources:
  - usda/summer-meal-sites
  verified: {'on': '2026-07-19', method: api}
- id: or/drain/umpqua-comm-hlth-ctr-drain
  name: UMPQUA COMM HLTH CTR @ DRAIN
  categories:
  - community-health-center
  cost: sliding-scale
  address: {street: 316 W A Ave, city: Drain, state: or, zip: '97435'}
  place: '4120500'
  geo: {lat: 43.66231, lng: -123.31794}
  phone: 541-672-9596
  external_ids: {bphc: BPS-H80-027791}
  sources:
  - hrsa/health-center-sites
  verified: {'on': '2026-07-19', method: api}
- id: or/drain/wic-of-douglas-county-a-program-of-ucan
  name: WIC of Douglas County, A Program of UCAN
  categories:
  - food
  - family-support
  description: 'WIC clinic — Special Supplemental Nutrition Program for Women, Infants, and Children:
    healthy food benefits, nutrition counseling, and breastfeeding support for pregnant and postpartum
    parents and children under 5.'
  address: {street: 316 West A Ave., city: Drain, state: or, zip: '97435'}
  geo: {lat: 43.66214, lng: -123.30992}
  place: '4120500'
  phone: 541-440-3516
  external_ids: {wic: 'or-wic:13'}
  sources:
  - wic/or-wic
  verified: {'on': '2026-07-20', method: api}
