- id: or/enterprise/enterprise
  name: Enterprise
  categories:
  - child-care
  address:
    street: 670 NW 1st St
    city: Enterprise
    state: or
    zip: '97828'
  place: '4123500'
  geo:
    lat: 45.43014
    lng: -117.2789
  phone: 541-564-6878
  sources:
  - acf/head-start-locations
  verified:
    'on': '2026-07-19'
    method: api
- id: or/enterprise/enterprise-city-park
  name: Enterprise City Park
  categories:
  - meal-program
  address: {street: 210 W Greenwood Street, city: Enterprise, state: or, zip: '97828'}
  description: Free summer meals for kids and teens (2026 season) — sponsored by Building Healthy Families.
  place: '4123500'
  geo: {lat: 45.42459, lng: -117.27973}
  phone: (541) 426-9411
  external_ids: {usda_master: Cycle 01_OR_SFSP_0043}
  sources:
  - usda/summer-meal-sites
  verified: {'on': '2026-07-19', method: api}
- id: or/enterprise/enterprise-pharmacy-of-winding-waters
  name: Enterprise Pharmacy of Winding Waters
  categories:
  - community-health-center
  address:
    street: 501 W North St
    city: Enterprise
    state: or
    zip: '97828'
  place: '4123500'
  geo:
    lat: 45.4267
    lng: -117.283
  phone: 541-426-4504
  external_ids:
    bphc: BPS-H80-039396
  sources:
  - hrsa/health-center-sites
  verified:
    'on': '2026-07-19'
    method: api
- id: or/enterprise/pioneer-guest-home-ii-inc
  name: Pioneer Guest Home II Inc
  categories:
  - su-treatment
  - mh-treatment
  address:
    street: 101 East Main Street
    city: Enterprise
    state: or
    zip: '97828'
  place: '4123500'
  geo:
    lat: 45.42581
    lng: -117.27724
  phone: 541-426-4222
  website: https://www.wvcenterforwellness.org
  sources:
  - samhsa/findtreatment
  verified:
    'on': '2026-07-19'
    method: api
- id: or/enterprise/wallowa-valley-center-for-wellness
  name: Wallowa Valley Center for Wellness
  categories:
  - su-treatment
  - mh-treatment
  address:
    street: 606 Medical Parkway
    city: Enterprise
    state: or
    zip: '97828'
  place: '4123500'
  geo:
    lat: 45.43024
    lng: -117.28445
  phone: 541-426-4524
  website: https://www.wvcenterforwellness.org
  sources:
  - samhsa/findtreatment
  verified:
    'on': '2026-07-19'
    method: api
- id: or/enterprise/winding-waters-hearts-for-health
  name: Winding Waters Hearts for Health
  categories:
  - community-health-center
  address:
    street: 606 Medical Pkwy
    city: Enterprise
    state: or
    zip: '97828'
  place: '4123500'
  geo:
    lat: 45.43123
    lng: -117.28548
  phone: 541-426-4502
  external_ids:
    bphc: BPS-H80-034518
  sources:
  - hrsa/health-center-sites
  verified:
    'on': '2026-07-19'
    method: api
- id: or/enterprise/winding-waters-medical-clinic
  name: Winding Waters Medical Clinic
  categories:
  - community-health-center
  address:
    street: 603 Medical Pkwy
    city: Enterprise
    state: or
    zip: '97828'
  place: '4123500'
  geo:
    lat: 45.43245
    lng: -117.28586
  phone: 541-426-4502
  website: https://www.windingwaters.org
  external_ids:
    bphc: BPS-H80-015670
  sources:
  - hrsa/health-center-sites
  verified:
    'on': '2026-07-19'
    method: api
- id: or/enterprise/winding-waters-open-space
  name: Winding Waters Open Space
  categories:
  - community-health-center
  address:
    street: 758 NW 1st St
    city: Enterprise
    state: or
    zip: '97828'
  place: '4123500'
  geo:
    lat: 45.4314
    lng: -117.27893
  phone: 541-426-4848
  external_ids:
    bphc: BPS-H80-029956
  sources:
  - hrsa/health-center-sites
  verified:
    'on': '2026-07-19'
    method: api
