- id: or/hood-river/country-club-center
  name: Country Club Center
  categories:
  - child-care
  address:
    street: 820 Country Club Rd
    city: Hood River
    state: or
    zip: '97031'
  place: '4134900'
  geo:
    lat: 45.69647
    lng: -121.57098
  phone: 541-386-3269
  sources:
  - acf/head-start-locations
  verified:
    'on': '2026-07-19'
    method: api
- id: or/hood-river/hood-river-odell
  name: Hood River-Odell
  categories:
  - child-care
  address:
    street: 3485 Early Rd
    city: Hood River
    state: or
    zip: '97031'
  place: '4134900'
  geo:
    lat: 45.62644
    lng: -121.5434
  phone: 541-354-6232
  sources:
  - acf/head-start-locations
  verified:
    'on': '2026-07-19'
    method: api
- id: or/hood-river/mid-columbia-center-for-living
  name: Mid Columbia Center for Living
  categories:
  - su-treatment
  - mh-treatment
  address:
    street: 1610 Woods Court
    city: Hood River
    state: or
    zip: '97031'
  place: '4134900'
  geo:
    lat: 45.69788
    lng: -121.52181
  phone: 541-296-5452
  website: https://www.mccfl.org
  sources:
  - samhsa/findtreatment
  verified:
    'on': '2026-07-19'
    method: api
- id: or/hood-river/mid-valley
  name: Mid-Valley
  categories:
  - child-care
  address:
    street: 3686 Davis Dr
    street2: C/O Mid-Valley Elementary School
    city: Hood River
    state: or
    zip: '97031'
  place: '4134900'
  geo:
    lat: 45.62528
    lng: -121.5434
  phone: 541-716-0680
  sources:
  - acf/head-start-locations
  verified:
    'on': '2026-07-19'
    method: api
- id: or/hood-river/mobile-health-unit-2
  name: Mobile Health Unit 2
  categories:
  - community-health-center
  address:
    street: 849 Pacific Ave
    city: Hood River
    state: or
    zip: '97031'
  place: '4134900'
  geo:
    lat: 45.69615
    lng: -121.51938
  phone: 541-386-6380
  website: https://www.onecommunityhealth.org
  external_ids:
    bphc: BPS-H80-033029
  sources:
  - hrsa/health-center-sites
  verified:
    'on': '2026-07-19'
    method: api
- id: or/hood-river/mobile-health-unit-3
  name: Mobile Health Unit 3
  categories:
  - community-health-center
  address:
    street: 849 Pacific Ave
    city: Hood River
    state: or
    zip: '97031'
  place: '4134900'
  geo:
    lat: 45.69615
    lng: -121.51938
  phone: 541-386-6380
  external_ids:
    bphc: BPS-H80-041098
  sources:
  - hrsa/health-center-sites
  verified:
    'on': '2026-07-19'
    method: api
- id: or/hood-river/mobile-health-unit1
  name: Mobile Health Unit1
  categories:
  - community-health-center
  address:
    street: 849 Pacific Ave
    city: Hood River
    state: or
    zip: '97031'
  place: '4134900'
  geo:
    lat: 45.69615
    lng: -121.51938
  phone: 541-386-6380
  website: https://www.onecommunityhealth.org
  external_ids:
    bphc: BPS-H80-031828
  sources:
  - hrsa/health-center-sites
  verified:
    'on': '2026-07-19'
    method: api
- id: or/hood-river/one-community-health-hood-river
  name: One Community Health - Hood River
  categories:
  - community-health-center
  address:
    street: 849 Pacific Ave
    city: Hood River
    state: or
    zip: '97031'
  place: '4134900'
  geo:
    lat: 45.69615
    lng: -121.51938
  phone: 541-308-8368
  website: https://www.onecommunityhealth.org
  external_ids:
    bphc: BPS-H80-000732
  sources:
  - hrsa/health-center-sites
  verified:
    'on': '2026-07-19'
    method: api
- id: or/hood-river/one-community-health-hood-river-middle-school
  name: One Community Health - Hood River Middle School
  categories:
  - community-health-center
  address:
    street: 1602 May St
    city: Hood River
    state: or
    zip: '97031'
  place: '4134900'
  geo:
    lat: 45.70431
    lng: -121.52801
  phone: 541-308-8345
  external_ids:
    bphc: BPS-H80-040700
  sources:
  - hrsa/health-center-sites
  verified:
    'on': '2026-07-19'
    method: api
- id: or/hood-river/one-community-health-hood-river-valley-high-scho
  name: One Community Health - Hood River Valley High School Health Center
  categories:
  - community-health-center
  address:
    street: 1220 Indian Creek Rd
    city: Hood River
    state: or
    zip: '97031'
  place: '4134900'
  geo:
    lat: 45.68489
    lng: -121.54609
  phone: 541-308-8345
  website: http://www.onecommunityhealth.org
  external_ids:
    bphc: BPS-H80-014833
  sources:
  - hrsa/health-center-sites
  verified:
    'on': '2026-07-19'
    method: api
- id: or/hood-river/one-community-health-wy-east-middle-school
  name: One Community Health - Wy'east Middle School
  categories:
  - community-health-center
  address:
    street: 3000 Wyeast Rd
    city: Hood River
    state: or
    zip: '97031'
  place: '4134900'
  geo:
    lat: 45.63777
    lng: -121.55522
  phone: 541-354-1548
  external_ids:
    bphc: BPS-H80-040573
  sources:
  - hrsa/health-center-sites
  verified:
    'on': '2026-07-19'
    method: api
- id: or/hood-river/providence-hood-river-memorial-hospital-behavior
  name: Providence Hood River Memorial Hospital Behavioral Health
  categories:
  - su-treatment
  - mh-treatment
  address:
    street: 814 13th Street
    city: Hood River
    state: or
    zip: '97031'
  place: '4134900'
  geo:
    lat: 45.70428
    lng: -121.52549
  phone: 541-387-6138
  website: https://www.providence.org/locations/or/hood-river-memorial-hospital/behavioral-health
  sources:
  - samhsa/findtreatment
  verified:
    'on': '2026-07-19'
    method: api
- id: or/hood-river/westside-mccc
  name: Westside MCCC
  categories:
  - child-care
  address:
    street: 3685 Belmont Dr
    street2: C/O Westside Elementary
    city: Hood River
    state: or
    zip: '97031'
  place: '4134900'
  geo:
    lat: 45.69519
    lng: -121.54324
  phone: 541-386-6907
  sources:
  - acf/head-start-locations
  verified:
    'on': '2026-07-19'
    method: api
