- id: or/lebanon/cascades-school
  name: Cascades School
  categories:
  - meal-program
  address:
    street: 2163 S. 7Th St
    city: Lebanon
    state: or
    zip: '97355'
  description: Free summer meals for kids and teens (2026 season) — sponsored by Lebanon Community SD
    9.
  place: '4141650'
  geo:
    lat: 44.5255
    lng: -122.91603
  phone: (541) 259-8901
  external_ids:
    usda_master: Cycle 05_OR_SFSP_0080
  sources:
  - usda/summer-meal-sites
  verified:
    'on': '2026-07-19'
    method: api
- id: or/lebanon/east-linn-health-center
  name: East Linn Health Center
  categories:
  - community-health-center
  cost: sliding-scale
  address: {street: '100 Mullins Dr, Suite A 1', city: Lebanon, state: or, zip: '97355'}
  place: '4141650'
  geo: {lat: 44.5492, lng: -122.90934}
  phone: 541-451-6920
  website: http://bentonlinnhealthcenters.org/
  external_ids: {bphc: BPS-H80-004159}
  sources:
  - hrsa/health-center-sites
  verified: {'on': '2026-07-19', method: api}
- id: or/lebanon/hometown-comfort-station
  name: Hometown Comfort Station
  categories:
  - food-pantry
  place: '4141650'
  geo:
    lat: 44.521
    lng: -122.90626
  external_ids:
    lfp: '4407'
  sources:
  - littlefreepantry/map
  verified:
    'on': '2026-07-19'
    method: scrape
- id: or/lebanon/joy-street-center-lebanon
  name: Joy Street Center - Lebanon
  categories:
  - child-care
  address:
    street: 153 W Joy St
    city: Lebanon
    state: or
    zip: '97355'
  place: '4141650'
  geo:
    lat: 44.51035
    lng: -122.9076
  phone: 541-259-2227
  sources:
  - acf/head-start-locations
  verified:
    'on': '2026-07-19'
    method: api
- id: or/lebanon/lebanon-site
  name: Lebanon Site
  categories:
  - meal-program
  address:
    street: 305 S 5Th Ave.
    city: Lebanon
    state: or
    zip: '97355'
  description: Free summer meals for kids and teens (2026 season) — sponsored by Boys & Girls Club of
    the Greater Santiam.
  place: '4141650'
  geo:
    lat: 44.54281
    lng: -122.91273
  phone: (541) 258-7105
  external_ids:
    usda_master: Cycle 04_OR_SFSP_0287
  sources:
  - usda/summer-meal-sites
  verified:
    'on': '2026-07-19'
    method: api
- id: or/lebanon/pioneer-school
  name: Pioneer School
  categories:
  - meal-program
  address:
    street: 500 N 5Th St
    city: Lebanon
    state: or
    zip: '97355'
  description: Free summer meals for kids and teens (2026 season) — sponsored by Lebanon Community SD
    9.
  place: '4141650'
  geo:
    lat: 44.55023
    lng: -122.91284
  phone: (541) 259-8902
  external_ids:
    usda_master: Cycle 05_OR_SFSP_0437
  sources:
  - usda/summer-meal-sites
  verified:
    'on': '2026-07-19'
    method: api
- id: or/lebanon/riverview-school
  name: Riverview School
  categories:
  - meal-program
  address:
    street: 1011 Mountain River Drive
    city: Lebanon
    state: or
    zip: '97355'
  description: Free summer meals for kids and teens (2026 season) — sponsored by Lebanon Community SD
    9.
  place: '4141650'
  geo:
    lat: 44.52528
    lng: -122.89065
  phone: (541) 259-8901
  external_ids:
    usda_master: Cycle 05_OR_SFSP_0463
  sources:
  - usda/summer-meal-sites
  verified:
    'on': '2026-07-19'
    method: api
