- id: or/maywood-park/all-crows-are-beautiful-fremont-s-littlest-commu
  name: All Crows Are Beautiful,  Fremont's Littlest Community Pantry
  categories:
  - food-pantry
  place: '4146730'
  geo: {lat: 45.54834, lng: -122.57307}
  website: https://mapping.littlefreepantry.org/pantry/3564
  external_ids: {lfp: '3564'}
  sources:
  - littlefreepantry/map
  verified: {'on': '2026-07-19', method: scrape}
- id: or/maywood-park/school-pantry-at-floyd-light-sun-ephc
  name: School Pantry at Floyd Light (SUN/EPHC)
  org: or/oregon-food-bank
  categories:
  - food-pantry
  place: '4146730'
  geo: {lat: 45.51733, lng: -122.55437}
  phone: 503-256-6511
  website: https://elprograma.org/our-services/community-wellness/
  hours:
  - {days: [mon], open: '13:00', close: '14:30', note: 2nd and 4th Mondays of the month only.}
  external_ids: {or-oregon-food-bank: school-pantry-at-floyd-light-sun-ephc}
  sources:
  - foodbank/or-oregon-food-bank
  verified: {'on': '2026-07-20', method: scrape}
- id: or/maywood-park/school-pantry-at-mill-park-sun-irco-savage-churc
  name: School Pantry at Mill Park (SUN/IRCO) @ Savage Church
  org: or/oregon-food-bank
  categories:
  - food-pantry
  place: '4146730'
  geo: {lat: 45.5104, lng: -122.52321}
  phone: 971-340-6221
  hours:
  - {days: [tue], open: '14:30', close: '15:45'}
  external_ids: {or-oregon-food-bank: school-pantry-at-mill-park-sun-irco}
  sources:
  - foodbank/or-oregon-food-bank
  verified: {'on': '2026-07-20', method: scrape}
- id: or/maywood-park/scott-elementary-school-free-food-market-sun-lat
  name: Scott Elementary School Free Food Market (SUN/Latino Network)
  org: or/oregon-food-bank
  categories:
  - food-pantry
  place: '4146730'
  geo: {lat: 45.55504, lng: -122.59684}
  phone: 503-916-6369
  website: https://www.latnet.org/sun-community-schools
  hours:
  - {days: [fri], open: '14:30', close: '16:00', note: 3rd Friday of the month}
  external_ids: {or-oregon-food-bank: rigler-elementary-free-food-market-sun-latino-network}
  sources:
  - foodbank/or-oregon-food-bank
  verified: {'on': '2026-07-20', method: scrape}
- id: or/maywood-park/shady-pines-free-dirty-duck-eggs
  name: Shady Pines Free Dirty Duck Eggs
  categories:
  - food-pantry
  place: '4146730'
  geo: {lat: 45.51507, lng: -122.54687}
  website: https://mapping.littlefreepantry.org/pantry/5758
  external_ids: {lfp: '5758'}
  sources:
  - littlefreepantry/map
  verified: {'on': '2026-07-19', method: scrape}
- id: or/maywood-park/the-pocket-free-food-bank
  name: The Pocket Free Food Bank
  categories:
  - food-pantry
  place: '4146730'
  geo: {lat: 45.52857, lng: -122.59846}
  website: https://mapping.littlefreepantry.org/pantry/5919
  external_ids: {lfp: '5919'}
  sources:
  - littlefreepantry/map
  verified: {'on': '2026-07-19', method: scrape}
- id: or/maywood-park/yang-m-vue
  name: Yang M Vue
  categories:
  - food-pantry
  place: '4146730'
  geo: {lat: 45.53082, lng: -122.59221}
  website: https://mapping.littlefreepantry.org/pantry/4647
  external_ids: {lfp: '4647'}
  sources:
  - littlefreepantry/map
  verified: {'on': '2026-07-19', method: scrape}
