- id: or/myrtle-creek/meadowlark-apts
  name: Meadowlark Apts.
  categories:
  - meal-program
  address:
    street: 721 Meadowlark Avenue
    city: Myrtle Creek
    state: or
    zip: '97457'
  description: Free summer meals for kids and teens (2026 season) — sponsored by South Umpqua SD 19.
  place: '4150950'
  geo:
    lat: 43.01712
    lng: -123.29272
  phone: (541) 863-3115
  external_ids:
    usda_master: Cycle 02_OR_SFSP_0146
  sources:
  - usda/summer-meal-sites
  verified:
    'on': '2026-07-19'
    method: api
- id: or/myrtle-creek/millsite-park
  name: Millsite Park
  categories:
  - meal-program
  address:
    street: 231 Volunteer Way
    city: Myrtle Creek
    state: or
    zip: '97457'
  description: Free summer meals for kids and teens (2026 season) — sponsored by South Umpqua SD 19.
  place: '4150950'
  geo:
    lat: 43.02453
    lng: -123.28964
  phone: (541) 863-3115
  external_ids:
    usda_master: Cycle 02_OR_SFSP_0152
  sources:
  - usda/summer-meal-sites
  verified:
    'on': '2026-07-19'
    method: api
- id: or/myrtle-creek/myrtle-creek-clinic
  name: Myrtle Creek Clinic
  categories:
  - community-health-center
  address:
    street: 790 S Main St
    city: Myrtle Creek
    state: or
    zip: '97457'
  place: '4150950'
  geo:
    lat: 43.01667
    lng: -123.2939
  phone: 541-860-4070
  website: https://www.umpquachc.org
  external_ids:
    bphc: BPS-H80-007926
  sources:
  - hrsa/health-center-sites
  verified:
    'on': '2026-07-19'
    method: api
- id: or/myrtle-creek/myrtle-creek-dental-clinic
  name: Myrtle Creek Dental Clinic
  categories:
  - community-health-center
  address:
    street: 244 NE Division St
    city: Myrtle Creek
    state: or
    zip: '97457'
  place: '4150950'
  geo:
    lat: 43.02732
    lng: -123.28458
  phone: 541-860-4070
  external_ids:
    bphc: BPS-H80-030102
  sources:
  - hrsa/health-center-sites
  verified:
    'on': '2026-07-19'
    method: api
- id: or/myrtle-creek/myrtle-terrace-apartments
  name: Myrtle Terrace Apartments
  categories:
  - meal-program
  address:
    street: 1135 Ne Simpson Lane
    city: Myrtle Creek
    state: or
    zip: '97457'
  description: Free summer meals for kids and teens (2026 season) — sponsored by South Umpqua SD 19.
  place: '4150950'
  geo:
    lat: 43.02506
    lng: -123.27136
  phone: (541) 863-3115
  external_ids:
    usda_master: Cycle 02_OR_SFSP_0159
  sources:
  - usda/summer-meal-sites
  verified:
    'on': '2026-07-19'
    method: api
- id: or/myrtle-creek/south-umpqua
  name: South Umpqua
  categories:
  - child-care
  address:
    street: 651 NE Division St
    city: Myrtle Creek
    state: or
    zip: '97457'
  place: '4150950'
  geo:
    lat: 43.02896
    lng: -123.27991
  phone: 541-673-6306
  sources:
  - acf/head-start-locations
  verified:
    'on': '2026-07-19'
    method: api
- id: or/myrtle-creek/south-umpqua-high
  name: South Umpqua High
  categories:
  - meal-program
  address:
    street: 501 Chadwick
    city: Myrtle Creek
    state: or
    zip: '97457'
  description: Free summer meals for kids and teens (2026 season) — sponsored by South Umpqua SD 19.
  place: '4150950'
  geo:
    lat: 42.98565
    lng: -123.32847
  phone: (541) 863-3115
  external_ids:
    usda_master: Cycle 02_OR_SFSP_0219
  sources:
  - usda/summer-meal-sites
  verified:
    'on': '2026-07-19'
    method: api
