- id: or/oregon-city/acadia-northwest-oregon-city
  name: Acadia Northwest Oregon City
  categories:
  - su-treatment
  - mh-treatment
  address:
    street: 504 Main Street
    city: Oregon City
    state: or
    zip: '97045'
  place: '4155200'
  geo:
    lat: 45.35669
    lng: -122.60963
  phone: 971-232-2234
  website: https://www.acadianw.com
  sources:
  - samhsa/findtreatment
  verified:
    'on': '2026-07-19'
    method: api
- id: or/oregon-city/beavercreek-health-center
  name: Beavercreek Health Center
  categories:
  - community-health-center
  address:
    street: 110 Beavercreek Rd, Suite 100
    city: Oregon City
    state: or
    zip: '97045'
  place: '4155200'
  geo:
    lat: 45.33573
    lng: -122.59908
  phone: 503-655-8471
  website: https://www.clackamas.us/healthcenters
  external_ids:
    bphc: BPS-H80-013476
  sources:
  - hrsa/health-center-sites
  verified:
    'on': '2026-07-19'
    method: api
- id: or/oregon-city/clackamas-community-college
  name: Clackamas Community College
  categories:
  - child-care
  address:
    street: 19600 Molalla Ave
    city: Oregon City
    state: or
    zip: '97045'
  place: '4155200'
  geo:
    lat: 45.32297
    lng: -122.57431
  phone: 503-675-4565
  sources:
  - acf/head-start-locations
  verified:
    'on': '2026-07-19'
    method: api
- id: or/oregon-city/clackamas-community-college-2
  name: Clackamas Community College
  categories:
  - meal-program
  address:
    street: 19600 S Mollala Ave
    city: Oregon City
    state: or
    zip: '97045'
  description: Free summer meals for kids and teens (2026 season) — sponsored by Clackamas County Children's
    Commission.
  place: '4155200'
  geo:
    lat: 45.3238
    lng: -122.57957
  phone: (503) 919-0714
  external_ids:
    usda_master: Cycle 07_OR_SFSP_0103
  sources:
  - usda/summer-meal-sites
  verified:
    'on': '2026-07-19'
    method: api
- id: or/oregon-city/clackamas-health-centers-administration
  name: Clackamas Health Centers Administration
  categories:
  - community-health-center
  address:
    street: '2051 Kaen Rd, #367'
    city: Oregon City
    state: or
    zip: '97045'
  place: '4155200'
  geo:
    lat: 45.33293
    lng: -122.59876
  phone: 503-742-5300
  website: https://www.clackamas.us/healthcenters
  external_ids:
    bphc: BPS-H80-005297
  sources:
  - hrsa/health-center-sites
  verified:
    'on': '2026-07-19'
    method: api
- id: or/oregon-city/gardiner-middle
  name: Gardiner Middle
  categories:
  - meal-program
  address:
    street: 205 Williams Street
    city: Oregon City
    state: or
    zip: '97045'
  description: Free summer meals for kids and teens (2026 season) — sponsored by Oregon City SD 62.
  place: '4155200'
  geo:
    lat: 45.33755
    lng: -122.60275
  phone: (503) 785-8000
  external_ids:
    usda_master: Cycle 03_OR_SFSP_0114
  sources:
  - usda/summer-meal-sites
  verified:
    'on': '2026-07-19'
    method: api
- id: or/oregon-city/housing-authority-of-clackamas-county
  name: Housing Authority Of Clackamas County
  categories:
  - housing-assistance
  address:
    street: 13930 Gain St
    city: Oregon City
    state: or
    zip: '97045'
  description: Public housing and Housing Choice Voucher agency
  place: '4155200'
  geo:
    lat: 45.36929
    lng: -122.58081
  phone: 503-655-8267
  sources:
  - hud/resource-locator
  verified:
    'on': '2026-07-19'
    method: api
- id: or/oregon-city/kingsbury-heights-apartments
  name: Kingsbury Heights Apartments
  categories:
  - meal-program
  address:
    street: 14290 Marjorie Lane
    city: Oregon City
    state: or
    zip: '97045'
  description: Free summer meals for kids and teens (2026 season) — sponsored by Oregon City SD 62.
  place: '4155200'
  geo:
    lat: 45.32855
    lng: -122.57341
  phone: (503) 785-8030
  external_ids:
    usda_master: Cycle 03_OR_SFSP_0183
  sources:
  - usda/summer-meal-sites
  verified:
    'on': '2026-07-19'
    method: api
- id: or/oregon-city/nhc-oregon-city-dental-clinic
  name: NHC Oregon City Dental Clinic
  categories:
  - community-health-center
  address:
    street: 19029 Beavercreek Rd
    city: Oregon City
    state: or
    zip: '97045'
  place: '4155200'
  geo:
    lat: 45.32948
    lng: -122.57276
  phone: 503-941-3064
  website: https://www.nhcoregon.org/
  external_ids:
    bphc: BPS-H80-012592
  sources:
  - hrsa/health-center-sites
  verified:
    'on': '2026-07-19'
    method: api
- id: or/oregon-city/nhc-oregon-city-medical-clinic
  name: NHC Oregon City Medical Clinic
  categories:
  - community-health-center
  address:
    street: 728 Molalla Ave
    city: Oregon City
    state: or
    zip: '97045'
  place: '4155200'
  geo:
    lat: 45.3454
    lng: -122.59688
  phone: 503-656-9030
  website: https://www.nhcoregon.org
  external_ids:
    bphc: BPS-H80-030104
  sources:
  - hrsa/health-center-sites
  verified:
    'on': '2026-07-19'
    method: api
- id: or/oregon-city/northwest-treatment-llc
  name: Northwest Treatment LLC
  categories:
  - su-treatment
  - mh-treatment
  address:
    street: 706 Main Street
    city: Oregon City
    state: or
    zip: '97045'
  place: '4155200'
  geo:
    lat: 45.35783
    lng: -122.60797
  phone: 503-655-1029
  website: https://www.nwtreatment.com
  sources:
  - samhsa/findtreatment
  verified:
    'on': '2026-07-19'
    method: api
- id: or/oregon-city/ocvm-center
  name: OCVM Center
  categories:
  - child-care
  address:
    street: 280 S Longview Way
    city: Oregon City
    state: or
    zip: '97045'
  place: '4155200'
  geo:
    lat: 45.37234
    lng: -122.57057
  phone: 503-656-3460
  sources:
  - acf/head-start-locations
  verified:
    'on': '2026-07-19'
    method: api
- id: or/oregon-city/oregon-city-high-school-sbhc
  name: Oregon City High School SBHC
  categories:
  - community-health-center
  address:
    street: 19761 Beavercreek Rd
    city: Oregon City
    state: or
    zip: '97045'
  place: '4155200'
  geo:
    lat: 45.32025
    lng: -122.56081
  phone: 503-785-8770
  website: http://www.clackamas.us/community_health/
  external_ids:
    bphc: BPS-H80-002638
  sources:
  - hrsa/health-center-sites
  verified:
    'on': '2026-07-19'
    method: api
- id: or/oregon-city/spark-wellness
  name: Spark Wellness
  categories:
  - su-treatment
  - mh-treatment
  address:
    street: 1010 5th Street
    city: Oregon City
    state: or
    zip: '97045'
  place: '4155200'
  geo:
    lat: 45.35275
    lng: -122.60305
  phone: 503-594-4750
  website: https://www.sparkwellness.com
  sources:
  - samhsa/findtreatment
  verified:
    'on': '2026-07-19'
    method: api
- id: or/oregon-city/sunshine-elcc-oregon-city
  name: Sunshine ELCC Oregon City
  categories:
  - child-care
  address:
    street: 16000 S Henrici Rd
    city: Oregon City
    state: or
    zip: '97045'
  place: '4155200'
  geo:
    lat: 45.30823
    lng: -122.53794
  sources:
  - acf/head-start-locations
  verified:
    'on': '2026-07-19'
    method: api
- id: or/oregon-city/tumwata-middle-school
  name: Tumwata Middle School
  categories:
  - meal-program
  address:
    street: 14133 S Donovan Rd.
    city: Oregon City
    state: or
    zip: '97045'
  description: Free summer meals for kids and teens (2026 season) — sponsored by Oregon City SD 62.
  place: '4155200'
  geo:
    lat: 45.35618
    lng: -122.57697
  phone: (503) 785-8030
  external_ids:
    usda_master: Cycle 03_OR_SFSP_0362
  sources:
  - usda/summer-meal-sites
  verified:
    'on': '2026-07-19'
    method: api
