- id: or/sheridan/faulconer-chapman-school
  name: Faulconer -Chapman School
  categories:
  - meal-program
  address: {street: 332 Sw Cornwall St, city: Sheridan, state: or, zip: '97378'}
  description: Free summer meals for kids and teens (2026 season) — sponsored by Sheridan SD 48J.
  place: '4167050'
  geo: {lat: 45.09271, lng: -123.40111}
  phone: (971) 261-6975
  external_ids: {usda_master: Cycle 01_OR_SFSP_0047}
  sources:
  - usda/summer-meal-sites
  verified: {'on': '2026-07-19', method: api}
- id: or/sheridan/sheridan-city-park
  name: Sheridan City Park
  categories:
  - meal-program
  address: {street: 601 Ne Yamhill St, city: Sheridan, state: or, zip: '97378'}
  description: Free summer meals for kids and teens (2026 season) — sponsored by Sheridan SD 48J.
  place: '4167050'
  geo: {lat: 45.09968, lng: -123.38869}
  phone: (971) 261-6959
  external_ids: {usda_master: Cycle 01_OR_SFSP_0138}
  sources:
  - usda/summer-meal-sites
  verified: {'on': '2026-07-19', method: api}
- id: or/sheridan/sheridan-high
  name: Sheridan High
  categories:
  - meal-program
  address: {street: 433 S Bridge St, city: Sheridan, state: or, zip: '97378'}
  description: Free summer meals for kids and teens (2026 season) — sponsored by Sheridan SD 48J.
  place: '4167050'
  geo: {lat: 45.09527, lng: -123.39541}
  phone: (971) 261-6970
  external_ids: {usda_master: Cycle 01_OR_SFSP_0139}
  sources:
  - usda/summer-meal-sites
  verified: {'on': '2026-07-19', method: api}
- id: or/sheridan/virginia-garcia-memorial-health-center-sheridan
  name: VIRGINIA GARCIA MEMORIAL HEALTH CENTER - SHERIDAN
  categories:
  - community-health-center
  address:
    street: 222 SE Jefferson St
    city: Sheridan
    state: or
    zip: '97378'
  place: '4167050'
  geo:
    lat: 45.09373
    lng: -123.39367
  phone: 503-352-8610
  website: https://virginiagarcia.org/
  external_ids:
    bphc: BPS-H80-040543
  sources:
  - hrsa/health-center-sites
  verified:
    'on': '2026-07-19'
    method: api
- id: or/sheridan/willamina-sheridan
  name: Willamina/Sheridan
  categories:
  - child-care
  address:
    street: 1500 W Main St
    city: Sheridan
    state: or
    zip: '97378'
  place: '4167050'
  geo:
    lat: 45.09558
    lng: -123.42514
  phone: 503-843-3525
  sources:
  - acf/head-start-locations
  verified:
    'on': '2026-07-19'
    method: api
