- id: or/tualatin/kaiser-permanente-tualatin-department-of-add-med
  name: Kaiser Permanente Tualatin/Department of Add Med
  categories:
  - su-treatment
  - mh-treatment
  address:
    street: 19185 SW 90th Avenue
    city: Tualatin
    state: or
    zip: '97062'
  place: '4174950'
  geo:
    lat: 45.38155
    lng: -122.77312
  phone: 855-632-8280
  website: https://www.kp.org
  sources:
  - samhsa/findtreatment
  verified:
    'on': '2026-07-19'
    method: api
- id: or/tualatin/nhc-tualatin-sbhc
  name: NHC Tualatin SBHC
  categories:
  - community-health-center
  address:
    street: 22300 SW Boones Ferry Rd RM 26A
    city: Tualatin
    state: or
    zip: '97062'
  place: '4174950'
  geo:
    lat: 45.359
    lng: -122.77469
  phone: 503-941-3180
  website: https://www.ttsdschools.org/Page/9446
  external_ids:
    bphc: BPS-H80-031239
  sources:
  - hrsa/health-center-sites
  verified:
    'on': '2026-07-19'
    method: api
- id: or/tualatin/safe-journeys
  name: Safe Journeys
  categories:
  - su-treatment
  address:
    street: 18801 SW Martinazzi Avenue
    city: Tualatin
    state: or
    zip: '97062'
  place: '4174950'
  geo:
    lat: 45.38398
    lng: -122.75916
  phone: 503-989-0991
  website: https://SafeJourneysOnline.com
  sources:
  - samhsa/findtreatment
  verified:
    'on': '2026-07-19'
    method: api
- id: or/tualatin/tualatin-community-gather
  name: Tualatin Community Gather
  categories:
  - food-pantry
  place: '4174950'
  geo:
    lat: 45.38126
    lng: -122.76429
  external_ids:
    lfp: '4705'
  sources:
  - littlefreepantry/map
  verified:
    'on': '2026-07-19'
    method: scrape
- id: or/tualatin/tualatin-elementary-school
  name: Tualatin Elementary School
  categories:
  - child-care
  address:
    street: 20405 SW 95th Ave
    city: Tualatin
    state: or
    zip: '97062'
  place: '4174950'
  geo:
    lat: 45.33792
    lng: -122.77284
  phone: 971-563-8006
  sources:
  - acf/head-start-locations
  verified:
    'on': '2026-07-19'
    method: api
