- id: or/warrenton/gateway-community-church
  name: Gateway Community Church
  categories:
  - meal-program
  address:
    street: 796 Pacific Dr
    city: Warrenton
    state: or
    zip: '97146'
  description: Free summer meals for kids and teens (2026 season) — sponsored by Warrenton-Hammond SD.
  place: '4178900'
  geo:
    lat: 46.19919
    lng: -123.94639
  phone: (503) 861-2281
  external_ids:
    usda_master: Cycle 01_OR_SFSP_0050
  sources:
  - usda/summer-meal-sites
  verified:
    'on': '2026-07-19'
    method: api
- id: or/warrenton/northwest-oregon-housing-authority
  name: Northwest Oregon Housing Authority
  categories:
  - housing-assistance
  address:
    street: 147 S Main Ave
    city: Warrenton
    state: or
    zip: '97146'
  description: Housing Choice Voucher (Section 8) agency
  place: '4178900'
  geo:
    lat: 46.164
    lng: -123.92536
  phone: 503-861-0119
  sources:
  - hud/resource-locator
  verified:
    'on': '2026-07-19'
    method: api
- id: or/warrenton/riverside-fellowship
  name: Riverside Fellowship
  categories:
  - meal-program
  address:
    street: 796 Pacific Dr
    city: Warrenton
    state: or
    zip: '97146'
  description: Free summer meals for kids and teens (2026 season) — sponsored by Warrenton-Hammond SD.
  place: '4178900'
  geo:
    lat: 46.19919
    lng: -123.94639
  phone: (503) 861-2281
  external_ids:
    usda_master: Cycle 03_OR_SFSP_0289
  sources:
  - usda/summer-meal-sites
  verified:
    'on': '2026-07-19'
    method: api
- id: or/warrenton/warrenton-center
  name: Warrenton Center
  categories:
  - child-care
  address:
    street: 200 SW 3rd St
    city: Warrenton
    state: or
    zip: '97146'
  place: '4178900'
  geo:
    lat: 46.16337
    lng: -123.92983
  phone: 503-861-9681
  sources:
  - acf/head-start-locations
  verified:
    'on': '2026-07-19'
    method: api
- id: or/warrenton/warrenton-grade-school
  name: Warrenton Grade School
  categories:
  - meal-program
  address:
    street: 820 Southwest Cedar Avenue
    city: Warrenton
    state: or
    zip: '97146'
  description: Free summer meals for kids and teens (2026 season) — sponsored by Warrenton-Hammond SD.
  place: '4178900'
  geo:
    lat: 46.15827
    lng: -123.93226
  phone: (503) 861-2281
  external_ids:
    usda_master: Cycle 01_OR_SFSP_0166
  sources:
  - usda/summer-meal-sites
  verified:
    'on': '2026-07-19'
    method: api
- id: or/warrenton/warrenton-library
  name: Warrenton Library
  categories:
  - meal-program
  address:
    street: 160 S. Main Ave
    city: Warrenton
    state: or
    zip: '97146'
  description: Free summer meals for kids and teens (2026 season) — sponsored by Warrenton-Hammond SD.
  place: '4178900'
  geo:
    lat: 46.16428
    lng: -123.92488
  phone: (503) 861-2281
  external_ids:
    usda_master: Cycle 01_OR_SFSP_0167
  sources:
  - usda/summer-meal-sites
  verified:
    'on': '2026-07-19'
    method: api
